{
  "metadata": {
    "resultset": {
      "offset": 139400,
      "count": 154115,
      "limit": 100
    }
  },
  "results": [
    {
      "elevation": 609.6,
      "mindate": "1969-12-01",
      "maxdate": "2013-03-31",
      "latitude": 41.8422,
      "name": "SABINSVILLE 3 SE, PA US",
      "datacoverage": 1,
      "id": "GHCND:USC00367730",
      "elevationUnit": "METERS",
      "longitude": -77.4759
    },
    {
      "elevation": 59.4,
      "mindate": "1948-05-01",
      "maxdate": "2025-03-07",
      "latitude": 39.92534,
      "name": "SAFE HARBOR DAM, PA US",
      "datacoverage": 1,
      "id": "GHCND:USC00367732",
      "elevationUnit": "METERS",
      "longitude": -76.38903
    },
    {
      "elevation": 197.8,
      "mindate": "1910-06-01",
      "maxdate": "1922-08-31",
      "latitude": 39.983333,
      "name": "SADSBURYVILLE, PA US",
      "datacoverage": 0.9727,
      "id": "GHCND:USC00367733",
      "elevationUnit": "METERS",
      "longitude": -75.883333
    },
    {
      "elevation": 340.2,
      "mindate": "1894-01-01",
      "maxdate": "1927-12-31",
      "latitude": 41.716667,
      "name": "SAEGERSTOWN, PA US",
      "datacoverage": 0.9658,
      "id": "GHCND:USC00367734",
      "elevationUnit": "METERS",
      "longitude": -80.116667
    },
    {
      "elevation": 353.6,
      "mindate": "1965-01-01",
      "maxdate": "2016-02-01",
      "latitude": 40.7819,
      "name": "SAGAMORE, PA US",
      "datacoverage": 1,
      "id": "GHCND:USC00367735",
      "elevationUnit": "METERS",
      "longitude": -79.2375
    },
    {
      "elevation": 402.3,
      "mindate": "1940-01-01",
      "maxdate": "1974-11-30",
      "latitude": 40.76667,
      "name": "SAGAMORE 1 S, PA US",
      "datacoverage": 0.9855,
      "id": "GHCND:USC00367739",
      "elevationUnit": "METERS",
      "longitude": -79.23333
    },
    {
      "elevation": 530.4,
      "mindate": "1896-06-01",
      "maxdate": "1910-05-31",
      "latitude": 41.416667,
      "name": "ST. MARYS, PA US",
      "datacoverage": 0.9646,
      "id": "GHCND:USC00367762",
      "elevationUnit": "METERS",
      "longitude": -78.583333
    },
    {
      "elevation": 338,
      "mindate": "1953-01-01",
      "maxdate": "2025-03-07",
      "latitude": 40.5101,
      "name": "SALINA 3 W, PA US",
      "datacoverage": 1,
      "id": "GHCND:USC00367782",
      "elevationUnit": "METERS",
      "longitude": -79.5459
    },
    {
      "elevation": 259.1,
      "mindate": "1893-01-01",
      "maxdate": "1952-08-31",
      "latitude": 40.45,
      "name": "SALTSBURG, PA US",
      "datacoverage": 0.8925,
      "id": "GHCND:USC00367796",
      "elevationUnit": "METERS",
      "longitude": -79.48333
    },
    {
      "elevation": 253,
      "mindate": "1940-12-01",
      "maxdate": "2013-02-05",
      "latitude": 40.2173,
      "name": "SAXTON 1 W, PA US",
      "datacoverage": 1,
      "id": "GHCND:USC00367846",
      "elevationUnit": "METERS",
      "longitude": -78.254
    },
    {
      "elevation": 646.2,
      "mindate": "1948-05-01",
      "maxdate": "1951-09-30",
      "latitude": 41.91667,
      "name": "SCANDIA 1 E, PA US",
      "datacoverage": 0.9756,
      "id": "GHCND:USC00367855",
      "elevationUnit": "METERS",
      "longitude": -79.03333
    },
    {
      "elevation": 238.7,
      "mindate": "1891-01-01",
      "maxdate": "2025-03-07",
      "latitude": 40.683,
      "name": "SCHENLEY LOCK 5, PA US",
      "datacoverage": 1,
      "id": "GHCND:USC00367863",
      "elevationUnit": "METERS",
      "longitude": -79.6684
    },
    {
      "elevation": 245.1,
      "mindate": "1926-01-01",
      "maxdate": "1975-01-31",
      "latitude": 41.41667,
      "name": "SCRANTON, PA US",
      "datacoverage": 0.9881,
      "id": "GHCND:USC00367902",
      "elevationUnit": "METERS",
      "longitude": -75.66667
    },
    {
      "elevation": 268.2,
      "mindate": "1899-12-01",
      "maxdate": "1910-04-30",
      "latitude": 40.468667,
      "name": "SEISHOLTZVILLE, PA US",
      "datacoverage": 0.9992,
      "id": "GHCND:USC00367926",
      "elevationUnit": "METERS",
      "longitude": -75.6025
    },
    {
      "elevation": 128,
      "mindate": "1893-01-01",
      "maxdate": "2025-03-07",
      "latitude": 40.7831,
      "name": "SELINSGROVE 2 S, PA US",
      "datacoverage": 1,
      "id": "GHCND:USC00367931",
      "elevationUnit": "METERS",
      "longitude": -76.8617
    },
    {
      "elevation": 92,
      "mindate": "1948-05-01",
      "maxdate": "2025-03-07",
      "latitude": 40.35515,
      "name": "SELLERSVILLE, PA US",
      "datacoverage": 1,
      "id": "GHCND:USC00367938",
      "elevationUnit": "METERS",
      "longitude": -75.31313
    },
    {
      "elevation": 865.6,
      "mindate": "1983-01-01",
      "maxdate": "1993-10-29",
      "latitude": 40.01667,
      "name": "SEVEN SPRINGS, PA US",
      "datacoverage": 0.9993,
      "id": "GHCND:USC00367942",
      "elevationUnit": "METERS",
      "longitude": -79.3
    },
    {
      "elevation": 342,
      "mindate": "1938-01-01",
      "maxdate": "1952-08-31",
      "latitude": 40.41667,
      "name": "SEWARD, PA US",
      "datacoverage": 0.9998,
      "id": "GHCND:USC00367956",
      "elevationUnit": "METERS",
      "longitude": -79.01667
    },
    {
      "elevation": 281,
      "mindate": "1948-05-01",
      "maxdate": "1951-09-30",
      "latitude": 40.18333,
      "name": "SHADE GAP, PA US",
      "datacoverage": 1,
      "id": "GHCND:USC00367965",
      "elevationUnit": "METERS",
      "longitude": -77.86667
    },
    {
      "elevation": 234.7,
      "mindate": "1944-07-01",
      "maxdate": "1995-02-28",
      "latitude": 40.8,
      "name": "SHAMOKIN, PA US",
      "datacoverage": 0.9853,
      "id": "GHCND:USC00367978",
      "elevationUnit": "METERS",
      "longitude": -76.55
    },
    {
      "elevation": 289.9,
      "mindate": "1938-01-01",
      "maxdate": "1952-03-31",
      "latitude": 41.26667,
      "name": "SHARPSVILLE, PA US",
      "datacoverage": 0.9999,
      "id": "GHCND:USC00368000",
      "elevationUnit": "METERS",
      "longitude": -80.46667
    },
    {
      "elevation": 388.6,
      "mindate": "1992-05-01",
      "maxdate": "2010-12-31",
      "latitude": 40.03278,
      "name": "SHAWNEE STATE PARK, PA US",
      "datacoverage": 1,
      "id": "GHCND:USC00368011",
      "elevationUnit": "METERS",
      "longitude": -78.63722
    },
    {
      "elevation": 585.2,
      "mindate": "1948-06-01",
      "maxdate": "1954-03-31",
      "latitude": 41.7095,
      "name": "SHEFFIELD 5 W, PA US",
      "datacoverage": 0.5716,
      "id": "GHCND:USC00368026",
      "elevationUnit": "METERS",
      "longitude": -79.1261
    },
    {
      "elevation": 208.8,
      "mindate": "1971-01-01",
      "maxdate": "2018-08-31",
      "latitude": 41.1831,
      "name": "SHICKSHINNY 3 N, PA US",
      "datacoverage": 1,
      "id": "GHCND:USC00368057",
      "elevationUnit": "METERS",
      "longitude": -76.1488
    },
    {
      "elevation": 460.2,
      "mindate": "1893-12-01",
      "maxdate": "2013-07-31",
      "latitude": 41.96667,
      "name": "SHINGLEHOUSE, PA US",
      "datacoverage": 0.0759,
      "id": "GHCND:USC00368066",
      "elevationUnit": "METERS",
      "longitude": -78.18333
    },
    {
      "elevation": 207.3,
      "mindate": "1910-09-01",
      "maxdate": "2025-03-06",
      "latitude": 40.05903,
      "name": "SHIPPENSBURG, PA US",
      "datacoverage": 1,
      "id": "GHCND:USC00368073",
      "elevationUnit": "METERS",
      "longitude": -77.52127
    },
    {
      "elevation": 224,
      "mindate": "1955-04-01",
      "maxdate": "1957-12-31",
      "latitude": 40.61667,
      "name": "SHIPPINGPORT, PA US",
      "datacoverage": 1,
      "id": "GHCND:USC00368078",
      "elevationUnit": "METERS",
      "longitude": -80.43333
    },
    {
      "elevation": 453.8,
      "mindate": "1983-10-01",
      "maxdate": "1986-06-30",
      "latitude": 41.55,
      "name": "SHUNK, PA US",
      "datacoverage": 0.9398,
      "id": "GHCND:USC00368111",
      "elevationUnit": "METERS",
      "longitude": -76.75
    },
    {
      "elevation": 249.9,
      "mindate": "1951-01-01",
      "maxdate": "2012-03-31",
      "latitude": 41.3202,
      "name": "SINNEMAHONING, PA US",
      "datacoverage": 1,
      "id": "GHCND:USC00368145",
      "elevationUnit": "METERS",
      "longitude": -78.0958
    },
    {
      "elevation": 393.2,
      "mindate": "1957-12-01",
      "maxdate": "1963-04-30",
      "latitude": 41.5987,
      "name": "SIZERVILLE, PA US",
      "datacoverage": 0.9391,
      "id": "GHCND:USC00368155",
      "elevationUnit": "METERS",
      "longitude": -78.1714
    },
    {
      "elevation": 61,
      "mindate": "1893-03-01",
      "maxdate": "1897-06-30",
      "latitude": 40.233333,
      "name": "SKIPPACK, PA US",
      "datacoverage": 0.25,
      "id": "GHCND:USC00368161",
      "elevationUnit": "METERS",
      "longitude": -75.4
    },
    {
      "elevation": 384,
      "mindate": "1949-01-01",
      "maxdate": "2025-03-07",
      "latitude": 41.056,
      "name": "SLIPPERY ROCK 1 SSW, PA US",
      "datacoverage": 1,
      "id": "GHCND:USC00368184",
      "elevationUnit": "METERS",
      "longitude": -80.0595
    },
    {
      "elevation": 447.8,
      "mindate": "1894-01-01",
      "maxdate": "1951-09-30",
      "latitude": 41.81667,
      "name": "SMETHPORT, PA US",
      "datacoverage": 0.4503,
      "id": "GHCND:USC00368190",
      "elevationUnit": "METERS",
      "longitude": -78.43333
    },
    {
      "elevation": 463.3,
      "mindate": "1985-01-01",
      "maxdate": "1991-01-31",
      "latitude": 41.79667,
      "name": "SMETHPORT, PA US",
      "datacoverage": 0.9996,
      "id": "GHCND:USC00368203",
      "elevationUnit": "METERS",
      "longitude": -78.46333
    },
    {
      "elevation": 679.7,
      "mindate": "1940-10-01",
      "maxdate": "1942-12-31",
      "latitude": 41.102333,
      "name": "SMITH ELLIOTT FIRE TOWER, PA US",
      "datacoverage": 1,
      "id": "GHCND:USC00368205",
      "elevationUnit": "METERS",
      "longitude": -78.522833
    },
    {
      "elevation": 143.3,
      "mindate": "1899-10-01",
      "maxdate": "1910-04-30",
      "latitude": 40.421667,
      "name": "SMITHS CORNERS, PA US",
      "datacoverage": 0.9992,
      "id": "GHCND:USC00368208",
      "elevationUnit": "METERS",
      "longitude": -75.103333
    },
    {
      "elevation": 640.1,
      "mindate": "1924-09-01",
      "maxdate": "1935-08-31",
      "latitude": 41.166667,
      "name": "SNOW HILL, PA US",
      "datacoverage": 0.9623,
      "id": "GHCND:USC00368216",
      "elevationUnit": "METERS",
      "longitude": -75.183333
    },
    {
      "elevation": 640.1,
      "mindate": "1949-09-01",
      "maxdate": "2025-03-07",
      "latitude": 39.997,
      "name": "SOMERSET, PA US",
      "datacoverage": 1,
      "id": "GHCND:USC00368244",
      "elevationUnit": "METERS",
      "longitude": -79.08334
    },
    {
      "elevation": 655.9,
      "mindate": "1894-01-01",
      "maxdate": "1958-11-30",
      "latitude": 40.01667,
      "name": "SOMERSET WATER WORKS, PA US",
      "datacoverage": 0.9783,
      "id": "GHCND:USC00368249",
      "elevationUnit": "METERS",
      "longitude": -79.08333
    },
    {
      "elevation": 640.1,
      "mindate": "1948-05-01",
      "maxdate": "1949-08-31",
      "latitude": 39.997,
      "name": "SOMERSET, PA US",
      "datacoverage": 0.9356,
      "id": "GHCND:USC00368254",
      "elevationUnit": "METERS",
      "longitude": -79.08334
    },
    {
      "elevation": 76.2,
      "mindate": "1979-05-01",
      "maxdate": "2013-09-22",
      "latitude": 40.1719,
      "name": "SOUTHAMPTON, PA US",
      "datacoverage": 0.6852,
      "id": "GHCND:USC00368263",
      "elevationUnit": "METERS",
      "longitude": -75.036
    },
    {
      "elevation": 426.7,
      "mindate": "1948-07-01",
      "maxdate": "1951-09-30",
      "latitude": 41.51667,
      "name": "SOUTH CANAAN 1 NE, PA US",
      "datacoverage": 1,
      "id": "GHCND:USC00368275",
      "elevationUnit": "METERS",
      "longitude": -75.4
    },
    {
      "elevation": 295.7,
      "mindate": "1940-09-01",
      "maxdate": "1942-03-31",
      "latitude": 40.633667,
      "name": "SOUTH BEND, PA US",
      "datacoverage": 1,
      "id": "GHCND:USC00368300",
      "elevationUnit": "METERS",
      "longitude": -79.368333
    },
    {
      "elevation": 201.2,
      "mindate": "1893-12-01",
      "maxdate": "1908-06-30",
      "latitude": 40.5,
      "name": "SOUTH EATON, PA US",
      "datacoverage": 0.9946,
      "id": "GHCND:USC00368303",
      "elevationUnit": "METERS",
      "longitude": -76.916667
    },
    {
      "elevation": 463.3,
      "mindate": "1940-01-01",
      "maxdate": "2022-10-31",
      "latitude": 39.85072,
      "name": "SOUTH MOUNTAIN, PA US",
      "datacoverage": 1,
      "id": "GHCND:USC00368308",
      "elevationUnit": "METERS",
      "longitude": -77.5039
    },
    {
      "elevation": 426.7,
      "mindate": "1926-04-01",
      "maxdate": "1927-12-31",
      "latitude": 41.35,
      "name": "SOUTH STERLING, PA US",
      "datacoverage": 1,
      "id": "GHCND:USC00368356",
      "elevationUnit": "METERS",
      "longitude": -75.4
    },
    {
      "elevation": 274.9,
      "mindate": "1955-01-01",
      "maxdate": "1959-10-31",
      "latitude": 41.8,
      "name": "SPRINGBORO, PA US",
      "datacoverage": 0.9995,
      "id": "GHCND:USC00368359",
      "elevationUnit": "METERS",
      "longitude": -80.38333
    },
    {
      "elevation": 306.3,
      "mindate": "1996-01-01",
      "maxdate": "2025-03-07",
      "latitude": 41.8162,
      "name": "SPRINGBORO 3 WNW, PA US",
      "datacoverage": 1,
      "id": "GHCND:USC00368361",
      "elevationUnit": "METERS",
      "longitude": -80.4249
    },
    {
      "elevation": 448.1,
      "mindate": "2002-10-01",
      "maxdate": "2003-12-31",
      "latitude": 41.91167,
      "name": "SPRING CREEK 5 NE, PA US",
      "datacoverage": 1,
      "id": "GHCND:USC00368364",
      "elevationUnit": "METERS",
      "longitude": -79.45306
    },
    {
      "elevation": 78.3,
      "mindate": "2020-01-01",
      "maxdate": "2025-01-31",
      "latitude": 40.17266,
      "name": "SPRING CITY 2 WSW, PA US",
      "datacoverage": 0.9991,
      "id": "GHCND:USC00368365",
      "elevationUnit": "METERS",
      "longitude": -75.58229
    },
    {
      "elevation": 137.2,
      "mindate": "1932-01-01",
      "maxdate": "2025-02-28",
      "latitude": 39.86952,
      "name": "SPRING GROVE, PA US",
      "datacoverage": 1,
      "id": "GHCND:USC00368379",
      "elevationUnit": "METERS",
      "longitude": -76.86321
    },
    {
      "elevation": 54.9,
      "mindate": "1901-01-01",
      "maxdate": "1910-04-30",
      "latitude": 40.283333,
      "name": "SPRING MOUNT, PA US",
      "datacoverage": 0.9992,
      "id": "GHCND:USC00368380",
      "elevationUnit": "METERS",
      "longitude": -75.466667
    },
    {
      "elevation": 73.2,
      "mindate": "1972-04-01",
      "maxdate": "2010-12-31",
      "latitude": 40.21667,
      "name": "SPRINGHOUSE 2 NE, PA US",
      "datacoverage": 1,
      "id": "GHCND:USC00368388",
      "elevationUnit": "METERS",
      "longitude": -75.21667
    },
    {
      "elevation": 762.9,
      "mindate": "1917-02-01",
      "maxdate": "1958-11-30",
      "latitude": 39.73333,
      "name": "SPRINGS 1 SW, PA US",
      "datacoverage": 0.9184,
      "id": "GHCND:USC00368395",
      "elevationUnit": "METERS",
      "longitude": -79.16667
    },
    {
      "elevation": 262.1,
      "mindate": "1991-01-01",
      "maxdate": "2025-03-07",
      "latitude": 40.5711,
      "name": "SPRINGTOWN 1 NNE, PA US",
      "datacoverage": 1,
      "id": "GHCND:USC00368400",
      "elevationUnit": "METERS",
      "longitude": -75.2781
    },
    {
      "elevation": 232,
      "mindate": "1895-01-01",
      "maxdate": "1953-02-28",
      "latitude": 40.61667,
      "name": "SPRUCE CREEK, PA US",
      "datacoverage": 0.1326,
      "id": "GHCND:USC00368405",
      "elevationUnit": "METERS",
      "longitude": -78.15
    },
    {
      "elevation": 310.9,
      "mindate": "1996-12-01",
      "maxdate": "1997-03-31",
      "latitude": 40.62111,
      "name": "SPRUCE CREEK 2 NE, PA US",
      "datacoverage": 1,
      "id": "GHCND:USC00368409",
      "elevationUnit": "METERS",
      "longitude": -78.1025
    },
    {
      "elevation": 356.6,
      "mindate": "1893-01-01",
      "maxdate": "2025-03-07",
      "latitude": 40.79326,
      "name": "STATE COLLEGE, PA US",
      "datacoverage": 1,
      "id": "GHCND:USC00368449",
      "elevationUnit": "METERS",
      "longitude": -77.86712
    },
    {
      "elevation": 284.1,
      "mindate": "1969-09-01",
      "maxdate": "2025-03-07",
      "latitude": 41.4039,
      "name": "STEVENSON DAM, PA US",
      "datacoverage": 1,
      "id": "GHCND:USC00368469",
      "elevationUnit": "METERS",
      "longitude": -78.0183
    },
    {
      "elevation": 502.9,
      "mindate": "2021-01-01",
      "maxdate": "2021-12-03",
      "latitude": 41.6972,
      "name": "STILLWATER DAM, PA US",
      "datacoverage": 1,
      "id": "GHCND:USC00368491",
      "elevationUnit": "METERS",
      "longitude": -75.4827
    },
    {
      "elevation": 607.2,
      "mindate": "1893-01-01",
      "maxdate": "1923-10-31",
      "latitude": 40.1025,
      "name": "STOYESTOWN, PA US",
      "datacoverage": 0.1243,
      "id": "GHCND:USC00368558",
      "elevationUnit": "METERS",
      "longitude": -78.952333
    },
    {
      "elevation": 548.9,
      "mindate": "1961-01-01",
      "maxdate": "2010-12-31",
      "latitude": 40.1,
      "name": "STOYSTOWN, PA US",
      "datacoverage": 1,
      "id": "GHCND:USC00368560",
      "elevationUnit": "METERS",
      "longitude": -78.95
    },
    {
      "elevation": 182.9,
      "mindate": "1945-01-01",
      "maxdate": "2010-08-31",
      "latitude": 40.4833,
      "name": "STRAUSSTOWN, PA US",
      "datacoverage": 0.9897,
      "id": "GHCND:USC00368570",
      "elevationUnit": "METERS",
      "longitude": -76.1833
    },
    {
      "elevation": 573,
      "mindate": "1948-05-01",
      "maxdate": "2010-12-31",
      "latitude": 40.55,
      "name": "STRONGSTOWN, PA US",
      "datacoverage": 1,
      "id": "GHCND:USC00368589",
      "elevationUnit": "METERS",
      "longitude": -78.91667
    },
    {
      "elevation": 143.6,
      "mindate": "1910-12-01",
      "maxdate": "2025-03-02",
      "latitude": 41.01478,
      "name": "EAST STROUDSBURG, PA US",
      "datacoverage": 1,
      "id": "GHCND:USC00368596",
      "elevationUnit": "METERS",
      "longitude": -75.20712
    },
    {
      "elevation": 118.9,
      "mindate": "1948-05-01",
      "maxdate": "1951-09-30",
      "latitude": 40.98333,
      "name": "STROUDSBURG, PA US",
      "datacoverage": 0.9512,
      "id": "GHCND:USC00368601",
      "elevationUnit": "METERS",
      "longitude": -75.18333
    },
    {
      "elevation": 402.9,
      "mindate": "1941-01-01",
      "maxdate": "1969-10-31",
      "latitude": 41.01667,
      "name": "STUMP CREEK, PA US",
      "datacoverage": 0.956,
      "id": "GHCND:USC00368610",
      "elevationUnit": "METERS",
      "longitude": -78.83333
    },
    {
      "elevation": 152.4,
      "mindate": "1935-03-01",
      "maxdate": "1941-03-31",
      "latitude": 40.316667,
      "name": "SUMMERDALE NEAR, PA US",
      "datacoverage": 0.9721,
      "id": "GHCND:USC00368636",
      "elevationUnit": "METERS",
      "longitude": -76.916667
    },
    {
      "elevation": 350.5,
      "mindate": "1920-02-01",
      "maxdate": "1923-08-31",
      "latitude": 41.716667,
      "name": "SUMMIT, PA US",
      "datacoverage": 1,
      "id": "GHCND:USC00368657",
      "elevationUnit": "METERS",
      "longitude": -80.416667
    },
    {
      "elevation": 141.7,
      "mindate": "1895-01-01",
      "maxdate": "1926-09-30",
      "latitude": 40.856667,
      "name": "SUNBURY, PA US",
      "datacoverage": 0.681,
      "id": "GHCND:USC00368662",
      "elevationUnit": "METERS",
      "longitude": -76.7675
    },
    {
      "elevation": 175.3,
      "mindate": "1926-01-01",
      "maxdate": "2025-03-07",
      "latitude": 40.86621,
      "name": "SUNBURY, PA US",
      "datacoverage": 1,
      "id": "GHCND:USC00368668",
      "elevationUnit": "METERS",
      "longitude": -76.77527
    },
    {
      "elevation": 136.2,
      "mindate": "1942-11-01",
      "maxdate": "1949-06-30",
      "latitude": 40.88333,
      "name": "SUNBURY AIRPORT, PA US",
      "datacoverage": 0.9629,
      "id": "GHCND:USC00368673",
      "elevationUnit": "METERS",
      "longitude": -76.76667
    },
    {
      "elevation": 277.4,
      "mindate": "1935-01-01",
      "maxdate": "2025-01-31",
      "latitude": 41.9478,
      "name": "SUSQUEHANNA, PA US",
      "datacoverage": 1,
      "id": "GHCND:USC00368692",
      "elevationUnit": "METERS",
      "longitude": -75.6047
    },
    {
      "elevation": 223.4,
      "mindate": "1939-12-01",
      "maxdate": "1961-05-31",
      "latitude": 40.23333,
      "name": "SUTERSVILLE, PA US",
      "datacoverage": 0.9884,
      "id": "GHCND:USC00368699",
      "elevationUnit": "METERS",
      "longitude": -79.8
    },
    {
      "elevation": 57.9,
      "mindate": "1894-01-01",
      "maxdate": "1906-04-30",
      "latitude": 39.9055,
      "name": "SWARTHMORE, PA US",
      "datacoverage": 0.8384,
      "id": "GHCND:USC00368717",
      "elevationUnit": "METERS",
      "longitude": -75.35
    },
    {
      "elevation": 409,
      "mindate": "1965-07-01",
      "maxdate": "1970-10-31",
      "latitude": 41.28333,
      "name": "SWEET VALLEY, PA US",
      "datacoverage": 0.937,
      "id": "GHCND:USC00368725",
      "elevationUnit": "METERS",
      "longitude": -76.13333
    },
    {
      "elevation": 487.7,
      "mindate": "1897-01-01",
      "maxdate": "1900-10-31",
      "latitude": 41.1,
      "name": "SWIFTWATER, PA US",
      "datacoverage": 0.6527,
      "id": "GHCND:USC00368732",
      "elevationUnit": "METERS",
      "longitude": -75.333333
    },
    {
      "elevation": 281.9,
      "mindate": "1940-01-01",
      "maxdate": "2013-10-01",
      "latitude": 40.79472,
      "name": "TAMAQUA, PA US",
      "datacoverage": 1,
      "id": "GHCND:USC00368758",
      "elevationUnit": "METERS",
      "longitude": -75.97528
    },
    {
      "elevation": 347.5,
      "mindate": "1931-01-01",
      "maxdate": "2022-01-31",
      "latitude": 40.8483,
      "name": "TAMAQUA 4 N DAM, PA US",
      "datacoverage": 1,
      "id": "GHCND:USC00368763",
      "elevationUnit": "METERS",
      "longitude": -75.9995
    },
    {
      "elevation": 677,
      "mindate": "1940-01-01",
      "maxdate": "1961-09-30",
      "latitude": 41.4,
      "name": "TAMARACK 2 S FIRE TO, PA US",
      "datacoverage": 0.873,
      "id": "GHCND:USC00368770",
      "elevationUnit": "METERS",
      "longitude": -77.85
    },
    {
      "elevation": 277.4,
      "mindate": "1925-08-01",
      "maxdate": "2010-12-31",
      "latitude": 41.05389,
      "name": "TANNERSVILLE 2 E, PA US",
      "datacoverage": 1,
      "id": "GHCND:USC00368776",
      "elevationUnit": "METERS",
      "longitude": -75.29028
    },
    {
      "elevation": 374.9,
      "mindate": "1973-12-01",
      "maxdate": "2025-03-07",
      "latitude": 41.8975,
      "name": "TIOGA HAMMOND DAM, PA US",
      "datacoverage": 1,
      "id": "GHCND:USC00368868",
      "elevationUnit": "METERS",
      "longitude": -77.1419
    },
    {
      "elevation": 365.8,
      "mindate": "1921-03-01",
      "maxdate": "2025-03-07",
      "latitude": 41.4792,
      "name": "TIONESTA 2 SE LAKE, PA US",
      "datacoverage": 1,
      "id": "GHCND:USC00368873",
      "elevationUnit": "METERS",
      "longitude": -79.4432
    },
    {
      "elevation": 465.1,
      "mindate": "1945-01-01",
      "maxdate": "1954-07-08",
      "latitude": 41.6,
      "name": "TITUSVILLE 2 S, PA US",
      "datacoverage": 0.9656,
      "id": "GHCND:USC00368880",
      "elevationUnit": "METERS",
      "longitude": -79.66667
    },
    {
      "elevation": 473,
      "mindate": "1927-05-01",
      "maxdate": "1951-09-30",
      "latitude": 41.63333,
      "name": "TITUSVILLE, PA US",
      "datacoverage": 0.4744,
      "id": "GHCND:USC00368885",
      "elevationUnit": "METERS",
      "longitude": -79.66667
    },
    {
      "elevation": 371.9,
      "mindate": "1954-01-01",
      "maxdate": "2025-03-06",
      "latitude": 41.63098,
      "name": "TITUSVILLE WATER WORKS, PA US",
      "datacoverage": 1,
      "id": "GHCND:USC00368888",
      "elevationUnit": "METERS",
      "longitude": -79.69304
    },
    {
      "elevation": 445,
      "mindate": "1970-01-01",
      "maxdate": "1973-04-30",
      "latitude": 41.78333,
      "name": "TORPEDO, PA US",
      "datacoverage": 0.6758,
      "id": "GHCND:USC00368897",
      "elevationUnit": "METERS",
      "longitude": -79.46667
    },
    {
      "elevation": 531,
      "mindate": "1951-09-01",
      "maxdate": "1966-11-30",
      "latitude": 41.78333,
      "name": "TORPEDO 4 W, PA US",
      "datacoverage": 0.9945,
      "id": "GHCND:USC00368901",
      "elevationUnit": "METERS",
      "longitude": -79.53333
    },
    {
      "elevation": 231.6,
      "mindate": "1894-10-01",
      "maxdate": "2023-03-21",
      "latitude": 41.7511,
      "name": "TOWANDA 1 S, PA US",
      "datacoverage": 1,
      "id": "GHCND:USC00368905",
      "elevationUnit": "METERS",
      "longitude": -76.443
    },
    {
      "elevation": 262.1,
      "mindate": "1949-08-01",
      "maxdate": "1951-02-07",
      "latitude": 40.58333,
      "name": "TOWER CITY, PA US",
      "datacoverage": 1,
      "id": "GHCND:USC00368908",
      "elevationUnit": "METERS",
      "longitude": -76.56667
    },
    {
      "elevation": 225.9,
      "mindate": "1937-10-01",
      "maxdate": "1961-03-31",
      "latitude": 40.51667,
      "name": "TOWER CITY 5 SW, PA US",
      "datacoverage": 1,
      "id": "GHCND:USC00368910",
      "elevationUnit": "METERS",
      "longitude": -76.61667
    },
    {
      "elevation": 256,
      "mindate": "1961-04-01",
      "maxdate": "1965-06-30",
      "latitude": 40.58333,
      "name": "TOWER CITY 2 E, PA US",
      "datacoverage": 1,
      "id": "GHCND:USC00368912",
      "elevationUnit": "METERS",
      "longitude": -76.51667
    },
    {
      "elevation": 460.2,
      "mindate": "2011-01-01",
      "maxdate": "2013-01-31",
      "latitude": 41.1353,
      "name": "TREASURE LAKE, PA US",
      "datacoverage": 0.9991,
      "id": "GHCND:USC00368947",
      "elevationUnit": "METERS",
      "longitude": -78.7028
    },
    {
      "elevation": 318.5,
      "mindate": "1951-05-01",
      "maxdate": "2011-03-31",
      "latitude": 41.79028,
      "name": "TROY 1 NE, PA US",
      "datacoverage": 1,
      "id": "GHCND:USC00368959",
      "elevationUnit": "METERS",
      "longitude": -76.7725
    },
    {
      "elevation": 189,
      "mindate": "1945-10-01",
      "maxdate": "1973-08-31",
      "latitude": 41.56667,
      "name": "TUNKHANNOCK, PA US",
      "datacoverage": 0.2507,
      "id": "GHCND:USC00368982",
      "elevationUnit": "METERS",
      "longitude": -75.9
    },
    {
      "elevation": 271.3,
      "mindate": "1948-05-01",
      "maxdate": "1951-09-30",
      "latitude": 40.45,
      "name": "TUNNELTON, PA US",
      "datacoverage": 0.9756,
      "id": "GHCND:USC00368989",
      "elevationUnit": "METERS",
      "longitude": -79.38333
    },
    {
      "elevation": 318.5,
      "mindate": "1920-04-01",
      "maxdate": "1923-08-29",
      "latitude": 41.516667,
      "name": "TURNERVILLE, PA US",
      "datacoverage": 0.7561,
      "id": "GHCND:USC00368998",
      "elevationUnit": "METERS",
      "longitude": -80.483333
    },
    {
      "elevation": 499.9,
      "mindate": "1951-10-01",
      "maxdate": "1968-09-30",
      "latitude": 41.9,
      "name": "TURTLEPOINT 4 NE, PA US",
      "datacoverage": 0.9019,
      "id": "GHCND:USC00369002",
      "elevationUnit": "METERS",
      "longitude": -78.26667
    },
    {
      "elevation": 271.3,
      "mindate": "1972-11-01",
      "maxdate": "2025-03-07",
      "latitude": 40.6645,
      "name": "TYRONE, PA US",
      "datacoverage": 1,
      "id": "GHCND:USC00369022",
      "elevationUnit": "METERS",
      "longitude": -78.2191
    },
    {
      "elevation": 310.9,
      "mindate": "1948-05-01",
      "maxdate": "1972-10-31",
      "latitude": 40.71667,
      "name": "TYRONE 4 NE BALD EAG, PA US",
      "datacoverage": 0.9998,
      "id": "GHCND:USC00369024",
      "elevationUnit": "METERS",
      "longitude": -78.2
    }
  ]
}
