{
  "metadata": {
    "resultset": {
      "offset": 153500,
      "count": 154115,
      "limit": 100
    }
  },
  "results": [
    {
      "elevation": 29.6,
      "mindate": "2005-01-01",
      "maxdate": "2025-03-08",
      "latitude": 41.50969,
      "name": "MERIDEN MARKHAM MUNICIPAL AIRPORT, CT US",
      "datacoverage": 1,
      "id": "WBAN:54788",
      "elevationUnit": "METERS",
      "longitude": -72.82783
    },
    {
      "elevation": 574.6,
      "mindate": "2005-01-01",
      "maxdate": "2025-03-08",
      "latitude": 41.13684,
      "name": "POCONO MOUNTAINS MUNICIPAL AIRPORT, PA US",
      "datacoverage": 1,
      "id": "WBAN:54789",
      "elevationUnit": "METERS",
      "longitude": -75.3771
    },
    {
      "elevation": 20,
      "mindate": "2005-01-01",
      "maxdate": "2025-03-08",
      "latitude": 40.82121,
      "name": "SHIRLEY BROOKHAVEN AIRPORT, NY US",
      "datacoverage": 1,
      "id": "WBAN:54790",
      "elevationUnit": "METERS",
      "longitude": -72.86742
    },
    {
      "elevation": 100.2,
      "mindate": "2005-01-01",
      "maxdate": "2025-03-08",
      "latitude": 43.27938,
      "name": "ROCHESTER SKYHAVEN AIRPORT, NH US",
      "datacoverage": 1,
      "id": "WBAN:54791",
      "elevationUnit": "METERS",
      "longitude": -70.92427
    },
    {
      "elevation": 459.9,
      "mindate": "2005-01-01",
      "maxdate": "2025-03-08",
      "latitude": 41.04647,
      "name": "CLEARFIELD LAWRENCE AIRPORT, PA US",
      "datacoverage": 1,
      "id": "WBAN:54792",
      "elevationUnit": "METERS",
      "longitude": -78.4112
    },
    {
      "elevation": 127.5,
      "mindate": "2005-01-01",
      "maxdate": "2025-03-08",
      "latitude": 41.19925,
      "name": "SUSSEX AIRPORT, NJ US",
      "datacoverage": 1,
      "id": "WBAN:54793",
      "elevationUnit": "METERS",
      "longitude": -74.62592
    },
    {
      "elevation": 36.3,
      "mindate": "2001-12-16",
      "maxdate": "2025-03-08",
      "latitude": 43.1716,
      "name": "DURHAM 2 N, NH US",
      "datacoverage": 1,
      "id": "WBAN:54794",
      "elevationUnit": "METERS",
      "longitude": -70.9277
    },
    {
      "elevation": 19.2,
      "mindate": "2001-12-16",
      "maxdate": "2025-03-08",
      "latitude": 43.1092,
      "name": "DURHAM 2 SSW, NH US",
      "datacoverage": 1,
      "id": "WBAN:54795",
      "elevationUnit": "METERS",
      "longitude": -70.9484
    },
    {
      "elevation": 35.1,
      "mindate": "2001-12-16",
      "maxdate": "2025-03-08",
      "latitude": 41.4911,
      "name": "KINGSTON 1 NW, RI US",
      "datacoverage": 1,
      "id": "WBAN:54796",
      "elevationUnit": "METERS",
      "longitude": -71.5413
    },
    {
      "elevation": 32.3,
      "mindate": "2001-12-16",
      "maxdate": "2025-03-08",
      "latitude": 41.4782,
      "name": "KINGSTON 1 W, RI US",
      "datacoverage": 1,
      "id": "WBAN:54797",
      "elevationUnit": "METERS",
      "longitude": -71.5417
    },
    {
      "elevation": 253,
      "mindate": "2005-01-01",
      "maxdate": "2025-03-08",
      "latitude": 40.52806,
      "name": "KOKOMO MUNICIPAL AIRPORT, IN US",
      "datacoverage": 1,
      "id": "WBAN:54807",
      "elevationUnit": "METERS",
      "longitude": -86.05889
    },
    {
      "elevation": 213.4,
      "mindate": "2002-12-20",
      "maxdate": "2025-03-08",
      "latitude": 40.0528,
      "name": "CHAMPAIGN 9 SW, IL US",
      "datacoverage": 1,
      "id": "WBAN:54808",
      "elevationUnit": "METERS",
      "longitude": -88.3729
    },
    {
      "elevation": 259.1,
      "mindate": "2005-01-01",
      "maxdate": "2025-03-08",
      "latitude": 41.27472,
      "name": "WARSAW MUNICIPAL AIRPORT, IN US",
      "datacoverage": 1,
      "id": "WBAN:54809",
      "elevationUnit": "METERS",
      "longitude": -85.84
    },
    {
      "elevation": 266.7,
      "mindate": "2004-11-10",
      "maxdate": "2025-03-08",
      "latitude": 46.3345,
      "name": "CHATHAM 1 SE, MI US",
      "datacoverage": 1,
      "id": "WBAN:54810",
      "elevationUnit": "METERS",
      "longitude": -86.92
    },
    {
      "elevation": 262.4,
      "mindate": "2003-08-16",
      "maxdate": "2025-03-08",
      "latitude": 41.843,
      "name": "SHABBONA 5 NNE, IL US",
      "datacoverage": 1,
      "id": "WBAN:54811",
      "elevationUnit": "METERS",
      "longitude": -88.8513
    },
    {
      "elevation": 186.5,
      "mindate": "2005-01-01",
      "maxdate": "2025-03-08",
      "latitude": 46.412036,
      "name": "MUNSING LAKESHORE, MI US",
      "datacoverage": 1,
      "id": "WBAN:54813",
      "elevationUnit": "METERS",
      "longitude": -86.650452
    },
    {
      "elevation": 227.7,
      "mindate": "2005-08-17",
      "maxdate": "2025-03-08",
      "latitude": 43.32222,
      "name": "ALMA GRATIOT COMMUNITY AIRPORT, MI US",
      "datacoverage": 1,
      "id": "WBAN:54816",
      "elevationUnit": "METERS",
      "longitude": -84.68806
    },
    {
      "elevation": 233.5,
      "mindate": "2005-01-01",
      "maxdate": "2025-03-08",
      "latitude": 43.78028,
      "name": "BAD AXE HURON CO MEMORIAL AIRPORT, MI US",
      "datacoverage": 1,
      "id": "WBAN:54817",
      "elevationUnit": "METERS",
      "longitude": -82.98556
    },
    {
      "elevation": 192.6,
      "mindate": "2005-11-01",
      "maxdate": "2025-03-08",
      "latitude": 44.62556,
      "name": "FRANKFORT DOW MEMORIAL FIELD AIRPORT, MI US",
      "datacoverage": 1,
      "id": "WBAN:54818",
      "elevationUnit": "METERS",
      "longitude": -86.20083
    },
    {
      "elevation": 178.9,
      "mindate": "2005-01-01",
      "maxdate": "2025-03-08",
      "latitude": 42.09861,
      "name": "GROSSE ILE MUNICIPAL AIRPORT, MI US",
      "datacoverage": 1,
      "id": "WBAN:54819",
      "elevationUnit": "METERS",
      "longitude": -83.16111
    },
    {
      "elevation": 225.6,
      "mindate": "2005-01-01",
      "maxdate": "2025-03-08",
      "latitude": 45.865,
      "name": "MACKINAC ISLAND AIRPORT, MI US",
      "datacoverage": 1,
      "id": "WBAN:54820",
      "elevationUnit": "METERS",
      "longitude": -84.63722
    },
    {
      "elevation": 286.8,
      "mindate": "2005-01-01",
      "maxdate": "2025-03-08",
      "latitude": 42.25111,
      "name": "MARSHALL BROOKS FIELD AIRPORT, MI US",
      "datacoverage": 1,
      "id": "WBAN:54821",
      "elevationUnit": "METERS",
      "longitude": -84.95556
    },
    {
      "elevation": 281,
      "mindate": "2005-01-01",
      "maxdate": "2025-03-08",
      "latitude": 42.56583,
      "name": "MASON JEWETT FIELD AIRPORT, MI US",
      "datacoverage": 1,
      "id": "WBAN:54822",
      "elevationUnit": "METERS",
      "longitude": -84.43306
    },
    {
      "elevation": 186.5,
      "mindate": "2005-04-25",
      "maxdate": "2025-03-08",
      "latitude": 41.94,
      "name": "MONROE CUSTER AIRPORT, MI US",
      "datacoverage": 1,
      "id": "WBAN:54823",
      "elevationUnit": "METERS",
      "longitude": -83.43472
    },
    {
      "elevation": 224.3,
      "mindate": "2005-01-01",
      "maxdate": "2025-03-08",
      "latitude": 42.99306,
      "name": "OWOSSO COMMUNITY AIRPORT, MI US",
      "datacoverage": 1,
      "id": "WBAN:54824",
      "elevationUnit": "METERS",
      "longitude": -84.13889
    },
    {
      "elevation": 204.2,
      "mindate": "2005-11-01",
      "maxdate": "2025-03-08",
      "latitude": 45.40722,
      "name": "ROGERS CITY PRESQUE ISLE CO AIRPORT, MI US",
      "datacoverage": 1,
      "id": "WBAN:54825",
      "elevationUnit": "METERS",
      "longitude": -83.81306
    },
    {
      "elevation": 203,
      "mindate": "2005-11-01",
      "maxdate": "2025-03-08",
      "latitude": 42.35083,
      "name": "SOUTH HAVEN AREA REGIONAL AIRPORT, MI US",
      "datacoverage": 1,
      "id": "WBAN:54826",
      "elevationUnit": "METERS",
      "longitude": -86.25611
    },
    {
      "elevation": 281.9,
      "mindate": "2005-01-01",
      "maxdate": "2025-03-08",
      "latitude": 41.81667,
      "name": "STURGIS KIRSCH MUNICIPAL AIRPORT, MI US",
      "datacoverage": 1,
      "id": "WBAN:54827",
      "elevationUnit": "METERS",
      "longitude": -85.43333
    },
    {
      "elevation": 213.7,
      "mindate": "2005-02-01",
      "maxdate": "2025-03-08",
      "latitude": 43.45889,
      "name": "CARO TUSCOLA AREA AIRPORT, MI US",
      "datacoverage": 1,
      "id": "WBAN:54828",
      "elevationUnit": "METERS",
      "longitude": -83.44556
    },
    {
      "elevation": 218.2,
      "mindate": "2005-01-01",
      "maxdate": "2025-03-08",
      "latitude": 42.54306,
      "name": "OAKLAND TROY AIRPORT, MI US",
      "datacoverage": 1,
      "id": "WBAN:54829",
      "elevationUnit": "METERS",
      "longitude": -83.17806
    },
    {
      "elevation": 263.7,
      "mindate": "2005-01-02",
      "maxdate": "2025-03-08",
      "latitude": 40.48333,
      "name": "BLOOMINGTON NORMAL AIRPORT, IL US",
      "datacoverage": 1,
      "id": "WBAN:54831",
      "elevationUnit": "METERS",
      "longitude": -88.95
    },
    {
      "elevation": 250.5,
      "mindate": "2005-04-07",
      "maxdate": "2025-03-08",
      "latitude": 44.61389,
      "name": "CLINTONVILLE MUNICIPAL AIRPORT, WI US",
      "datacoverage": 1,
      "id": "WBAN:54832",
      "elevationUnit": "METERS",
      "longitude": -88.73139
    },
    {
      "elevation": 297.5,
      "mindate": "2005-04-07",
      "maxdate": "2025-03-08",
      "latitude": 43.52194,
      "name": "BARABOO WISCONSIN DELLS AIRPORT, WI US",
      "datacoverage": 1,
      "id": "WBAN:54833",
      "elevationUnit": "METERS",
      "longitude": -89.77361
    },
    {
      "elevation": 249.9,
      "mindate": "2005-04-19",
      "maxdate": "2025-03-08",
      "latitude": 43.16667,
      "name": "WATERTOWN MUNICIPAL AIRPORT, WI US",
      "datacoverage": 1,
      "id": "WBAN:54834",
      "elevationUnit": "METERS",
      "longitude": -88.71667
    },
    {
      "elevation": 500.5,
      "mindate": "2005-05-05",
      "maxdate": "2025-03-08",
      "latitude": 45.93167,
      "name": "EAGLE RIVER UNION AIRPORT, WI US",
      "datacoverage": 1,
      "id": "WBAN:54838",
      "elevationUnit": "METERS",
      "longitude": -89.26889
    },
    {
      "elevation": 202.7,
      "mindate": "2006-08-31",
      "maxdate": "2025-03-08",
      "latitude": 46.00722,
      "name": "DRUMMOND ISLAND AIRPORT, MI US",
      "datacoverage": 1,
      "id": "WBAN:54844",
      "elevationUnit": "METERS",
      "longitude": -83.74278
    },
    {
      "elevation": 251.2,
      "mindate": "2006-10-24",
      "maxdate": "2025-03-08",
      "latitude": 41.95972,
      "name": "THREE RIVERS MUNICIPAL DR HAINES AIRPORT, MI US",
      "datacoverage": 1,
      "id": "WBAN:54850",
      "elevationUnit": "METERS",
      "longitude": -85.59333
    },
    {
      "elevation": 341.4,
      "mindate": "2006-11-09",
      "maxdate": "2016-09-19",
      "latitude": 40.3667,
      "name": "COSHOCTON 8 NNE, OH US",
      "datacoverage": 1,
      "id": "WBAN:54851",
      "elevationUnit": "METERS",
      "longitude": -81.7829
    },
    {
      "elevation": 251.8,
      "mindate": "2006-01-01",
      "maxdate": "2025-03-08",
      "latitude": 44.33333,
      "name": "WAUPACA MUNICIPAL AIRPORT, WI US",
      "datacoverage": 1,
      "id": "WBAN:54852",
      "elevationUnit": "METERS",
      "longitude": -89.01972
    },
    {
      "elevation": 445.3,
      "mindate": "2007-09-19",
      "maxdate": "2025-03-08",
      "latitude": 44.908,
      "name": "GAYLORD 9 SSW, MI US",
      "datacoverage": 1,
      "id": "WBAN:54854",
      "elevationUnit": "METERS",
      "longitude": -84.7203
    },
    {
      "elevation": 335.9,
      "mindate": "2016-11-10",
      "maxdate": "2025-03-08",
      "latitude": 40.7641,
      "name": "WOOSTER 3 SSE, OH US",
      "datacoverage": 1,
      "id": "WBAN:54856",
      "elevationUnit": "METERS",
      "longitude": -81.9104
    },
    {
      "elevation": 294.7,
      "mindate": "2005-01-01",
      "maxdate": "2025-03-08",
      "latitude": 45.15917,
      "name": "BUFFALO MUNICIPAL AIRPORT, MN US",
      "datacoverage": 1,
      "id": "WBAN:54901",
      "elevationUnit": "METERS",
      "longitude": -93.84333
    },
    {
      "elevation": 280.7,
      "mindate": "2004-09-15",
      "maxdate": "2025-03-08",
      "latitude": 41.5562,
      "name": "DES MOINES 17 E, IA US",
      "datacoverage": 1,
      "id": "WBAN:54902",
      "elevationUnit": "METERS",
      "longitude": -93.2855
    },
    {
      "elevation": 284.4,
      "mindate": "2004-10-01",
      "maxdate": "2025-03-08",
      "latitude": 44.0604,
      "name": "NECEDAH 5 WNW, WI US",
      "datacoverage": 1,
      "id": "WBAN:54903",
      "elevationUnit": "METERS",
      "longitude": -90.1737
    },
    {
      "elevation": 316.7,
      "mindate": "2005-04-07",
      "maxdate": "2025-03-08",
      "latitude": 45.33194,
      "name": "BENSON MUNICIPAL AIRPORT, MN US",
      "datacoverage": 1,
      "id": "WBAN:54904",
      "elevationUnit": "METERS",
      "longitude": -95.65056
    },
    {
      "elevation": 404.5,
      "mindate": "2005-04-07",
      "maxdate": "2025-03-08",
      "latitude": 47.82194,
      "name": "COOK MUNICIPAL AIRPORT, MN US",
      "datacoverage": 1,
      "id": "WBAN:54905",
      "elevationUnit": "METERS",
      "longitude": -92.68944
    },
    {
      "elevation": 325.2,
      "mindate": "2005-04-18",
      "maxdate": "2025-03-08",
      "latitude": 43.98611,
      "name": "ST JAMES MUNICIPAL AIRPORT, MN US",
      "datacoverage": 1,
      "id": "WBAN:54906",
      "elevationUnit": "METERS",
      "longitude": -94.55778
    },
    {
      "elevation": 356.9,
      "mindate": "2005-04-19",
      "maxdate": "2025-03-08",
      "latitude": 42.88667,
      "name": "MINERAL POINT IOWA CO AIRPORT, WI US",
      "datacoverage": 1,
      "id": "WBAN:54907",
      "elevationUnit": "METERS",
      "longitude": -90.23611
    },
    {
      "elevation": 205.4,
      "mindate": "2005-04-19",
      "maxdate": "2025-03-08",
      "latitude": 46.68944,
      "name": "SUPERIOR RICHARD I BONG AIRPORT, WI US",
      "datacoverage": 1,
      "id": "WBAN:54908",
      "elevationUnit": "METERS",
      "longitude": -92.09444
    },
    {
      "elevation": 336.8,
      "mindate": "2005-04-19",
      "maxdate": "2025-03-08",
      "latitude": 45.41861,
      "name": "RICE LAKE REGIONAL AIRPORT CARLS FIELD, WI US",
      "datacoverage": 1,
      "id": "WBAN:54909",
      "elevationUnit": "METERS",
      "longitude": -91.77333
    },
    {
      "elevation": 392.3,
      "mindate": "2005-04-19",
      "maxdate": "2025-03-08",
      "latitude": 46.38083,
      "name": "STAPLES MUNICIPAL AIRPORT, MN US",
      "datacoverage": 1,
      "id": "WBAN:54910",
      "elevationUnit": "METERS",
      "longitude": -94.80639
    },
    {
      "elevation": 448.1,
      "mindate": "2005-05-05",
      "maxdate": "2025-03-08",
      "latitude": 45.10083,
      "name": "MEDFORD TAYLOR CO AIRPORT, WI US",
      "datacoverage": 1,
      "id": "WBAN:54911",
      "elevationUnit": "METERS",
      "longitude": -90.30333
    },
    {
      "elevation": 275.2,
      "mindate": "2005-05-05",
      "maxdate": "2025-03-08",
      "latitude": 45.30833,
      "name": "OSCEOLA L O SIMENSTAD MUNICIPAL AIRPORT, WI US",
      "datacoverage": 1,
      "id": "WBAN:54912",
      "elevationUnit": "METERS",
      "longitude": -92.69
    },
    {
      "elevation": 456.3,
      "mindate": "2005-05-05",
      "maxdate": "2025-03-08",
      "latitude": 45.70889,
      "name": "PHILLIPS PRICE CO AIRPORT, WI US",
      "datacoverage": 1,
      "id": "WBAN:54913",
      "elevationUnit": "METERS",
      "longitude": -90.40222
    },
    {
      "elevation": 298.4,
      "mindate": "2005-05-05",
      "maxdate": "2025-03-08",
      "latitude": 45.55972,
      "name": "PRINCETON MUNICIPAL AIRPORT, MN US",
      "datacoverage": 1,
      "id": "WBAN:54914",
      "elevationUnit": "METERS",
      "longitude": -93.60806
    },
    {
      "elevation": 394.7,
      "mindate": "2005-05-05",
      "maxdate": "2025-03-08",
      "latitude": 46.72472,
      "name": "PINE RIVER REGIONAL AIRPORT, MN US",
      "datacoverage": 1,
      "id": "WBAN:54915",
      "elevationUnit": "METERS",
      "longitude": -94.38167
    },
    {
      "elevation": 343.2,
      "mindate": "2005-08-17",
      "maxdate": "2025-03-08",
      "latitude": 44.07361,
      "name": "WASECA MUNICIPAL AIRPORT, MN US",
      "datacoverage": 1,
      "id": "WBAN:54916",
      "elevationUnit": "METERS",
      "longitude": -93.55306
    },
    {
      "elevation": 310.9,
      "mindate": "2005-08-17",
      "maxdate": "2025-03-08",
      "latitude": 45.2275,
      "name": "APPLETON MUNICIPAL AIRPORT, MN US",
      "datacoverage": 1,
      "id": "WBAN:54917",
      "elevationUnit": "METERS",
      "longitude": -96.00722
    },
    {
      "elevation": 256,
      "mindate": "2006-01-01",
      "maxdate": "2025-03-08",
      "latitude": 41.22611,
      "name": "OSKALOOSA MUNICIPAL AIRPORT, IA US",
      "datacoverage": 1,
      "id": "WBAN:54919",
      "elevationUnit": "METERS",
      "longitude": -92.49083
    },
    {
      "elevation": 373.7,
      "mindate": "2006-01-01",
      "maxdate": "2025-03-08",
      "latitude": 42.73167,
      "name": "CHEROKEE MUNICIPAL AIRPORT, IA US",
      "datacoverage": 1,
      "id": "WBAN:54920",
      "elevationUnit": "METERS",
      "longitude": -95.55583
    },
    {
      "elevation": 548.3,
      "mindate": "2006-01-01",
      "maxdate": "2025-03-08",
      "latitude": 41.73,
      "name": "ALBION MUNICIPAL AIRPORT, NE US",
      "datacoverage": 1,
      "id": "WBAN:54921",
      "elevationUnit": "METERS",
      "longitude": -98.05444
    },
    {
      "elevation": 295,
      "mindate": "2006-01-01",
      "maxdate": "2025-03-08",
      "latitude": 46.24417,
      "name": "WAHPETON HARRY STERN AIRPORT, ND US",
      "datacoverage": 1,
      "id": "WBAN:54922",
      "elevationUnit": "METERS",
      "longitude": -96.60722
    },
    {
      "elevation": 363.6,
      "mindate": "2006-10-18",
      "maxdate": "2025-03-08",
      "latitude": 44.72944,
      "name": "CANBY MYERS FIELD AIRPORT, MN US",
      "datacoverage": 1,
      "id": "WBAN:54923",
      "elevationUnit": "METERS",
      "longitude": -96.26611
    },
    {
      "elevation": 494.7,
      "mindate": "2005-08-11",
      "maxdate": "2025-03-08",
      "latitude": 43.98667,
      "name": "SLAYTON MUNICIPAL AIRPORT, MN US",
      "datacoverage": 1,
      "id": "WBAN:54924",
      "elevationUnit": "METERS",
      "longitude": -95.7825
    },
    {
      "elevation": 434,
      "mindate": "2006-01-01",
      "maxdate": "2025-03-08",
      "latitude": 42.24222,
      "name": "WAYNE MUNICIPAL AIRPORT, NE US",
      "datacoverage": 1,
      "id": "WBAN:54925",
      "elevationUnit": "METERS",
      "longitude": -96.98306
    },
    {
      "elevation": 436.2,
      "mindate": "2006-01-01",
      "maxdate": "2025-03-08",
      "latitude": 43.62111,
      "name": "LUVERNE QUENTIN AANENSON FIELD AIRPORT, MN US",
      "datacoverage": 1,
      "id": "WBAN:54926",
      "elevationUnit": "METERS",
      "longitude": -96.21583
    },
    {
      "elevation": 359.7,
      "mindate": "2005-08-12",
      "maxdate": "2025-03-08",
      "latitude": 45.37222,
      "name": "PAYNESVILLE MUNICIPAL AIRPORT, MN US",
      "datacoverage": 1,
      "id": "WBAN:54927",
      "elevationUnit": "METERS",
      "longitude": -94.74611
    },
    {
      "elevation": 377.3,
      "mindate": "2006-11-27",
      "maxdate": "2025-03-08",
      "latitude": 45.49694,
      "name": "LADYSMITH RUSK CO AIRPORT, WI US",
      "datacoverage": 1,
      "id": "WBAN:54928",
      "elevationUnit": "METERS",
      "longitude": -91.00056
    },
    {
      "elevation": 280.4,
      "mindate": "2006-01-01",
      "maxdate": "2025-03-08",
      "latitude": 44.47556,
      "name": "STANTON AIRFIELD, MN US",
      "datacoverage": 1,
      "id": "WBAN:54930",
      "elevationUnit": "METERS",
      "longitude": -93.01639
    },
    {
      "elevation": 408.4,
      "mindate": "2006-01-01",
      "maxdate": "2025-03-08",
      "latitude": 44.24917,
      "name": "TRACY MUNICIPAL AIRPORT, MN US",
      "datacoverage": 1,
      "id": "WBAN:54931",
      "elevationUnit": "METERS",
      "longitude": -95.60722
    },
    {
      "elevation": 344.4,
      "mindate": "2007-06-22",
      "maxdate": "2025-03-08",
      "latitude": 46.1135,
      "name": "SANDSTONE 6 W, MN US",
      "datacoverage": 1,
      "id": "WBAN:54932",
      "elevationUnit": "METERS",
      "longitude": -92.9936
    },
    {
      "elevation": 596.5,
      "mindate": "2007-06-26",
      "maxdate": "2025-03-08",
      "latitude": 45.7115,
      "name": "ABERDEEN 35 WNW, SD US",
      "datacoverage": 1,
      "id": "WBAN:54933",
      "elevationUnit": "METERS",
      "longitude": -99.1296
    },
    {
      "elevation": 585.2,
      "mindate": "2008-07-29",
      "maxdate": "2025-03-08",
      "latitude": 46.7702,
      "name": "JAMESTOWN 38 WSW, ND US",
      "datacoverage": 1,
      "id": "WBAN:54937",
      "elevationUnit": "METERS",
      "longitude": -99.4778
    },
    {
      "elevation": 311.8,
      "mindate": "2009-05-10",
      "maxdate": "2025-03-08",
      "latitude": 40.684,
      "name": "CENTERVILLE MUNICIPAL AIRPORT, IA US",
      "datacoverage": 1,
      "id": "WBAN:54939",
      "elevationUnit": "METERS",
      "longitude": -92.901
    },
    {
      "elevation": 374.6,
      "mindate": "2009-07-14",
      "maxdate": "2025-03-08",
      "latitude": 43.23475,
      "name": "FOREST CITY MUNICIPAL AIRPORT, IA US",
      "datacoverage": 1,
      "id": "WBAN:54940",
      "elevationUnit": "METERS",
      "longitude": -93.6241
    },
    {
      "elevation": 346.6,
      "mindate": "2007-10-16",
      "maxdate": "2025-03-08",
      "latitude": 42.47138,
      "name": "IOWA FALLS MUNICIPAL AIRPORT, IA US",
      "datacoverage": 1,
      "id": "WBAN:54941",
      "elevationUnit": "METERS",
      "longitude": -93.20707
    },
    {
      "elevation": 339.9,
      "mindate": "2010-03-04",
      "maxdate": "2025-03-08",
      "latitude": 41.05222,
      "name": "OSCEOLA MUNICIPAL AIRPORT, IA US",
      "datacoverage": 1,
      "id": "WBAN:54942",
      "elevationUnit": "METERS",
      "longitude": -93.68913
    },
    {
      "elevation": 308.8,
      "mindate": "2009-01-01",
      "maxdate": "2025-03-08",
      "latitude": 41.828,
      "name": "PERRY MUNICIPAL AIRPORT, IA US",
      "datacoverage": 1,
      "id": "WBAN:54943",
      "elevationUnit": "METERS",
      "longitude": -94.15983
    },
    {
      "elevation": 452.9,
      "mindate": "2006-01-01",
      "maxdate": "2025-03-08",
      "latitude": 45.46917,
      "name": "TOMAHAWK REGIONAL AIRPORT, WI US",
      "datacoverage": 1,
      "id": "WBAN:54953",
      "elevationUnit": "METERS",
      "longitude": -89.80556
    },
    {
      "elevation": 813.5,
      "mindate": "2013-08-09",
      "maxdate": "2025-03-08",
      "latitude": 63.0295,
      "name": "GLENNALLEN 64 N, AK US",
      "datacoverage": 1,
      "id": "WBAN:56401",
      "elevationUnit": "METERS",
      "longitude": -145.5003
    },
    {
      "elevation": 3.7,
      "mindate": "1945-08-01",
      "maxdate": "2025-03-07",
      "latitude": -14.33056,
      "name": "PAGO PAGO WEATHER SERVICE OFFICE AIRPORT, US",
      "datacoverage": 0.82,
      "id": "WBAN:61705",
      "elevationUnit": "METERS",
      "longitude": -170.71361
    },
    {
      "elevation": 214.9,
      "mindate": "2005-01-01",
      "maxdate": "2025-03-08",
      "latitude": 35.38963,
      "name": "CONCORD REGIONAL AIRPORT, NC US",
      "datacoverage": 1,
      "id": "WBAN:63801",
      "elevationUnit": "METERS",
      "longitude": -80.70735
    },
    {
      "elevation": 818.1,
      "mindate": "2005-01-01",
      "maxdate": "2025-03-08",
      "latitude": 36.9875,
      "name": "WISE LONESOME PINE AIRPORT, VA US",
      "datacoverage": 1,
      "id": "WBAN:63802",
      "elevationUnit": "METERS",
      "longitude": -82.53
    },
    {
      "elevation": 323.4,
      "mindate": "2005-02-21",
      "maxdate": "2025-03-08",
      "latitude": 33.97972,
      "name": "LAWRENCEVILLE GWINNET CO BRISCOE FIELD AIRPORT, GA US",
      "datacoverage": 0.81,
      "id": "WBAN:63803",
      "elevationUnit": "METERS",
      "longitude": -83.96333
    },
    {
      "elevation": 230.1,
      "mindate": "2005-01-01",
      "maxdate": "2025-03-08",
      "latitude": 34.86139,
      "name": "HUNTSVILLE MADISON CO EXECUTIVE AIRPORT, AL US",
      "datacoverage": 1,
      "id": "WBAN:63804",
      "elevationUnit": "METERS",
      "longitude": -86.55722
    },
    {
      "elevation": 780,
      "mindate": "2005-01-01",
      "maxdate": "2025-03-08",
      "latitude": 36.89472,
      "name": "MOUNTAIN EMPIRE AIRPORT, VA US",
      "datacoverage": 1,
      "id": "WBAN:63805",
      "elevationUnit": "METERS",
      "longitude": -81.34972
    },
    {
      "elevation": 286.8,
      "mindate": "2005-01-01",
      "maxdate": "2025-03-08",
      "latitude": 36.63056,
      "name": "MARTINSVILLE BLUE RIDGE AIRPORT, VA US",
      "datacoverage": 1,
      "id": "WBAN:63806",
      "elevationUnit": "METERS",
      "longitude": -80.01833
    },
    {
      "elevation": 380.1,
      "mindate": "2005-01-01",
      "maxdate": "2025-03-08",
      "latitude": 36.45972,
      "name": "MOUNT AIRY SURRY CO AIRPORT, NC US",
      "datacoverage": 1,
      "id": "WBAN:63807",
      "elevationUnit": "METERS",
      "longitude": -80.55278
    },
    {
      "elevation": 122.5,
      "mindate": "2005-01-01",
      "maxdate": "2025-03-08",
      "latitude": 34.97861,
      "name": "OLIVE BRANCH AIRPORT, MS US",
      "datacoverage": 1,
      "id": "WBAN:63808",
      "elevationUnit": "METERS",
      "longitude": -89.78667
    },
    {
      "elevation": 242.6,
      "mindate": "2005-01-01",
      "maxdate": "2025-03-08",
      "latitude": 32.955,
      "name": "THOMASTON UPSON CO AIRPORT, GA US",
      "datacoverage": 1,
      "id": "WBAN:63809",
      "elevationUnit": "METERS",
      "longitude": -84.26417
    },
    {
      "elevation": 199.3,
      "mindate": "2005-01-01",
      "maxdate": "2025-03-08",
      "latitude": 39.7,
      "name": "PARIS EDGAR CO AIRPORT, IL US",
      "datacoverage": 1,
      "id": "WBAN:63810",
      "elevationUnit": "METERS",
      "longitude": -87.66944
    },
    {
      "elevation": 516.9,
      "mindate": "2005-01-01",
      "maxdate": "2024-12-12",
      "latitude": 35.195,
      "name": "ANDREWS MURPHY AIRPORT, NC US",
      "datacoverage": 1,
      "id": "WBAN:63811",
      "elevationUnit": "METERS",
      "longitude": -83.86528
    },
    {
      "elevation": 235.6,
      "mindate": "2005-01-01",
      "maxdate": "2025-03-08",
      "latitude": 35.64583,
      "name": "SALISBURY ROWAN CO AIRPORT, NC US",
      "datacoverage": 1,
      "id": "WBAN:63812",
      "elevationUnit": "METERS",
      "longitude": -80.52028
    },
    {
      "elevation": 317,
      "mindate": "2005-01-04",
      "maxdate": "2025-03-08",
      "latitude": 34.01306,
      "name": "MARIETTA COBB CO MCCOLLUM FIELD AIRPORT, GA US",
      "datacoverage": 0.86,
      "id": "WBAN:63813",
      "elevationUnit": "METERS",
      "longitude": -84.59861
    },
    {
      "elevation": 164,
      "mindate": "2005-01-01",
      "maxdate": "2025-03-08",
      "latitude": 38.14889,
      "name": "SPARTA COMMUNITY HUNTER FIELD AIRPORT, IL US",
      "datacoverage": 1,
      "id": "WBAN:63814",
      "elevationUnit": "METERS",
      "longitude": -89.69861
    },
    {
      "elevation": 282.5,
      "mindate": "2005-01-01",
      "maxdate": "2025-03-08",
      "latitude": 37.05417,
      "name": "SOMERSET PULASKI CO JT WILSON AIRPORT, KY US",
      "datacoverage": 1,
      "id": "WBAN:63815",
      "elevationUnit": "METERS",
      "longitude": -84.61472
    },
    {
      "elevation": 294.1,
      "mindate": "2005-01-01",
      "maxdate": "2025-03-08",
      "latitude": 35.765,
      "name": "STATESVILLE MUNICIPAL AIRPORT, NC US",
      "datacoverage": 1,
      "id": "WBAN:63816",
      "elevationUnit": "METERS",
      "longitude": -80.95667
    },
    {
      "elevation": 189.6,
      "mindate": "2005-01-01",
      "maxdate": "2025-03-08",
      "latitude": 39.53417,
      "name": "TAYLORVILLE MUNICIPAL AIRPORT, IL US",
      "datacoverage": 1,
      "id": "WBAN:63817",
      "elevationUnit": "METERS",
      "longitude": -89.32778
    },
    {
      "elevation": 57,
      "mindate": "2005-01-01",
      "maxdate": "2025-03-08",
      "latitude": 32.48306,
      "name": "STATESBORO BULLOCH CO AIRPORT, GA US",
      "datacoverage": 1,
      "id": "WBAN:63818",
      "elevationUnit": "METERS",
      "longitude": -81.73722
    },
    {
      "elevation": 910.4,
      "mindate": "2005-01-01",
      "maxdate": "2025-03-08",
      "latitude": 36.2,
      "name": "BOONE WATAUGA CO HOSPITAL HELIPORT, NC US",
      "datacoverage": 1,
      "id": "WBAN:63819",
      "elevationUnit": "METERS",
      "longitude": -81.65
    }
  ]
}
