{
  "metadata": {
    "resultset": {
      "offset": 40300,
      "count": 154115,
      "limit": 100
    }
  },
  "results": [
    {
      "elevation": 0,
      "mindate": "1972-09-01",
      "maxdate": "2000-12-31",
      "latitude": -15.6,
      "name": "PEDRAS DE MARIA DA CRUZ, BR",
      "datacoverage": 0.9853,
      "id": "GHCND:BR001544017",
      "elevationUnit": "METERS",
      "longitude": -44.4
    },
    {
      "elevation": 0,
      "mindate": "1974-10-01",
      "maxdate": "2000-12-31",
      "latitude": -15.02,
      "name": "FAZENDA CANADA, BR",
      "datacoverage": 0.93,
      "id": "GHCND:BR001544018",
      "elevationUnit": "METERS",
      "longitude": -44.05
    },
    {
      "elevation": 0,
      "mindate": "1975-10-01",
      "maxdate": "2000-12-31",
      "latitude": -15.93,
      "name": "SAO JOAO DA PONTE, BR",
      "datacoverage": 0.9543,
      "id": "GHCND:BR001544019",
      "elevationUnit": "METERS",
      "longitude": -44
    },
    {
      "elevation": 0,
      "mindate": "1946-08-01",
      "maxdate": "1962-12-31",
      "latitude": -15,
      "name": "CACHOEIRA GRANDE JUSANTE, BR",
      "datacoverage": 0.9898,
      "id": "GHCND:BR001544021",
      "elevationUnit": "METERS",
      "longitude": -44
    },
    {
      "elevation": 0,
      "mindate": "1983-02-01",
      "maxdate": "2000-12-31",
      "latitude": -15.7,
      "name": "VARZELANDIA, BR",
      "datacoverage": 0.9628,
      "id": "GHCND:BR001544030",
      "elevationUnit": "METERS",
      "longitude": -44.03
    },
    {
      "elevation": 474,
      "mindate": "1953-11-01",
      "maxdate": "1997-08-20",
      "latitude": -15.433,
      "name": "JANUARIA, BR",
      "datacoverage": 0.935,
      "id": "GHCND:BR001544031",
      "elevationUnit": "METERS",
      "longitude": -44.367
    },
    {
      "elevation": 0,
      "mindate": "1993-07-01",
      "maxdate": "2000-12-31",
      "latitude": -15.48,
      "name": "USINA DO PANDEIROS, BR",
      "datacoverage": 0.955,
      "id": "GHCND:BR001544032",
      "elevationUnit": "METERS",
      "longitude": -44.77
    },
    {
      "elevation": 0,
      "mindate": "1981-04-01",
      "maxdate": "2000-12-31",
      "latitude": -15.5,
      "name": "SERRA DAS ARARAS, BR",
      "datacoverage": 0.7383,
      "id": "GHCND:BR001545002",
      "elevationUnit": "METERS",
      "longitude": -45.39
    },
    {
      "elevation": 0,
      "mindate": "1995-04-01",
      "maxdate": "2000-12-31",
      "latitude": -15.3,
      "name": "GAUCHOS, BR",
      "datacoverage": 0.9419,
      "id": "GHCND:BR001545004",
      "elevationUnit": "METERS",
      "longitude": -45.63
    },
    {
      "elevation": 600,
      "mindate": "1973-11-01",
      "maxdate": "2000-12-31",
      "latitude": -15.617,
      "name": "BURITIS, BR",
      "datacoverage": 0.6288,
      "id": "GHCND:BR001546001",
      "elevationUnit": "METERS",
      "longitude": -46.417
    },
    {
      "elevation": 900,
      "mindate": "1973-08-01",
      "maxdate": "2000-12-31",
      "latitude": -15.8,
      "name": "CABECEIRAS, BR",
      "datacoverage": 0.9239,
      "id": "GHCND:BR001546005",
      "elevationUnit": "METERS",
      "longitude": -46.92
    },
    {
      "elevation": 0,
      "mindate": "1993-03-01",
      "maxdate": "2000-12-31",
      "latitude": -15.52,
      "name": "FAZENDA CARVALHO, BR",
      "datacoverage": 0.9995,
      "id": "GHCND:BR001546010",
      "elevationUnit": "METERS",
      "longitude": -46.28
    },
    {
      "elevation": 0,
      "mindate": "1969-01-01",
      "maxdate": "1994-12-31",
      "latitude": -15.22,
      "name": "FAZENDA SANTA SE, BR",
      "datacoverage": 0.9905,
      "id": "GHCND:BR001547001",
      "elevationUnit": "METERS",
      "longitude": -47.16
    },
    {
      "elevation": 1000,
      "mindate": "1973-08-01",
      "maxdate": "1994-12-31",
      "latitude": -15.45,
      "name": "PLANALTINA, BR",
      "datacoverage": 0.9921,
      "id": "GHCND:BR001547002",
      "elevationUnit": "METERS",
      "longitude": -47.61
    },
    {
      "elevation": 1100,
      "mindate": "1973-08-01",
      "maxdate": "1997-12-31",
      "latitude": -15.68,
      "name": "BRAZLANDIA QUADRA 18, BR",
      "datacoverage": 0.9692,
      "id": "GHCND:BR001548000",
      "elevationUnit": "METERS",
      "longitude": -48.2
    },
    {
      "elevation": 750,
      "mindate": "1973-03-01",
      "maxdate": "1994-12-31",
      "latitude": -15.06,
      "name": "MIMOSO, BR",
      "datacoverage": 0.9925,
      "id": "GHCND:BR001548001",
      "elevationUnit": "METERS",
      "longitude": -48.16
    },
    {
      "elevation": 750,
      "mindate": "1986-01-01",
      "maxdate": "1994-12-31",
      "latitude": -15.17,
      "name": "PADRE BERNARDO, BR",
      "datacoverage": 0.9075,
      "id": "GHCND:BR001548002",
      "elevationUnit": "METERS",
      "longitude": -48.28
    },
    {
      "elevation": 730,
      "mindate": "1969-01-01",
      "maxdate": "2001-10-09",
      "latitude": -15.85,
      "name": "PIRENOPOLIS, BR",
      "datacoverage": 0.9872,
      "id": "GHCND:BR001548003",
      "elevationUnit": "METERS",
      "longitude": -48.967
    },
    {
      "elevation": 0,
      "mindate": "1984-11-01",
      "maxdate": "1994-12-31",
      "latitude": -15.55,
      "name": "FAZENDA MARAJA, BR",
      "datacoverage": 0.828,
      "id": "GHCND:BR001548011",
      "elevationUnit": "METERS",
      "longitude": -48.58
    },
    {
      "elevation": 550,
      "mindate": "1971-09-01",
      "maxdate": "1994-12-31",
      "latitude": -15.31,
      "name": "CERES POSTO BIQUINHA, BR",
      "datacoverage": 0.9821,
      "id": "GHCND:BR001549000",
      "elevationUnit": "METERS",
      "longitude": -49.55
    },
    {
      "elevation": 0,
      "mindate": "1969-01-01",
      "maxdate": "1994-12-31",
      "latitude": -15.33,
      "name": "GOIANESIA, BR",
      "datacoverage": 0.9872,
      "id": "GHCND:BR001549001",
      "elevationUnit": "METERS",
      "longitude": -49.12
    },
    {
      "elevation": 0,
      "mindate": "1969-01-01",
      "maxdate": "1994-12-31",
      "latitude": -15.56,
      "name": "ITAPURANGA, BR",
      "datacoverage": 0.9969,
      "id": "GHCND:BR001549002",
      "elevationUnit": "METERS",
      "longitude": -49.94
    },
    {
      "elevation": 0,
      "mindate": "1964-07-01",
      "maxdate": "1994-12-31",
      "latitude": -15.72,
      "name": "JARAGUA, BR",
      "datacoverage": 1,
      "id": "GHCND:BR001549003",
      "elevationUnit": "METERS",
      "longitude": -49.33
    },
    {
      "elevation": 800,
      "mindate": "1973-09-01",
      "maxdate": "1994-12-31",
      "latitude": -15.02,
      "name": "NOVA AMERICA, BR",
      "datacoverage": 0.9727,
      "id": "GHCND:BR001549004",
      "elevationUnit": "METERS",
      "longitude": -49.89
    },
    {
      "elevation": 0,
      "mindate": "1971-09-01",
      "maxdate": "1994-12-31",
      "latitude": -15.5,
      "name": "URUANA, BR",
      "datacoverage": 0.9964,
      "id": "GHCND:BR001549009",
      "elevationUnit": "METERS",
      "longitude": -49.69
    },
    {
      "elevation": 343,
      "mindate": "1973-02-01",
      "maxdate": "1994-12-31",
      "latitude": -15.82,
      "name": "ITAPIRAPUA, BR",
      "datacoverage": 0.9887,
      "id": "GHCND:BR001550000",
      "elevationUnit": "METERS",
      "longitude": -50.61
    },
    {
      "elevation": 400,
      "mindate": "1973-05-01",
      "maxdate": "1994-12-31",
      "latitude": -15.37,
      "name": "JEROAQUARA, BR",
      "datacoverage": 0.9806,
      "id": "GHCND:BR001550001",
      "elevationUnit": "METERS",
      "longitude": -50.5
    },
    {
      "elevation": 450,
      "mindate": "1973-09-01",
      "maxdate": "1994-12-31",
      "latitude": -15.37,
      "name": "TRAVESSAO, BR",
      "datacoverage": 0.9609,
      "id": "GHCND:BR001550002",
      "elevationUnit": "METERS",
      "longitude": -50.7
    },
    {
      "elevation": 297,
      "mindate": "1973-09-01",
      "maxdate": "1994-12-31",
      "latitude": -15.25,
      "name": "BRITANIA, BR",
      "datacoverage": 0.9805,
      "id": "GHCND:BR001551000",
      "elevationUnit": "METERS",
      "longitude": -51.16
    },
    {
      "elevation": 400,
      "mindate": "1971-11-01",
      "maxdate": "1994-12-31",
      "latitude": -15.61,
      "name": "MONTES CLAROS DE GOIAS, BR",
      "datacoverage": 0.9604,
      "id": "GHCND:BR001551001",
      "elevationUnit": "METERS",
      "longitude": -51.36
    },
    {
      "elevation": 300,
      "mindate": "1971-11-01",
      "maxdate": "1994-12-31",
      "latitude": -15.89,
      "name": "PERES, BR",
      "datacoverage": 0.9748,
      "id": "GHCND:BR001551002",
      "elevationUnit": "METERS",
      "longitude": -51.85
    },
    {
      "elevation": 400,
      "mindate": "1973-09-01",
      "maxdate": "1994-12-31",
      "latitude": -15.77,
      "name": "SANTA FE, BR",
      "datacoverage": 0.9805,
      "id": "GHCND:BR001551003",
      "elevationUnit": "METERS",
      "longitude": -51.1
    },
    {
      "elevation": 0,
      "mindate": "1969-01-01",
      "maxdate": "1994-12-31",
      "latitude": -15.89,
      "name": "BARRA DO GARCAS, BR",
      "datacoverage": 0.9616,
      "id": "GHCND:BR001552000",
      "elevationUnit": "METERS",
      "longitude": -52.23
    },
    {
      "elevation": 366,
      "mindate": "1985-01-01",
      "maxdate": "1994-12-31",
      "latitude": -15.7,
      "name": "GENERAL CARNEIRO, BR",
      "datacoverage": 0.8251,
      "id": "GHCND:BR001552001",
      "elevationUnit": "METERS",
      "longitude": -52.75
    },
    {
      "elevation": 0,
      "mindate": "1971-03-01",
      "maxdate": "1994-12-31",
      "latitude": -15.25,
      "name": "TORIQUEJE, BR",
      "datacoverage": 0.8949,
      "id": "GHCND:BR001552002",
      "elevationUnit": "METERS",
      "longitude": -53.05
    },
    {
      "elevation": 0,
      "mindate": "1985-01-01",
      "maxdate": "1994-12-31",
      "latitude": -15.04,
      "name": "PINDAIBA, BR",
      "datacoverage": 0.7834,
      "id": "GHCND:BR001552006",
      "elevationUnit": "METERS",
      "longitude": -52.24
    },
    {
      "elevation": 0,
      "mindate": "1968-07-01",
      "maxdate": "1989-12-31",
      "latitude": -15.85,
      "name": "POXOREU EXTERNATO SAO JOSE, BR",
      "datacoverage": 0.4664,
      "id": "GHCND:BR001554001",
      "elevationUnit": "METERS",
      "longitude": -54.38
    },
    {
      "elevation": 0,
      "mindate": "1976-04-01",
      "maxdate": "1994-12-31",
      "latitude": -15.31,
      "name": "RIO DAS MORTES, BR",
      "datacoverage": 0.8488,
      "id": "GHCND:BR001554005",
      "elevationUnit": "METERS",
      "longitude": -54.18
    },
    {
      "elevation": 0,
      "mindate": "1965-11-01",
      "maxdate": "2000-06-30",
      "latitude": -15.99,
      "name": "JACIARA, BR",
      "datacoverage": 0.9135,
      "id": "GHCND:BR001554006",
      "elevationUnit": "METERS",
      "longitude": -54.97
    },
    {
      "elevation": 610,
      "mindate": "1967-03-01",
      "maxdate": "2000-07-31",
      "latitude": -15.41,
      "name": "PONTE ALTA, BR",
      "datacoverage": 0.6084,
      "id": "GHCND:BR001555000",
      "elevationUnit": "METERS",
      "longitude": -55.3
    },
    {
      "elevation": 529,
      "mindate": "1968-07-01",
      "maxdate": "2000-07-31",
      "latitude": -15.47,
      "name": "CHAPADA DOS GUIMARAES, BR",
      "datacoverage": 0.9246,
      "id": "GHCND:BR001555001",
      "elevationUnit": "METERS",
      "longitude": -55.73
    },
    {
      "elevation": 0,
      "mindate": "1968-07-01",
      "maxdate": "1989-12-31",
      "latitude": -15.67,
      "name": "SAO VICENTE DA SERRA PART., BR",
      "datacoverage": 0.7996,
      "id": "GHCND:BR001555004",
      "elevationUnit": "METERS",
      "longitude": -55.42
    },
    {
      "elevation": 0,
      "mindate": "1976-06-01",
      "maxdate": "1999-12-31",
      "latitude": -15.84,
      "name": "SAO JOSE DA SERRA, BR",
      "datacoverage": 0.7994,
      "id": "GHCND:BR001555005",
      "elevationUnit": "METERS",
      "longitude": -55.32
    },
    {
      "elevation": 0,
      "mindate": "1982-01-01",
      "maxdate": "1990-12-31",
      "latitude": -15.27,
      "name": "RONCADOR FAZ.RIO PARDO PR1, BR",
      "datacoverage": 0.9908,
      "id": "GHCND:BR001555006",
      "elevationUnit": "METERS",
      "longitude": -55.1
    },
    {
      "elevation": 0,
      "mindate": "1982-04-01",
      "maxdate": "2000-07-31",
      "latitude": -15.37,
      "name": "USINA CASCA III PR2, BR",
      "datacoverage": 0.9453,
      "id": "GHCND:BR001555007",
      "elevationUnit": "METERS",
      "longitude": -55.44
    },
    {
      "elevation": 442,
      "mindate": "1982-01-01",
      "maxdate": "2000-07-31",
      "latitude": -15.23,
      "name": "FAZENDA ESTIVA PR3, BR",
      "datacoverage": 0.9418,
      "id": "GHCND:BR001555008",
      "elevationUnit": "METERS",
      "longitude": -55.74
    },
    {
      "elevation": 0,
      "mindate": "1971-03-01",
      "maxdate": "2000-01-31",
      "latitude": -15.35,
      "name": "NOSSA SENHORA DA GUIA, BR",
      "datacoverage": 0.9854,
      "id": "GHCND:BR001556000",
      "elevationUnit": "METERS",
      "longitude": -56.23
    },
    {
      "elevation": 0,
      "mindate": "1971-02-01",
      "maxdate": "2000-05-31",
      "latitude": -15.77,
      "name": "N.S.LIVRAMENTO BOSQUE F.BARROS, BR",
      "datacoverage": 0.9433,
      "id": "GHCND:BR001556001",
      "elevationUnit": "METERS",
      "longitude": -56.35
    },
    {
      "elevation": 0,
      "mindate": "1969-06-01",
      "maxdate": "2000-01-31",
      "latitude": -15.21,
      "name": "ACORIZAL, BR",
      "datacoverage": 0.6739,
      "id": "GHCND:BR001556005",
      "elevationUnit": "METERS",
      "longitude": -56.37
    },
    {
      "elevation": 0,
      "mindate": "1969-12-01",
      "maxdate": "2000-01-31",
      "latitude": -15.64,
      "name": "SECO FAZENDA SECO, BR",
      "datacoverage": 0.6961,
      "id": "GHCND:BR001556006",
      "elevationUnit": "METERS",
      "longitude": -56.61
    },
    {
      "elevation": 0,
      "mindate": "1976-01-01",
      "maxdate": "2000-06-30",
      "latitude": -15.7,
      "name": "SANTA EDWIGES, BR",
      "datacoverage": 0.5783,
      "id": "GHCND:BR001556007",
      "elevationUnit": "METERS",
      "longitude": -56.13
    },
    {
      "elevation": 0,
      "mindate": "1971-05-01",
      "maxdate": "2000-01-31",
      "latitude": -15.33,
      "name": "PORTO ESTRELA, BR",
      "datacoverage": 0.9853,
      "id": "GHCND:BR001557000",
      "elevationUnit": "METERS",
      "longitude": -57.23
    },
    {
      "elevation": 0,
      "mindate": "1968-11-01",
      "maxdate": "2000-01-31",
      "latitude": -15.08,
      "name": "BARRA DO BUGRES PCD, BR",
      "datacoverage": 0.8373,
      "id": "GHCND:BR001557001",
      "elevationUnit": "METERS",
      "longitude": -57.18
    },
    {
      "elevation": 187,
      "mindate": "1969-08-01",
      "maxdate": "2000-01-31",
      "latitude": -15.64,
      "name": "BARRANQUINHO, BR",
      "datacoverage": 0.5655,
      "id": "GHCND:BR001557003",
      "elevationUnit": "METERS",
      "longitude": -57.47
    },
    {
      "elevation": 0,
      "mindate": "1969-08-01",
      "maxdate": "1989-10-31",
      "latitude": -15.12,
      "name": "SAO JOSE DO SEPOTUBA, BR",
      "datacoverage": 0.6466,
      "id": "GHCND:BR001557004",
      "elevationUnit": "METERS",
      "longitude": -57.65
    },
    {
      "elevation": 106,
      "mindate": "1976-01-01",
      "maxdate": "2000-01-31",
      "latitude": -15.09,
      "name": "SAO JOSE DO SEPOTUBA, BR",
      "datacoverage": 0.9995,
      "id": "GHCND:BR001557005",
      "elevationUnit": "METERS",
      "longitude": -57.81
    },
    {
      "elevation": 124,
      "mindate": "1971-05-01",
      "maxdate": "2000-01-31",
      "latitude": -15.25,
      "name": "COLONIA RIO BRANCO, BR",
      "datacoverage": 0.5216,
      "id": "GHCND:BR001558000",
      "elevationUnit": "METERS",
      "longitude": -58.11
    },
    {
      "elevation": 188,
      "mindate": "1972-03-01",
      "maxdate": "2000-01-31",
      "latitude": -15.47,
      "name": "PONTE CABACAL MT 125, BR",
      "datacoverage": 0.6238,
      "id": "GHCND:BR001558001",
      "elevationUnit": "METERS",
      "longitude": -57.89
    },
    {
      "elevation": 0,
      "mindate": "1965-11-01",
      "maxdate": "1991-10-31",
      "latitude": -15.85,
      "name": "PORTO ESPERIDIAO, BR",
      "datacoverage": 0.6107,
      "id": "GHCND:BR001558003",
      "elevationUnit": "METERS",
      "longitude": -58.45
    },
    {
      "elevation": 235,
      "mindate": "1964-12-01",
      "maxdate": "1999-10-31",
      "latitude": -15.44,
      "name": "ALTO JAURU PARTICULAR, BR",
      "datacoverage": 0.6158,
      "id": "GHCND:BR001558004",
      "elevationUnit": "METERS",
      "longitude": -58.59
    },
    {
      "elevation": 0,
      "mindate": "1965-11-01",
      "maxdate": "2000-01-31",
      "latitude": -15.85,
      "name": "PORTO ESPERIDIAO, BR",
      "datacoverage": 0.6788,
      "id": "GHCND:BR001558005",
      "elevationUnit": "METERS",
      "longitude": -58.46
    },
    {
      "elevation": 230,
      "mindate": "1974-11-01",
      "maxdate": "1997-07-31",
      "latitude": -15.22,
      "name": "PONTES E LACERDA, BR",
      "datacoverage": 1,
      "id": "GHCND:BR001559000",
      "elevationUnit": "METERS",
      "longitude": -59.35
    },
    {
      "elevation": 200,
      "mindate": "1965-12-01",
      "maxdate": "1997-07-31",
      "latitude": -15.06,
      "name": "VILA BELA PCD, BR",
      "datacoverage": 0.8421,
      "id": "GHCND:BR001559006",
      "elevationUnit": "METERS",
      "longitude": -59.87
    },
    {
      "elevation": 185,
      "mindate": "1986-01-01",
      "maxdate": "1997-07-31",
      "latitude": -15.4,
      "name": "FAZENDA AREIAO, BR",
      "datacoverage": 0.9426,
      "id": "GHCND:BR001560000",
      "elevationUnit": "METERS",
      "longitude": -60.03
    },
    {
      "elevation": 180,
      "mindate": "1962-08-01",
      "maxdate": "2000-12-31",
      "latitude": -16.26,
      "name": "MUNDO NOVO, BR",
      "datacoverage": 0.8958,
      "id": "GHCND:BR001639000",
      "elevationUnit": "METERS",
      "longitude": -39.58
    },
    {
      "elevation": 170,
      "mindate": "1969-04-01",
      "maxdate": "1986-08-23",
      "latitude": -16.37,
      "name": "DUAS BARRAS, BR",
      "datacoverage": 0.9425,
      "id": "GHCND:BR001639004",
      "elevationUnit": "METERS",
      "longitude": -39.8
    },
    {
      "elevation": 170,
      "mindate": "1963-01-01",
      "maxdate": "1994-11-30",
      "latitude": -16.58,
      "name": "GUARATINGA, BR",
      "datacoverage": 0.906,
      "id": "GHCND:BR001639008",
      "elevationUnit": "METERS",
      "longitude": -39.55
    },
    {
      "elevation": 0,
      "mindate": "1969-03-01",
      "maxdate": "1980-03-10",
      "latitude": -16.37,
      "name": "EUNAPOLIS, BR",
      "datacoverage": 0.9321,
      "id": "GHCND:BR001639013",
      "elevationUnit": "METERS",
      "longitude": -39.57
    },
    {
      "elevation": 124,
      "mindate": "1938-01-01",
      "maxdate": "1964-04-30",
      "latitude": -16,
      "name": "SALTO DA DIVISA, BR",
      "datacoverage": 0.9685,
      "id": "GHCND:BR001639015",
      "elevationUnit": "METERS",
      "longitude": -39.97
    },
    {
      "elevation": 160,
      "mindate": "1948-01-01",
      "maxdate": "2000-12-31",
      "latitude": -16.14,
      "name": "JACINTO, BR",
      "datacoverage": 0.9827,
      "id": "GHCND:BR001640000",
      "elevationUnit": "METERS",
      "longitude": -40.29
    },
    {
      "elevation": 0,
      "mindate": "1975-09-01",
      "maxdate": "2000-12-31",
      "latitude": -16.12,
      "name": "FAZENDA CAJUEIRO, BR",
      "datacoverage": 0.9769,
      "id": "GHCND:BR001640001",
      "elevationUnit": "METERS",
      "longitude": -40.74
    },
    {
      "elevation": 183,
      "mindate": "1948-01-01",
      "maxdate": "1967-09-30",
      "latitude": -16.18,
      "name": "ALMENARA, BR",
      "datacoverage": 1,
      "id": "GHCND:BR001640002",
      "elevationUnit": "METERS",
      "longitude": -40.72
    },
    {
      "elevation": 0,
      "mindate": "1995-04-01",
      "maxdate": "2000-12-31",
      "latitude": -16.38,
      "name": "RUBIM, BR",
      "datacoverage": 0.9991,
      "id": "GHCND:BR001640009",
      "elevationUnit": "METERS",
      "longitude": -40.54
    },
    {
      "elevation": 0,
      "mindate": "1992-12-01",
      "maxdate": "2000-12-31",
      "latitude": -16.84,
      "name": "JUCURUCU, BR",
      "datacoverage": 0.9689,
      "id": "GHCND:BR001640012",
      "elevationUnit": "METERS",
      "longitude": -40.16
    },
    {
      "elevation": 248,
      "mindate": "1948-01-01",
      "maxdate": "1968-02-29",
      "latitude": -16.6,
      "name": "ITINGA, BR",
      "datacoverage": 0.996,
      "id": "GHCND:BR001641000",
      "elevationUnit": "METERS",
      "longitude": -41.77
    },
    {
      "elevation": 241,
      "mindate": "1948-01-01",
      "maxdate": "2000-12-31",
      "latitude": -16.57,
      "name": "ITAOBIM, BR",
      "datacoverage": 0.9827,
      "id": "GHCND:BR001641001",
      "elevationUnit": "METERS",
      "longitude": -41.5
    },
    {
      "elevation": 254,
      "mindate": "1922-11-01",
      "maxdate": "2000-12-31",
      "latitude": -16.43,
      "name": "JEQUITINHONHA PCD, BR",
      "datacoverage": 0.8913,
      "id": "GHCND:BR001641002",
      "elevationUnit": "METERS",
      "longitude": -41.01
    },
    {
      "elevation": 482,
      "mindate": "1950-05-01",
      "maxdate": "1967-01-31",
      "latitude": -16.23,
      "name": "MEDINA, BR",
      "datacoverage": 0.8744,
      "id": "GHCND:BR001641003",
      "elevationUnit": "METERS",
      "longitude": -41.58
    },
    {
      "elevation": 250,
      "mindate": "1948-01-01",
      "maxdate": "1967-01-31",
      "latitude": -16.52,
      "name": "SAO PEDRO DO JEQUITINHONHA, BR",
      "datacoverage": 0.93,
      "id": "GHCND:BR001641004",
      "elevationUnit": "METERS",
      "longitude": -41.33
    },
    {
      "elevation": 0,
      "mindate": "1974-02-01",
      "maxdate": "2000-12-31",
      "latitude": -16.69,
      "name": "SAO JOAO GRANDE, BR",
      "datacoverage": 0.9722,
      "id": "GHCND:BR001641007",
      "elevationUnit": "METERS",
      "longitude": -41.5
    },
    {
      "elevation": 0,
      "mindate": "1977-01-01",
      "maxdate": "2000-12-31",
      "latitude": -16.62,
      "name": "ITINGA, BR",
      "datacoverage": 0.9757,
      "id": "GHCND:BR001641010",
      "elevationUnit": "METERS",
      "longitude": -41.77
    },
    {
      "elevation": 590,
      "mindate": "1975-09-01",
      "maxdate": "2000-12-31",
      "latitude": -16.23,
      "name": "MEDINA, BR",
      "datacoverage": 0.9637,
      "id": "GHCND:BR001641011",
      "elevationUnit": "METERS",
      "longitude": -41.48
    },
    {
      "elevation": 0,
      "mindate": "1992-12-01",
      "maxdate": "2000-12-31",
      "latitude": -16.6,
      "name": "FAZENDA BOA SORTE JUSANTE, BR",
      "datacoverage": 0.9895,
      "id": "GHCND:BR001641012",
      "elevationUnit": "METERS",
      "longitude": -41.02
    },
    {
      "elevation": 0,
      "mindate": "1995-04-01",
      "maxdate": "2000-12-31",
      "latitude": -16.3,
      "name": "COMERCINHO, BR",
      "datacoverage": 0.9986,
      "id": "GHCND:BR001641013",
      "elevationUnit": "METERS",
      "longitude": -41.79
    },
    {
      "elevation": 293,
      "mindate": "1950-06-01",
      "maxdate": "1978-02-10",
      "latitude": -16.87,
      "name": "ARACUAI, BR",
      "datacoverage": 0.9941,
      "id": "GHCND:BR001642001",
      "elevationUnit": "METERS",
      "longitude": -42.08
    },
    {
      "elevation": 279,
      "mindate": "1948-01-01",
      "maxdate": "2000-12-31",
      "latitude": -16.61,
      "name": "CORONEL MURTA, BR",
      "datacoverage": 0.9829,
      "id": "GHCND:BR001642002",
      "elevationUnit": "METERS",
      "longitude": -42.19
    },
    {
      "elevation": 273,
      "mindate": "1945-10-01",
      "maxdate": "2000-12-31",
      "latitude": -16.68,
      "name": "PORTO MANDACARU, BR",
      "datacoverage": 0.9004,
      "id": "GHCND:BR001642007",
      "elevationUnit": "METERS",
      "longitude": -42.49
    },
    {
      "elevation": 380,
      "mindate": "1946-12-01",
      "maxdate": "2000-12-31",
      "latitude": -16.42,
      "name": "RUBELITA, BR",
      "datacoverage": 0.8941,
      "id": "GHCND:BR001642008",
      "elevationUnit": "METERS",
      "longitude": -42.28
    },
    {
      "elevation": 385,
      "mindate": "1951-07-01",
      "maxdate": "1967-06-30",
      "latitude": -16.8,
      "name": "VIRGEM DA LAPA, BR",
      "datacoverage": 1,
      "id": "GHCND:BR001642011",
      "elevationUnit": "METERS",
      "longitude": -42.35
    },
    {
      "elevation": 392,
      "mindate": "1948-01-01",
      "maxdate": "1967-01-31",
      "latitude": -16.95,
      "name": "BERILO, BR",
      "datacoverage": 0.7554,
      "id": "GHCND:BR001642012",
      "elevationUnit": "METERS",
      "longitude": -42.5
    },
    {
      "elevation": 290,
      "mindate": "1945-12-01",
      "maxdate": "2000-12-31",
      "latitude": -16.86,
      "name": "PEGA, BR",
      "datacoverage": 0.6611,
      "id": "GHCND:BR001642013",
      "elevationUnit": "METERS",
      "longitude": -42.35
    },
    {
      "elevation": 0,
      "mindate": "1972-12-01",
      "maxdate": "2000-12-31",
      "latitude": -16.59,
      "name": "GRAO MOGOL, BR",
      "datacoverage": 0.9703,
      "id": "GHCND:BR001642014",
      "elevationUnit": "METERS",
      "longitude": -42.92
    },
    {
      "elevation": 0,
      "mindate": "1983-02-01",
      "maxdate": "1994-05-31",
      "latitude": -16.17,
      "name": "SALINAS, BR",
      "datacoverage": 0.9489,
      "id": "GHCND:BR001642025",
      "elevationUnit": "METERS",
      "longitude": -42.27
    },
    {
      "elevation": 0,
      "mindate": "1992-11-01",
      "maxdate": "2000-12-31",
      "latitude": -16.19,
      "name": "PONTE VACARIA, BR",
      "datacoverage": 1,
      "id": "GHCND:BR001642026",
      "elevationUnit": "METERS",
      "longitude": -42.59
    },
    {
      "elevation": 0,
      "mindate": "1992-11-01",
      "maxdate": "2000-12-31",
      "latitude": -16.62,
      "name": "BARRA DO SALINAS, BR",
      "datacoverage": 0.9796,
      "id": "GHCND:BR001642027",
      "elevationUnit": "METERS",
      "longitude": -42.31
    },
    {
      "elevation": 0,
      "mindate": "1992-08-01",
      "maxdate": "2000-12-31",
      "latitude": -16.76,
      "name": "ITIRA, BR",
      "datacoverage": 0.9898,
      "id": "GHCND:BR001642028",
      "elevationUnit": "METERS",
      "longitude": -42.01
    },
    {
      "elevation": 620,
      "mindate": "1969-10-01",
      "maxdate": "1994-02-16",
      "latitude": -16.73,
      "name": "MONTES CLAROS, BR",
      "datacoverage": 0.8738,
      "id": "GHCND:BR001643018",
      "elevationUnit": "METERS",
      "longitude": -43.87
    },
    {
      "elevation": 600,
      "mindate": "1969-05-01",
      "maxdate": "1978-11-30",
      "latitude": -16.77,
      "name": "PONTE DE RODAGEM, BR",
      "datacoverage": 0.8346,
      "id": "GHCND:BR001643019",
      "elevationUnit": "METERS",
      "longitude": -43.7
    },
    {
      "elevation": 0,
      "mindate": "1975-10-01",
      "maxdate": "2000-12-31",
      "latitude": -16.32,
      "name": "CAPITAO ENEAS, BR",
      "datacoverage": 0.9041,
      "id": "GHCND:BR001643020",
      "elevationUnit": "METERS",
      "longitude": -43.72
    },
    {
      "elevation": 0,
      "mindate": "1975-01-01",
      "maxdate": "2000-12-31",
      "latitude": -16.21,
      "name": "BRASILIA DE MINAS JUSANTE, BR",
      "datacoverage": 0.9551,
      "id": "GHCND:BR001644027",
      "elevationUnit": "METERS",
      "longitude": -44.43
    }
  ]
}
