{
  "metadata": {
    "resultset": {
      "offset": 77300,
      "count": 154115,
      "limit": 100
    }
  },
  "results": [
    {
      "elevation": 113.7,
      "mindate": "2012-02-01",
      "maxdate": "2015-10-16",
      "latitude": 36.4402,
      "name": "WARM SPRINGS 5.5 ESE, AR US",
      "datacoverage": 0.8696,
      "id": "GHCND:US1ARRN0010",
      "elevationUnit": "METERS",
      "longitude": -90.9651
    },
    {
      "elevation": 96,
      "mindate": "1998-06-01",
      "maxdate": "2015-02-28",
      "latitude": 36.335278,
      "name": "POCAHONTAS 5.2 NNE, AR US",
      "datacoverage": 1,
      "id": "GHCND:US1ARRN0011",
      "elevationUnit": "METERS",
      "longitude": -90.943151
    },
    {
      "elevation": 123.4,
      "mindate": "1998-06-01",
      "maxdate": "2015-11-12",
      "latitude": 36.491,
      "name": "MAYNARD 5.0 NNE, AR US",
      "datacoverage": 0.8133,
      "id": "GHCND:US1ARRN0012",
      "elevationUnit": "METERS",
      "longitude": -90.8742
    },
    {
      "elevation": 125.6,
      "mindate": "2012-07-01",
      "maxdate": "2013-10-12",
      "latitude": 36.4158,
      "name": "POCAHONTAS 14.7 NW, AR US",
      "datacoverage": 0.9356,
      "id": "GHCND:US1ARRN0014",
      "elevationUnit": "METERS",
      "longitude": -91.1545
    },
    {
      "elevation": 84.7,
      "mindate": "2012-07-01",
      "maxdate": "2014-12-31",
      "latitude": 36.3631,
      "name": "REYNO 0.3 ENE, AR US",
      "datacoverage": 0.7326,
      "id": "GHCND:US1ARRN0017",
      "elevationUnit": "METERS",
      "longitude": -90.7532
    },
    {
      "elevation": 142,
      "mindate": "2022-03-22",
      "maxdate": "2023-09-13",
      "latitude": 36.497304,
      "name": "WARM SPRINGS 1.2 NNW, AR US",
      "datacoverage": 0.9345,
      "id": "GHCND:US1ARRN0021",
      "elevationUnit": "METERS",
      "longitude": -91.05718
    },
    {
      "elevation": 167.6,
      "mindate": "2009-04-01",
      "maxdate": "2009-09-04",
      "latitude": 35.25756,
      "name": "GREENWOOD 4.3NW, AR US",
      "datacoverage": 0.998,
      "id": "GHCND:US1ARSB0001",
      "elevationUnit": "METERS",
      "longitude": -94.30892
    },
    {
      "elevation": 132.9,
      "mindate": "2009-10-01",
      "maxdate": "2011-12-30",
      "latitude": 35.3009633,
      "name": "FORT SMITH 7.9 SE, AR US",
      "datacoverage": 0.9998,
      "id": "GHCND:US1ARSB0003",
      "elevationUnit": "METERS",
      "longitude": -94.304826
    },
    {
      "elevation": 154.2,
      "mindate": "2012-05-01",
      "maxdate": "2020-07-30",
      "latitude": 35.21,
      "name": "GREENWOOD 1.4 W, AR US",
      "datacoverage": 0.9997,
      "id": "GHCND:US1ARSB0004",
      "elevationUnit": "METERS",
      "longitude": -94.26
    },
    {
      "elevation": 186.5,
      "mindate": "2012-05-01",
      "maxdate": "2013-11-22",
      "latitude": 35.1838593184948,
      "name": "GREENWOOD 3.7 SW, AR US",
      "datacoverage": 0.9988,
      "id": "GHCND:US1ARSB0005",
      "elevationUnit": "METERS",
      "longitude": -94.3093603849411
    },
    {
      "elevation": 202.7,
      "mindate": "2013-05-01",
      "maxdate": "2020-01-04",
      "latitude": 35.226726,
      "name": "GREENWOOD 1.9 WNW, AR US",
      "datacoverage": 0.9994,
      "id": "GHCND:US1ARSB0008",
      "elevationUnit": "METERS",
      "longitude": -94.263158
    },
    {
      "elevation": 177.4,
      "mindate": "2020-01-01",
      "maxdate": "2025-03-02",
      "latitude": 35.269605,
      "name": "RYE HILL 1.1 E, AR US",
      "datacoverage": 0.9554,
      "id": "GHCND:US1ARSB0011",
      "elevationUnit": "METERS",
      "longitude": -94.3471
    },
    {
      "elevation": 192.6,
      "mindate": "2020-07-31",
      "maxdate": "2025-03-02",
      "latitude": 35.199235,
      "name": "GREENWOOD 0.9 S, AR US",
      "datacoverage": 1,
      "id": "GHCND:US1ARSB0012",
      "elevationUnit": "METERS",
      "longitude": -94.235253
    },
    {
      "elevation": 141.4,
      "mindate": "2023-05-12",
      "maxdate": "2023-11-06",
      "latitude": 35.384665,
      "name": "FORT SMITH 1.2 N, AR US",
      "datacoverage": 0.998,
      "id": "GHCND:US1ARSB0013",
      "elevationUnit": "METERS",
      "longitude": -94.383565
    },
    {
      "elevation": 253.6,
      "mindate": "2019-01-01",
      "maxdate": "2020-01-29",
      "latitude": 34.885215,
      "name": "WALDRON 9.2 W, AR US",
      "datacoverage": 1,
      "id": "GHCND:US1ARSC0004",
      "elevationUnit": "METERS",
      "longitude": -94.254913
    },
    {
      "elevation": 164.3,
      "mindate": "2012-05-01",
      "maxdate": "2025-03-06",
      "latitude": 36.037336,
      "name": "EVENING SHADE 2.7 SSE, AR US",
      "datacoverage": 0.9997,
      "id": "GHCND:US1ARSH0003",
      "elevationUnit": "METERS",
      "longitude": -91.595356
    },
    {
      "elevation": 205.7,
      "mindate": "2012-05-01",
      "maxdate": "2020-10-15",
      "latitude": 36.22764,
      "name": "ASH FLAT 0.1 NNE, AR US",
      "datacoverage": 0.9819,
      "id": "GHCND:US1ARSH0005",
      "elevationUnit": "METERS",
      "longitude": -91.605832
    },
    {
      "elevation": 137.2,
      "mindate": "2012-05-01",
      "maxdate": "2015-02-01",
      "latitude": 36.164605,
      "name": "HARDY 11.0 S, AR US",
      "datacoverage": 1,
      "id": "GHCND:US1ARSH0006",
      "elevationUnit": "METERS",
      "longitude": -91.515895
    },
    {
      "elevation": 187.5,
      "mindate": "2012-06-01",
      "maxdate": "2014-10-28",
      "latitude": 35.937857,
      "name": "CAVE CITY 0.8 SE, AR US",
      "datacoverage": 0.7958,
      "id": "GHCND:US1ARSH0008",
      "elevationUnit": "METERS",
      "longitude": -91.537855
    },
    {
      "elevation": 153.6,
      "mindate": "2012-06-01",
      "maxdate": "2012-10-14",
      "latitude": 36.158194,
      "name": "ASH FLAT 6.0 SW, AR US",
      "datacoverage": 0.9947,
      "id": "GHCND:US1ARSH0009",
      "elevationUnit": "METERS",
      "longitude": -91.674856
    },
    {
      "elevation": 101.8,
      "mindate": "2012-06-01",
      "maxdate": "2025-03-05",
      "latitude": 36.030952,
      "name": "SMITHVILLE 6.2 WSW, AR US",
      "datacoverage": 1,
      "id": "GHCND:US1ARSH0010",
      "elevationUnit": "METERS",
      "longitude": -91.394936
    },
    {
      "elevation": 175,
      "mindate": "2002-07-17",
      "maxdate": "2025-03-07",
      "latitude": 36.208377,
      "name": "HARDY 8.0 SSW, AR US",
      "datacoverage": 0.9998,
      "id": "GHCND:US1ARSH0011",
      "elevationUnit": "METERS",
      "longitude": -91.511502
    },
    {
      "elevation": 171.9,
      "mindate": "2012-08-01",
      "maxdate": "2014-10-03",
      "latitude": 36.053121,
      "name": "EVENING SHADE 1.2 S, AR US",
      "datacoverage": 0.7035,
      "id": "GHCND:US1ARSH0014",
      "elevationUnit": "METERS",
      "longitude": -91.624453
    },
    {
      "elevation": 132.3,
      "mindate": "2015-02-01",
      "maxdate": "2025-03-07",
      "latitude": 36.16819,
      "name": "HARDY 10.7 S, AR US",
      "datacoverage": 1,
      "id": "GHCND:US1ARSH0017",
      "elevationUnit": "METERS",
      "longitude": -91.51104
    },
    {
      "elevation": 172.8,
      "mindate": "2017-08-31",
      "maxdate": "2025-03-05",
      "latitude": 36.2407,
      "name": "ASH FLAT 1.3 NE, AR US",
      "datacoverage": 0.9995,
      "id": "GHCND:US1ARSH0019",
      "elevationUnit": "METERS",
      "longitude": -91.5922
    },
    {
      "elevation": 139.6,
      "mindate": "2022-07-19",
      "maxdate": "2024-07-21",
      "latitude": 36.106194,
      "name": "EVENING SHADE 3.4 NE, AR US",
      "datacoverage": 0.4619,
      "id": "GHCND:US1ARSH0020",
      "elevationUnit": "METERS",
      "longitude": -91.579785
    },
    {
      "elevation": 160,
      "mindate": "2009-04-01",
      "maxdate": "2012-08-15",
      "latitude": 34.740505,
      "name": "SALEM 7.7 N, AR US",
      "datacoverage": 0.9991,
      "id": "GHCND:US1ARSL0001",
      "elevationUnit": "METERS",
      "longitude": -92.550264
    },
    {
      "elevation": 228,
      "mindate": "2009-05-01",
      "maxdate": "2014-07-23",
      "latitude": 34.660697,
      "name": "HOT SPRINGS VILLAGE 1.8 E, AR US",
      "datacoverage": 0.9998,
      "id": "GHCND:US1ARSL0004",
      "elevationUnit": "METERS",
      "longitude": -92.969317
    },
    {
      "elevation": 124.4,
      "mindate": "2009-06-01",
      "maxdate": "2010-03-06",
      "latitude": 34.663,
      "name": "ALEXANDER 2.6 NNW, AR US",
      "datacoverage": 1,
      "id": "GHCND:US1ARSL0005",
      "elevationUnit": "METERS",
      "longitude": -92.464
    },
    {
      "elevation": 129.5,
      "mindate": "1998-06-01",
      "maxdate": "2013-11-07",
      "latitude": 34.70214,
      "name": "BENTON 11.4 NW, AR US",
      "datacoverage": 0.6875,
      "id": "GHCND:US1ARSL0006",
      "elevationUnit": "METERS",
      "longitude": -92.69716
    },
    {
      "elevation": 117.3,
      "mindate": "2010-11-01",
      "maxdate": "2014-01-02",
      "latitude": 34.65277778,
      "name": "ALEXANDER 2.9 WNW, AR US",
      "datacoverage": 0.9992,
      "id": "GHCND:US1ARSL0008",
      "elevationUnit": "METERS",
      "longitude": -92.48555556
    },
    {
      "elevation": 172.2,
      "mindate": "2010-12-01",
      "maxdate": "2025-03-07",
      "latitude": 34.7177,
      "name": "LITTLE ROCK 15.1 W, AR US",
      "datacoverage": 0.9688,
      "id": "GHCND:US1ARSL0009",
      "elevationUnit": "METERS",
      "longitude": -92.5521
    },
    {
      "elevation": 102.1,
      "mindate": "2011-07-01",
      "maxdate": "2015-11-07",
      "latitude": 34.63325,
      "name": "BRYANT 2.6 ENE, AR US",
      "datacoverage": 0.9995,
      "id": "GHCND:US1ARSL0010",
      "elevationUnit": "METERS",
      "longitude": -92.45368
    },
    {
      "elevation": 134.7,
      "mindate": "2012-04-01",
      "maxdate": "2012-10-17",
      "latitude": 34.626072,
      "name": "BRYANT 1.3 NW, AR US",
      "datacoverage": 0.9956,
      "id": "GHCND:US1ARSL0012",
      "elevationUnit": "METERS",
      "longitude": -92.506813
    },
    {
      "elevation": 155.8,
      "mindate": "2012-08-01",
      "maxdate": "2013-07-12",
      "latitude": 34.67355,
      "name": "ALEXANDER 7.8 WNW, AR US",
      "datacoverage": 1,
      "id": "GHCND:US1ARSL0015",
      "elevationUnit": "METERS",
      "longitude": -92.57057
    },
    {
      "elevation": 134.7,
      "mindate": "2012-10-01",
      "maxdate": "2014-05-27",
      "latitude": 34.63494,
      "name": "BENTON 4.7 NNE, AR US",
      "datacoverage": 1,
      "id": "GHCND:US1ARSL0016",
      "elevationUnit": "METERS",
      "longitude": -92.55683
    },
    {
      "elevation": 92.7,
      "mindate": "2013-08-01",
      "maxdate": "2016-04-30",
      "latitude": 34.495364,
      "name": "BENTON 6.2 SW, AR US",
      "datacoverage": 0.6563,
      "id": "GHCND:US1ARSL0021",
      "elevationUnit": "METERS",
      "longitude": -92.63894
    },
    {
      "elevation": 130.1,
      "mindate": "2014-05-01",
      "maxdate": "2021-06-18",
      "latitude": 34.536,
      "name": "BENTON 10.9 WSW, AR US",
      "datacoverage": 0.9999,
      "id": "GHCND:US1ARSL0023",
      "elevationUnit": "METERS",
      "longitude": -92.76508
    },
    {
      "elevation": 119.2,
      "mindate": "2015-04-01",
      "maxdate": "2016-07-24",
      "latitude": 34.55805,
      "name": "BAUXITE 6.5 E, AR US",
      "datacoverage": 0.998,
      "id": "GHCND:US1ARSL0027",
      "elevationUnit": "METERS",
      "longitude": -92.41119
    },
    {
      "elevation": 93.6,
      "mindate": "2015-04-01",
      "maxdate": "2016-12-04",
      "latitude": 34.55384,
      "name": "BENTON 1.8 SW, AR US",
      "datacoverage": 0.998,
      "id": "GHCND:US1ARSL0028",
      "elevationUnit": "METERS",
      "longitude": -92.60301
    },
    {
      "elevation": 136.6,
      "mindate": "2015-05-01",
      "maxdate": "2017-06-26",
      "latitude": 34.65698,
      "name": "ALEXANDER 6.5 WNW, AR US",
      "datacoverage": 0.9965,
      "id": "GHCND:US1ARSL0029",
      "elevationUnit": "METERS",
      "longitude": -92.55217
    },
    {
      "elevation": 92,
      "mindate": "2017-03-25",
      "maxdate": "2025-03-07",
      "latitude": 34.4918,
      "name": "BAUXITE 8.2 ESE, AR US",
      "datacoverage": 0.9991,
      "id": "GHCND:US1ARSL0033",
      "elevationUnit": "METERS",
      "longitude": -92.4048
    },
    {
      "elevation": 114.6,
      "mindate": "2017-07-11",
      "maxdate": "2019-04-19",
      "latitude": 34.623567,
      "name": "BRYANT 1.0 NE, AR US",
      "datacoverage": 0.7515,
      "id": "GHCND:US1ARSL0034",
      "elevationUnit": "METERS",
      "longitude": -92.48036
    },
    {
      "elevation": 106.4,
      "mindate": "2018-10-09",
      "maxdate": "2025-03-07",
      "latitude": 34.606697,
      "name": "SHANNON HILLS 2.2 ESE, AR US",
      "datacoverage": 1,
      "id": "GHCND:US1ARSL0035",
      "elevationUnit": "METERS",
      "longitude": -92.374671
    },
    {
      "elevation": 85.3,
      "mindate": "2018-11-07",
      "maxdate": "2025-03-07",
      "latitude": 34.56606,
      "name": "LITTLE ROCK 11.1 SSE, AR US",
      "datacoverage": 1,
      "id": "GHCND:US1ARSL0036",
      "elevationUnit": "METERS",
      "longitude": -92.31321
    },
    {
      "elevation": 152.1,
      "mindate": "2019-02-19",
      "maxdate": "2025-03-05",
      "latitude": 34.668958,
      "name": "ALEXANDER 4.5 NW, AR US",
      "datacoverage": 0.9998,
      "id": "GHCND:US1ARSL0037",
      "elevationUnit": "METERS",
      "longitude": -92.506904
    },
    {
      "elevation": 145.7,
      "mindate": "2020-09-01",
      "maxdate": "2021-11-11",
      "latitude": 34.597107,
      "name": "BENTON 2.2 NNE, AR US",
      "datacoverage": 1,
      "id": "GHCND:US1ARSL0038",
      "elevationUnit": "METERS",
      "longitude": -92.560174
    },
    {
      "elevation": 179.2,
      "mindate": "2020-12-01",
      "maxdate": "2023-02-24",
      "latitude": 34.658762,
      "name": "FOUNTAIN LAKE 2.6 NNE, AR US",
      "datacoverage": 0.9656,
      "id": "GHCND:US1ARSL0039",
      "elevationUnit": "METERS",
      "longitude": -92.913353
    },
    {
      "elevation": 217.6,
      "mindate": "2022-10-28",
      "maxdate": "2025-03-07",
      "latitude": 34.655875,
      "name": "HOT SPRINGS VILLAGE 1.4 ESE, AR US",
      "datacoverage": 0.9084,
      "id": "GHCND:US1ARSL0042",
      "elevationUnit": "METERS",
      "longitude": -92.978733
    },
    {
      "elevation": 178.6,
      "mindate": "2023-02-05",
      "maxdate": "2025-03-07",
      "latitude": 34.657579,
      "name": "HOT SPRINGS VILLAGE 5.0 E, AR US",
      "datacoverage": 0.9698,
      "id": "GHCND:US1ARSL0043",
      "elevationUnit": "METERS",
      "longitude": -92.913412
    },
    {
      "elevation": 152.1,
      "mindate": "2024-01-25",
      "maxdate": "2025-03-07",
      "latitude": 34.63788,
      "name": "HOT SPRINGS VILLAGE 8.6 ESE, AR US",
      "datacoverage": 1,
      "id": "GHCND:US1ARSL0044",
      "elevationUnit": "METERS",
      "longitude": -92.85187
    },
    {
      "elevation": 324.3,
      "mindate": "2010-05-01",
      "maxdate": "2015-01-21",
      "latitude": 35.982932,
      "name": "HARRIET 4.3 E, AR US",
      "datacoverage": 0.9813,
      "id": "GHCND:US1ARSR0002",
      "elevationUnit": "METERS",
      "longitude": -92.444305
    },
    {
      "elevation": 289.9,
      "mindate": "2012-07-01",
      "maxdate": "2015-07-17",
      "latitude": 35.9107279032469,
      "name": "MARSHALL 1.1 W, AR US",
      "datacoverage": 1,
      "id": "GHCND:US1ARSR0003",
      "elevationUnit": "METERS",
      "longitude": -92.6552105695009
    },
    {
      "elevation": 529.1,
      "mindate": "2013-02-01",
      "maxdate": "2014-02-02",
      "latitude": 35.721544,
      "name": "LESLIE 10.8 SW, AR US",
      "datacoverage": 1,
      "id": "GHCND:US1ARSR0006",
      "elevationUnit": "METERS",
      "longitude": -92.696447
    },
    {
      "elevation": 385,
      "mindate": "2014-03-01",
      "maxdate": "2025-03-07",
      "latitude": 36.051804,
      "name": "ST. JOE 2.7 WNW, AR US",
      "datacoverage": 0.9991,
      "id": "GHCND:US1ARSR0008",
      "elevationUnit": "METERS",
      "longitude": -92.84344
    },
    {
      "elevation": 506,
      "mindate": "2018-01-11",
      "maxdate": "2025-03-07",
      "latitude": 35.7746,
      "name": "LESLIE 6.0 SW, AR US",
      "datacoverage": 0.9891,
      "id": "GHCND:US1ARSR0009",
      "elevationUnit": "METERS",
      "longitude": -92.6387
    },
    {
      "elevation": 232.6,
      "mindate": "1998-06-01",
      "maxdate": "2023-11-08",
      "latitude": 35.864319,
      "name": "MOUNTAIN VIEW 0.4 S, AR US",
      "datacoverage": 0.9333,
      "id": "GHCND:US1ARST0002",
      "elevationUnit": "METERS",
      "longitude": -92.11065
    },
    {
      "elevation": 300.2,
      "mindate": "2012-08-01",
      "maxdate": "2017-12-30",
      "latitude": 35.8131457865238,
      "name": "MOUNTAIN VIEW 4.7 SSW, AR US",
      "datacoverage": 1,
      "id": "GHCND:US1ARST0003",
      "elevationUnit": "METERS",
      "longitude": -92.157321497798
    },
    {
      "elevation": 453.5,
      "mindate": "2012-07-01",
      "maxdate": "2013-06-17",
      "latitude": 35.814415,
      "name": "FOX 1.6 N, AR US",
      "datacoverage": 1,
      "id": "GHCND:US1ARST0004",
      "elevationUnit": "METERS",
      "longitude": -92.29868
    },
    {
      "elevation": 311.5,
      "mindate": "2012-08-01",
      "maxdate": "2014-02-02",
      "latitude": 35.8292439,
      "name": "MOUNTAIN VIEW 2.8 S, AR US",
      "datacoverage": 1,
      "id": "GHCND:US1ARST0005",
      "elevationUnit": "METERS",
      "longitude": -92.1133659
    },
    {
      "elevation": 199.9,
      "mindate": "2012-08-01",
      "maxdate": "2025-03-05",
      "latitude": 35.90342,
      "name": "MOUNTAIN VIEW 2.3 N, AR US",
      "datacoverage": 0.932,
      "id": "GHCND:US1ARST0006",
      "elevationUnit": "METERS",
      "longitude": -92.11679
    },
    {
      "mindate": "2012-07-01",
      "maxdate": "2023-11-08",
      "latitude": 35.820945,
      "name": "MOUNTAIN VIEW 5.3 SE, AR US",
      "datacoverage": 0.9565,
      "id": "GHCND:US1ARST0010",
      "longitude": -92.037771
    },
    {
      "elevation": 518.8,
      "mindate": "2012-07-01",
      "maxdate": "2022-10-31",
      "latitude": 35.867387,
      "name": "LESLIE 10.3 ENE, AR US",
      "datacoverage": 0.9578,
      "id": "GHCND:US1ARST0011",
      "elevationUnit": "METERS",
      "longitude": -92.377725
    },
    {
      "elevation": 128,
      "mindate": "2012-07-01",
      "maxdate": "2022-10-06",
      "latitude": 35.859196,
      "name": "MOUNTAIN VIEW 3.7 ESE, AR US",
      "datacoverage": 0.9468,
      "id": "GHCND:US1ARST0012",
      "elevationUnit": "METERS",
      "longitude": -92.046719
    },
    {
      "elevation": 219.5,
      "mindate": "2012-07-01",
      "maxdate": "2023-11-08",
      "latitude": 35.825841,
      "name": "PLEASANT GROVE 1.9 WNW, AR US",
      "datacoverage": 0.9577,
      "id": "GHCND:US1ARST0013",
      "elevationUnit": "METERS",
      "longitude": -91.940468
    },
    {
      "elevation": 274.6,
      "mindate": "2004-12-01",
      "maxdate": "2019-12-31",
      "latitude": 35.910968,
      "name": "TIMBO 2.8 NNE, AR US",
      "datacoverage": 0.9101,
      "id": "GHCND:US1ARST0014",
      "elevationUnit": "METERS",
      "longitude": -92.310112
    },
    {
      "elevation": 427.9,
      "mindate": "1998-06-01",
      "maxdate": "2022-11-08",
      "latitude": 35.803218,
      "name": "MOUNTAIN VIEW 6.1 SW, AR US",
      "datacoverage": 0.8607,
      "id": "GHCND:US1ARST0015",
      "elevationUnit": "METERS",
      "longitude": -92.181225
    },
    {
      "elevation": 237.1,
      "mindate": "2013-03-01",
      "maxdate": "2023-11-08",
      "latitude": 35.88234,
      "name": "MOUNTAIN VIEW 5.5 W, AR US",
      "datacoverage": 0.9566,
      "id": "GHCND:US1ARST0016",
      "elevationUnit": "METERS",
      "longitude": -92.208982
    },
    {
      "elevation": 406.6,
      "mindate": "2013-03-01",
      "maxdate": "2019-03-14",
      "latitude": 35.83742,
      "name": "MOUNTAIN VIEW 5.5 WSW, AR US",
      "datacoverage": 0.9991,
      "id": "GHCND:US1ARST0017",
      "elevationUnit": "METERS",
      "longitude": -92.201407
    },
    {
      "elevation": 216.1,
      "mindate": "2013-04-01",
      "maxdate": "2013-08-31",
      "latitude": 35.89319,
      "name": "MOUNTAIN VIEW 3.4 WNW, AR US",
      "datacoverage": 0.9947,
      "id": "GHCND:US1ARST0018",
      "elevationUnit": "METERS",
      "longitude": -92.16469
    },
    {
      "elevation": 163.4,
      "mindate": "2013-05-01",
      "maxdate": "2022-11-08",
      "latitude": 35.932394,
      "name": "MOUNTAIN VIEW 7.4 NW, AR US",
      "datacoverage": 0.9332,
      "id": "GHCND:US1ARST0020",
      "elevationUnit": "METERS",
      "longitude": -92.219174
    },
    {
      "elevation": 317.6,
      "mindate": "2013-03-01",
      "maxdate": "2016-08-01",
      "latitude": 35.833932,
      "name": "LESLIE 9.2 E, AR US",
      "datacoverage": 0.5515,
      "id": "GHCND:US1ARST0021",
      "elevationUnit": "METERS",
      "longitude": -92.391222
    },
    {
      "elevation": 237.7,
      "mindate": "2013-09-01",
      "maxdate": "2022-10-31",
      "latitude": 35.947011,
      "name": "MOUNTAIN VIEW 8.8 NW, AR US",
      "datacoverage": 0.9991,
      "id": "GHCND:US1ARST0022",
      "elevationUnit": "METERS",
      "longitude": -92.235767
    },
    {
      "elevation": 294.7,
      "mindate": "2013-09-01",
      "maxdate": "2020-01-31",
      "latitude": 35.87149,
      "name": "MOUNTAIN VIEW 13.0 W, AR US",
      "datacoverage": 0.9993,
      "id": "GHCND:US1ARST0023",
      "elevationUnit": "METERS",
      "longitude": -92.343543
    },
    {
      "elevation": 410.3,
      "mindate": "2013-09-01",
      "maxdate": "2023-11-08",
      "latitude": 35.737525,
      "name": "SHIRLEY 6.8 NNE, AR US",
      "datacoverage": 0.9489,
      "id": "GHCND:US1ARST0024",
      "elevationUnit": "METERS",
      "longitude": -92.274513
    },
    {
      "elevation": 160.3,
      "mindate": "2013-10-01",
      "maxdate": "2022-10-14",
      "latitude": 35.812102,
      "name": "MOUNTAIN VIEW 12.7 ESE, AR US",
      "datacoverage": 0.8611,
      "id": "GHCND:US1ARST0025",
      "elevationUnit": "METERS",
      "longitude": -91.895727
    },
    {
      "elevation": 395.3,
      "mindate": "2021-03-06",
      "maxdate": "2025-03-07",
      "latitude": 35.77361,
      "name": "MOUNTAIN VIEW 12.3 ESE, AR US",
      "datacoverage": 0.9791,
      "id": "GHCND:US1ARST0027",
      "elevationUnit": "METERS",
      "longitude": -91.92611
    },
    {
      "elevation": 146,
      "mindate": "2001-09-01",
      "maxdate": "2018-09-03",
      "latitude": 34.100794,
      "name": "LOCKESBURG 9.6 NNE, AR US",
      "datacoverage": 0.9995,
      "id": "GHCND:US1ARSV0002",
      "elevationUnit": "METERS",
      "longitude": -94.113559
    },
    {
      "elevation": 152.4,
      "mindate": "2014-07-20",
      "maxdate": "2017-08-12",
      "latitude": 33.893056,
      "name": "LOCKESBURG 5.4 S, AR US",
      "datacoverage": 1,
      "id": "GHCND:US1ARSV0007",
      "elevationUnit": "METERS",
      "longitude": -94.164722
    },
    {
      "elevation": 127.4,
      "mindate": "2017-04-26",
      "maxdate": "2025-03-07",
      "latitude": 34.04716,
      "name": "DE QUEEN 2.0 W, AR US",
      "datacoverage": 0.9986,
      "id": "GHCND:US1ARSV0008",
      "elevationUnit": "METERS",
      "longitude": -94.37692
    },
    {
      "elevation": 209.1,
      "mindate": "2009-12-01",
      "maxdate": "2025-03-07",
      "latitude": 35.674907,
      "name": "CLINTON 8.2 NW, AR US",
      "datacoverage": 1,
      "id": "GHCND:US1ARVB0001",
      "elevationUnit": "METERS",
      "longitude": -92.540844
    },
    {
      "elevation": 160.9,
      "mindate": "2012-05-01",
      "maxdate": "2014-07-29",
      "latitude": 35.5421548336744,
      "name": "HIGDEN 3.9 WSW, AR US",
      "datacoverage": 0.9998,
      "id": "GHCND:US1ARVB0004",
      "elevationUnit": "METERS",
      "longitude": -92.2677299380302
    },
    {
      "elevation": 521.8,
      "mindate": "2012-07-01",
      "maxdate": "2014-03-31",
      "latitude": 35.6608924865723,
      "name": "JERUSALEM 18.1 N, AR US",
      "datacoverage": 1,
      "id": "GHCND:US1ARVB0008",
      "elevationUnit": "METERS",
      "longitude": -92.7702102661133
    },
    {
      "elevation": 459.9,
      "mindate": "2012-06-01",
      "maxdate": "2017-04-11",
      "latitude": 35.7567,
      "name": "DENNARD 0.0 S, AR US",
      "datacoverage": 0.8668,
      "id": "GHCND:US1ARVB0009",
      "elevationUnit": "METERS",
      "longitude": -92.5246
    },
    {
      "elevation": 231.3,
      "mindate": "1998-06-01",
      "maxdate": "2025-03-05",
      "latitude": 35.475521,
      "name": "BEE BRANCH 5.4 ENE, AR US",
      "datacoverage": 0.9998,
      "id": "GHCND:US1ARVB0011",
      "elevationUnit": "METERS",
      "longitude": -92.30395
    },
    {
      "elevation": 155.1,
      "mindate": "2013-03-01",
      "maxdate": "2024-07-28",
      "latitude": 35.5758439,
      "name": "FAIRFIELD BAY 2.0 S, AR US",
      "datacoverage": 0.9993,
      "id": "GHCND:US1ARVB0013",
      "elevationUnit": "METERS",
      "longitude": -92.2727759
    },
    {
      "elevation": 498.7,
      "mindate": "2022-06-08",
      "maxdate": "2025-03-05",
      "latitude": 35.6325,
      "name": "CLINTON 13.0 WNW, AR US",
      "datacoverage": 0.4281,
      "id": "GHCND:US1ARVB0021",
      "elevationUnit": "METERS",
      "longitude": -92.6745
    },
    {
      "elevation": 76.8,
      "mindate": "2010-08-01",
      "maxdate": "2025-03-06",
      "latitude": 35.069327,
      "name": "BEEBE 0.4 ESE, AR US",
      "datacoverage": 0.7991,
      "id": "GHCND:US1ARWH0002",
      "elevationUnit": "METERS",
      "longitude": -91.887893
    },
    {
      "elevation": 168.6,
      "mindate": "2009-09-01",
      "maxdate": "2016-05-31",
      "latitude": 35.368052,
      "name": "BALD KNOB 4.2 N, AR US",
      "datacoverage": 0.7723,
      "id": "GHCND:US1ARWH0004",
      "elevationUnit": "METERS",
      "longitude": -91.559976
    },
    {
      "elevation": 64.9,
      "mindate": "2009-10-01",
      "maxdate": "2025-03-07",
      "latitude": 35.193747,
      "name": "SEARCY 4.1 SE, AR US",
      "datacoverage": 1,
      "id": "GHCND:US1ARWH0005",
      "elevationUnit": "METERS",
      "longitude": -91.690193
    },
    {
      "elevation": 177.1,
      "mindate": "2010-10-01",
      "maxdate": "2013-02-04",
      "latitude": 35.243889,
      "name": "ROMANCE 3.8 E, AR US",
      "datacoverage": 0.9663,
      "id": "GHCND:US1ARWH0006",
      "elevationUnit": "METERS",
      "longitude": -91.984722
    },
    {
      "elevation": 116.4,
      "mindate": "2009-11-01",
      "maxdate": "2012-05-08",
      "latitude": 35.2358512,
      "name": "SEARCY 3.6 W, AR US",
      "datacoverage": 0.8392,
      "id": "GHCND:US1ARWH0007",
      "elevationUnit": "METERS",
      "longitude": -91.7934934
    },
    {
      "elevation": 119.5,
      "mindate": "1998-06-01",
      "maxdate": "2018-11-06",
      "latitude": 35.4305000305176,
      "name": "BRADFORD 4.5 W, AR US",
      "datacoverage": 0.3919,
      "id": "GHCND:US1ARWH0009",
      "elevationUnit": "METERS",
      "longitude": -91.5356826782227
    },
    {
      "elevation": 161.2,
      "mindate": "2012-07-01",
      "maxdate": "2013-11-14",
      "latitude": 35.3780250549316,
      "name": "JUDSONIA 7.3 NNW, AR US",
      "datacoverage": 1,
      "id": "GHCND:US1ARWH0010",
      "elevationUnit": "METERS",
      "longitude": -91.6752853393555
    },
    {
      "elevation": 70.4,
      "mindate": "2012-07-01",
      "maxdate": "2017-05-21",
      "latitude": 35.125363022089,
      "name": "GRIFFITHVILLE 0.1 ENE, AR US",
      "datacoverage": 0.9331,
      "id": "GHCND:US1ARWH0011",
      "elevationUnit": "METERS",
      "longitude": -91.6432667523623
    },
    {
      "elevation": 68.6,
      "mindate": "2010-10-01",
      "maxdate": "2013-01-10",
      "latitude": 35.212768,
      "name": "SEARCY 3.8 ESE, AR US",
      "datacoverage": 0.7485,
      "id": "GHCND:US1ARWH0012",
      "elevationUnit": "METERS",
      "longitude": -91.674433
    },
    {
      "elevation": 95.7,
      "mindate": "2013-03-01",
      "maxdate": "2015-12-01",
      "latitude": 35.2447052299976,
      "name": "SEARCY 4.1 W, AR US",
      "datacoverage": 0.848,
      "id": "GHCND:US1ARWH0013",
      "elevationUnit": "METERS",
      "longitude": -91.8028850108385
    },
    {
      "elevation": 82,
      "mindate": "2013-03-01",
      "maxdate": "2013-12-03",
      "latitude": 35.25527778,
      "name": "SEARCY 2.0 ENE, AR US",
      "datacoverage": 0.9947,
      "id": "GHCND:US1ARWH0014",
      "elevationUnit": "METERS",
      "longitude": -91.69833333
    },
    {
      "elevation": 77.1,
      "mindate": "2013-04-01",
      "maxdate": "2022-05-17",
      "latitude": 35.245058,
      "name": "SEARCY 1.0 W, AR US",
      "datacoverage": 0.8609,
      "id": "GHCND:US1ARWH0016",
      "elevationUnit": "METERS",
      "longitude": -91.748031
    },
    {
      "elevation": 94.5,
      "mindate": "2022-08-30",
      "maxdate": "2024-08-17",
      "latitude": 35.27252,
      "name": "SEARCY 2.2 NNW, AR US",
      "datacoverage": 0.7706,
      "id": "GHCND:US1ARWH0028",
      "elevationUnit": "METERS",
      "longitude": -91.74646
    }
  ]
}
