{
  "metadata": {
    "resultset": {
      "offset": 76100,
      "count": 154115,
      "limit": 100
    }
  },
  "results": [
    {
      "elevation": 27.1,
      "mindate": "2018-10-25",
      "maxdate": "2023-06-15",
      "latitude": 61.188792,
      "name": "ANCHORAGE 2.1 SSW, AK US",
      "datacoverage": 0.3816,
      "id": "GHCND:US1AKAB0060",
      "elevationUnit": "METERS",
      "longitude": -149.915314
    },
    {
      "elevation": 20.1,
      "mindate": "2019-01-01",
      "maxdate": "2020-09-25",
      "latitude": 61.189801,
      "name": "ANCHORAGE 2.6 SW, AK US",
      "datacoverage": 0.5063,
      "id": "GHCND:US1AKAB0061",
      "elevationUnit": "METERS",
      "longitude": -149.949212
    },
    {
      "elevation": 206,
      "mindate": "2019-03-10",
      "maxdate": "2025-03-06",
      "latitude": 61.11375,
      "name": "ANCHORAGE 8.3 SSE, AK US",
      "datacoverage": 0.355,
      "id": "GHCND:US1AKAB0062",
      "elevationUnit": "METERS",
      "longitude": -149.77678
    },
    {
      "elevation": 102.7,
      "mindate": "2022-09-24",
      "maxdate": "2025-03-07",
      "latitude": 61.418534,
      "name": "CHUGIAK 2.4 NE, AK US",
      "datacoverage": 0.5011,
      "id": "GHCND:US1AKAB0064",
      "elevationUnit": "METERS",
      "longitude": -149.44951
    },
    {
      "elevation": 27.7,
      "mindate": "2020-07-01",
      "maxdate": "2025-02-24",
      "latitude": 61.150232,
      "name": "ANCHORAGE 5.1 SSW, AK US",
      "datacoverage": 0.8388,
      "id": "GHCND:US1AKAB0065",
      "elevationUnit": "METERS",
      "longitude": -149.959323
    },
    {
      "elevation": 67.7,
      "mindate": "2021-04-07",
      "maxdate": "2023-09-08",
      "latitude": 60.954071,
      "name": "GIRDWOOD 1.2 E, AK US",
      "datacoverage": 0.7776,
      "id": "GHCND:US1AKAB0073",
      "elevationUnit": "METERS",
      "longitude": -149.1267211
    },
    {
      "elevation": 267.3,
      "mindate": "2023-01-14",
      "maxdate": "2024-05-12",
      "latitude": 61.29385,
      "name": "EAGLE RIVER 5.9 ESE, AK US",
      "datacoverage": 0.6639,
      "id": "GHCND:US1AKAB0076",
      "elevationUnit": "METERS",
      "longitude": -149.40675
    },
    {
      "elevation": 16.5,
      "mindate": "2008-10-01",
      "maxdate": "2010-04-08",
      "latitude": 61.57999,
      "name": "ANIAK 0.4 W, AK US",
      "datacoverage": 0.8968,
      "id": "GHCND:US1AKBC0003",
      "elevationUnit": "METERS",
      "longitude": -159.55104
    },
    {
      "elevation": 62.5,
      "mindate": "2008-10-01",
      "maxdate": "2025-03-05",
      "latitude": 61.70253,
      "name": "SLEETMUTE 1.4 SSE, AK US",
      "datacoverage": 0.6936,
      "id": "GHCND:US1AKBC0004",
      "elevationUnit": "METERS",
      "longitude": -157.169917
    },
    {
      "elevation": 292.9,
      "mindate": "2009-09-01",
      "maxdate": "2010-08-30",
      "latitude": 64.9347,
      "name": "FAIRBANKS 11.3 NW, AK US",
      "datacoverage": 1,
      "id": "GHCND:US1AKFN0004",
      "elevationUnit": "METERS",
      "longitude": -148.0244
    },
    {
      "elevation": 245.1,
      "mindate": "2014-06-01",
      "maxdate": "2024-12-14",
      "latitude": 64.89326667,
      "name": "FAIRBANKS 7.2 ENE, AK US",
      "datacoverage": 0.5328,
      "id": "GHCND:US1AKFN0011",
      "elevationUnit": "METERS",
      "longitude": -147.4436333
    },
    {
      "elevation": 433.4,
      "mindate": "2015-04-01",
      "maxdate": "2022-12-07",
      "latitude": 64.9275665283203,
      "name": "FAIRBANKS 7.0 NNE, AK US",
      "datacoverage": 0.9148,
      "id": "GHCND:US1AKFN0013",
      "elevationUnit": "METERS",
      "longitude": -147.538681030273
    },
    {
      "elevation": 303.6,
      "mindate": "2015-07-01",
      "maxdate": "2024-04-13",
      "latitude": 64.9186,
      "name": "FAIRBANKS 5.7 N, AK US",
      "datacoverage": 0.9995,
      "id": "GHCND:US1AKFN0015",
      "elevationUnit": "METERS",
      "longitude": -147.6304
    },
    {
      "elevation": 133.5,
      "mindate": "2015-10-19",
      "maxdate": "2025-03-02",
      "latitude": 64.844663,
      "name": "FAIRBANKS 4.4 W, AK US",
      "datacoverage": 0.9819,
      "id": "GHCND:US1AKFN0016",
      "elevationUnit": "METERS",
      "longitude": -147.797308
    },
    {
      "elevation": 309.7,
      "mindate": "2018-08-01",
      "maxdate": "2022-01-17",
      "latitude": 64.91119,
      "name": "FAIRBANKS 5.6 NNE, AK US",
      "datacoverage": 0.7504,
      "id": "GHCND:US1AKFN0018",
      "elevationUnit": "METERS",
      "longitude": -147.56799
    },
    {
      "elevation": 135,
      "mindate": "2020-05-18",
      "maxdate": "2021-05-22",
      "latitude": 64.85771,
      "name": "FAIRBANKS 2.8 WNW, AK US",
      "datacoverage": 0.998,
      "id": "GHCND:US1AKFN0030",
      "elevationUnit": "METERS",
      "longitude": -147.72927
    },
    {
      "elevation": 457.8,
      "mindate": "2021-08-22",
      "maxdate": "2023-09-08",
      "latitude": 64.9314,
      "name": "FAIRBANKS 7.2 NNE, AK US",
      "datacoverage": 0.8408,
      "id": "GHCND:US1AKFN0031",
      "elevationUnit": "METERS",
      "longitude": -147.5411
    },
    {
      "elevation": 138.7,
      "mindate": "2003-08-01",
      "maxdate": "2025-03-06",
      "latitude": 64.839853,
      "name": "FAIRBANKS 6.3 W, AK US",
      "datacoverage": 0.9092,
      "id": "GHCND:US1AKFN0032",
      "elevationUnit": "METERS",
      "longitude": -147.863861
    },
    {
      "elevation": 402.6,
      "mindate": "2021-01-07",
      "maxdate": "2022-10-27",
      "latitude": 64.8399,
      "name": "FAIRBANKS 12.1 W, AK US",
      "datacoverage": 0.6918,
      "id": "GHCND:US1AKFN0033",
      "elevationUnit": "METERS",
      "longitude": -148.061
    },
    {
      "elevation": 498,
      "mindate": "2022-07-15",
      "maxdate": "2025-03-05",
      "latitude": 64.92429,
      "name": "FAIRBANKS 18.9 WNW, AK US",
      "datacoverage": 0.728,
      "id": "GHCND:US1AKFN0035",
      "elevationUnit": "METERS",
      "longitude": -148.258627
    },
    {
      "elevation": 420.3,
      "mindate": "2021-11-01",
      "maxdate": "2025-03-07",
      "latitude": 64.9509,
      "name": "FAIRBANKS 18.4 WNW, AK US",
      "datacoverage": 0.9171,
      "id": "GHCND:US1AKFN0038",
      "elevationUnit": "METERS",
      "longitude": -148.2157
    },
    {
      "elevation": 731.5,
      "mindate": "2021-12-01",
      "maxdate": "2025-03-07",
      "latitude": 68.626617,
      "name": "ANAKTUVUK PASS 63.8 NE, AK US",
      "datacoverage": 1,
      "id": "GHCND:US1AKFN0039",
      "elevationUnit": "METERS",
      "longitude": -149.59452
    },
    {
      "elevation": 379.5,
      "mindate": "2023-11-06",
      "maxdate": "2025-02-26",
      "latitude": 64.917251,
      "name": "FOX 3.8 SW, AK US",
      "datacoverage": 0.6617,
      "id": "GHCND:US1AKFN0044",
      "elevationUnit": "METERS",
      "longitude": -147.702977
    },
    {
      "elevation": 113.1,
      "mindate": "2021-01-27",
      "maxdate": "2025-03-01",
      "latitude": 59.247309,
      "name": "HAINES 0.5 NNE, AK US",
      "datacoverage": 0.8054,
      "id": "GHCND:US1AKHB0002",
      "elevationUnit": "METERS",
      "longitude": -135.433272
    },
    {
      "elevation": 104.9,
      "mindate": "2020-04-16",
      "maxdate": "2025-03-06",
      "latitude": 59.24437,
      "name": "HAINES 0.3 N, AK US",
      "datacoverage": 0.2721,
      "id": "GHCND:US1AKHB0003",
      "elevationUnit": "METERS",
      "longitude": -135.44055
    },
    {
      "elevation": 65.2,
      "mindate": "2022-01-19",
      "maxdate": "2023-12-06",
      "latitude": 59.4545,
      "name": "MOSQUITO LAKE 5.7 SSE, AK US",
      "datacoverage": 0.7522,
      "id": "GHCND:US1AKHB0006",
      "elevationUnit": "METERS",
      "longitude": -136.02306
    },
    {
      "elevation": 17.7,
      "mindate": "2008-07-01",
      "maxdate": "2009-05-29",
      "latitude": 58.3834,
      "name": "JUNEAU 3.0 NW, US",
      "datacoverage": 1,
      "id": "GHCND:US1AKJB0002",
      "elevationUnit": "METERS",
      "longitude": -134.64527
    },
    {
      "elevation": 24.1,
      "mindate": "2008-10-01",
      "maxdate": "2012-02-29",
      "latitude": 58.402851,
      "name": "JUNEAU 2.8 NW, AK US",
      "datacoverage": 1,
      "id": "GHCND:US1AKJB0003",
      "elevationUnit": "METERS",
      "longitude": -134.591855
    },
    {
      "elevation": 47.9,
      "mindate": "2009-01-01",
      "maxdate": "2010-11-01",
      "latitude": 58.259222,
      "name": "JUNEAU 11.6 SE, AK US",
      "datacoverage": 0.6096,
      "id": "GHCND:US1AKJB0005",
      "elevationUnit": "METERS",
      "longitude": -134.320641
    },
    {
      "elevation": 6.4,
      "mindate": "2009-06-01",
      "maxdate": "2013-02-05",
      "latitude": 58.27524,
      "name": "DOUGLAS 0.1 SSE, AK US",
      "datacoverage": 0.8671,
      "id": "GHCND:US1AKJB0007",
      "elevationUnit": "METERS",
      "longitude": -134.39068
    },
    {
      "elevation": 65.5,
      "mindate": "2010-07-01",
      "maxdate": "2011-01-14",
      "latitude": 58.282801,
      "name": "JUNEAU 12.5 SW, AK US",
      "datacoverage": 1,
      "id": "GHCND:US1AKJB0009",
      "elevationUnit": "METERS",
      "longitude": -134.411541
    },
    {
      "elevation": 12.2,
      "mindate": "2010-08-01",
      "maxdate": "2011-11-03",
      "latitude": 58.3025,
      "name": "JUNEAU 11.9 WSW, AK US",
      "datacoverage": 0.999,
      "id": "GHCND:US1AKJB0010",
      "elevationUnit": "METERS",
      "longitude": -134.418
    },
    {
      "elevation": 17.7,
      "mindate": "2017-04-07",
      "maxdate": "2025-03-07",
      "latitude": 58.35684,
      "name": "JUNEAU 5.6 NW, AK US",
      "datacoverage": 0.9025,
      "id": "GHCND:US1AKJB0011",
      "elevationUnit": "METERS",
      "longitude": -134.53131
    },
    {
      "elevation": 34.7,
      "mindate": "2019-01-02",
      "maxdate": "2020-04-21",
      "latitude": 58.417178,
      "name": "JUNEAU 15.1 W, AK US",
      "datacoverage": 0.7424,
      "id": "GHCND:US1AKJB0014",
      "elevationUnit": "METERS",
      "longitude": -134.545676
    },
    {
      "elevation": 14,
      "mindate": "2021-11-09",
      "maxdate": "2024-06-23",
      "latitude": 58.43395,
      "name": "JUNEAU 15.7 NW, AK US",
      "datacoverage": 0.739,
      "id": "GHCND:US1AKJB0016",
      "elevationUnit": "METERS",
      "longitude": -134.76565
    },
    {
      "elevation": 59.1,
      "mindate": "2023-03-28",
      "maxdate": "2025-03-07",
      "latitude": 58.44102,
      "name": "JUNEAU 23.3 W, AK US",
      "datacoverage": 0.7623,
      "id": "GHCND:US1AKJB0017",
      "elevationUnit": "METERS",
      "longitude": -134.76997
    },
    {
      "elevation": 11.3,
      "mindate": "2023-08-08",
      "maxdate": "2025-01-30",
      "latitude": 58.279635,
      "name": "JUNEAU 12.2 SW, AK US",
      "datacoverage": 0.6291,
      "id": "GHCND:US1AKJB0019",
      "elevationUnit": "METERS",
      "longitude": -134.397515
    },
    {
      "elevation": 21.6,
      "mindate": "2023-08-11",
      "maxdate": "2023-12-30",
      "latitude": 58.33571,
      "name": "JUNEAU 16.5 WSW, AK US",
      "datacoverage": 0.998,
      "id": "GHCND:US1AKJB0020",
      "elevationUnit": "METERS",
      "longitude": -134.5767
    },
    {
      "elevation": 32,
      "mindate": "2008-06-01",
      "maxdate": "2011-09-30",
      "latitude": 60.4868,
      "name": "SOLDOTNA 0.6 W, AK US",
      "datacoverage": 1,
      "id": "GHCND:US1AKKP0001",
      "elevationUnit": "METERS",
      "longitude": -151.0823
    },
    {
      "elevation": 94.5,
      "mindate": "2008-10-01",
      "maxdate": "2009-12-19",
      "latitude": 60.487867,
      "name": "SOLDOTNA 11.5 E, AK US",
      "datacoverage": 0.7326,
      "id": "GHCND:US1AKKP0002",
      "elevationUnit": "METERS",
      "longitude": -150.72601
    },
    {
      "elevation": 167.9,
      "mindate": "2020-08-10",
      "maxdate": "2021-01-08",
      "latitude": 60.488099,
      "name": "COOPER LANDING 1.2 W, AK US",
      "datacoverage": 1,
      "id": "GHCND:US1AKKP0005",
      "elevationUnit": "METERS",
      "longitude": -149.825664
    },
    {
      "elevation": 29.9,
      "mindate": "2021-09-01",
      "maxdate": "2025-03-07",
      "latitude": 60.480939,
      "name": "SOLDOTNA 2.3 ESE, AK US",
      "datacoverage": 0.8964,
      "id": "GHCND:US1AKKP0006",
      "elevationUnit": "METERS",
      "longitude": -150.998581
    },
    {
      "elevation": 88.4,
      "mindate": "2022-10-01",
      "maxdate": "2025-03-07",
      "latitude": 60.494368,
      "name": "SOLDOTNA 9.5 E, AK US",
      "datacoverage": 0.9663,
      "id": "GHCND:US1AKKP0007",
      "elevationUnit": "METERS",
      "longitude": -150.784236
    },
    {
      "elevation": 92.7,
      "mindate": "2008-12-01",
      "maxdate": "2017-08-09",
      "latitude": 61.699466,
      "name": "WILLOW 3.6 SE, AK US",
      "datacoverage": 1,
      "id": "GHCND:US1AKMS0005",
      "elevationUnit": "METERS",
      "longitude": -149.989656
    },
    {
      "elevation": 22.9,
      "mindate": "2010-05-01",
      "maxdate": "2011-12-19",
      "latitude": 61.5419,
      "name": "WASILLA 3.1 SSE, AK US",
      "datacoverage": 0.998,
      "id": "GHCND:US1AKMS0010",
      "elevationUnit": "METERS",
      "longitude": -149.4133
    },
    {
      "elevation": 132.6,
      "mindate": "2011-09-30",
      "maxdate": "2022-09-23",
      "latitude": 61.61847,
      "name": "PALMER 1.7 WNW, AK US",
      "datacoverage": 0.9998,
      "id": "GHCND:US1AKMS0011",
      "elevationUnit": "METERS",
      "longitude": -149.12576
    },
    {
      "elevation": 116.7,
      "mindate": "2013-08-01",
      "maxdate": "2025-03-07",
      "latitude": 62.227249,
      "name": "TALKEETNA 7.6 S, AK US",
      "datacoverage": 1,
      "id": "GHCND:US1AKMS0012",
      "elevationUnit": "METERS",
      "longitude": -150.073073
    },
    {
      "elevation": 150.3,
      "mindate": "2017-10-18",
      "maxdate": "2025-03-06",
      "latitude": 61.6058,
      "name": "WASILLA 2.7 NW, AK US",
      "datacoverage": 0.8265,
      "id": "GHCND:US1AKMS0014",
      "elevationUnit": "METERS",
      "longitude": -149.5233
    },
    {
      "elevation": 103.9,
      "mindate": "2018-07-12",
      "maxdate": "2024-09-04",
      "latitude": 61.61624,
      "name": "MEADOW LAKES 1.0 WSW, AK US",
      "datacoverage": 0.194,
      "id": "GHCND:US1AKMS0015",
      "elevationUnit": "METERS",
      "longitude": -149.627693
    },
    {
      "elevation": 148.1,
      "mindate": "2019-07-04",
      "maxdate": "2021-07-31",
      "latitude": 62.42513,
      "name": "TALKEETNA 6.2 N, AK US",
      "datacoverage": 0.303,
      "id": "GHCND:US1AKMS0018",
      "elevationUnit": "METERS",
      "longitude": -150.12365
    },
    {
      "elevation": 111.6,
      "mindate": "2020-03-30",
      "maxdate": "2025-03-07",
      "latitude": 62.1329,
      "name": "TRAPPER CREEK 8.5 SSW, AK US",
      "datacoverage": 1,
      "id": "GHCND:US1AKMS0019",
      "elevationUnit": "METERS",
      "longitude": -150.5371
    },
    {
      "elevation": 82.9,
      "mindate": "2020-05-28",
      "maxdate": "2021-04-04",
      "latitude": 61.555,
      "name": "WASILLA 1.8 S, AK US",
      "datacoverage": 0.8878,
      "id": "GHCND:US1AKMS0020",
      "elevationUnit": "METERS",
      "longitude": -149.47
    },
    {
      "elevation": 70.7,
      "mindate": "2021-07-28",
      "maxdate": "2025-02-22",
      "latitude": 61.5573,
      "name": "PALMER 7.1 WSW, AK US",
      "datacoverage": 0.366,
      "id": "GHCND:US1AKMS0021",
      "elevationUnit": "METERS",
      "longitude": -149.3078
    },
    {
      "elevation": 314.9,
      "mindate": "2022-01-01",
      "maxdate": "2025-03-06",
      "latitude": 61.785933,
      "name": "CHICKALOON 1.7 WSW, AK US",
      "datacoverage": 0.8828,
      "id": "GHCND:US1AKMS0022",
      "elevationUnit": "METERS",
      "longitude": -148.529285
    },
    {
      "elevation": 39.3,
      "mindate": "2022-07-08",
      "maxdate": "2024-07-18",
      "latitude": 61.5678,
      "name": "PALMER 2.7 SW, AK US",
      "datacoverage": 0.9819,
      "id": "GHCND:US1AKMS0025",
      "elevationUnit": "METERS",
      "longitude": -149.1616
    },
    {
      "elevation": 129.2,
      "mindate": "2023-01-21",
      "maxdate": "2025-03-06",
      "latitude": 62.28062,
      "name": "TRAPPER CREEK 2.2 N, AK US",
      "datacoverage": 0.8376,
      "id": "GHCND:US1AKMS0026",
      "elevationUnit": "METERS",
      "longitude": -150.42229
    },
    {
      "elevation": 139.3,
      "mindate": "2024-08-19",
      "maxdate": "2025-03-07",
      "latitude": 61.627525,
      "name": "PALMER 2.6 NW, AK US",
      "datacoverage": 1,
      "id": "GHCND:US1AKMS0030",
      "elevationUnit": "METERS",
      "longitude": -149.161597
    },
    {
      "mindate": "2009-02-01",
      "maxdate": "2025-03-07",
      "latitude": 55.955264,
      "name": "EDNA BAY 1.3 E, AK US",
      "datacoverage": 1,
      "id": "GHCND:US1AKPW0001",
      "longitude": -133.61775
    },
    {
      "elevation": 110.6,
      "mindate": "2012-12-01",
      "maxdate": "2015-07-04",
      "latitude": 55.78778,
      "name": "EDNA BAY 13.8 SE, AK US",
      "datacoverage": 0.6569,
      "id": "GHCND:US1AKPW0005",
      "elevationUnit": "METERS",
      "longitude": -133.45639
    },
    {
      "elevation": 22.9,
      "mindate": "2021-03-13",
      "maxdate": "2024-08-26",
      "latitude": 55.68,
      "name": "THORNE BAY 0.6 S, AK US",
      "datacoverage": 0.3526,
      "id": "GHCND:US1AKPW0009",
      "elevationUnit": "METERS",
      "longitude": -132.518
    },
    {
      "elevation": 35.4,
      "mindate": "2023-09-20",
      "maxdate": "2025-03-07",
      "latitude": 55.11823,
      "name": "METLAKATLA 0.5 SSE, AK US",
      "datacoverage": 0.8804,
      "id": "GHCND:US1AKPW0011",
      "elevationUnit": "METERS",
      "longitude": -131.57613
    },
    {
      "elevation": 32,
      "mindate": "2023-09-26",
      "maxdate": "2025-03-06",
      "latitude": 55.046351,
      "name": "METLAKATLA 5.4 S, AK US",
      "datacoverage": 0.7841,
      "id": "GHCND:US1AKPW0013",
      "elevationUnit": "METERS",
      "longitude": -131.585692
    },
    {
      "elevation": 309.4,
      "mindate": "2022-09-15",
      "maxdate": "2023-09-19",
      "latitude": 64.141945,
      "name": "DELTA JUNCTION 6.5 NW, AK US",
      "datacoverage": 0.8919,
      "id": "GHCND:US1AKSF0005",
      "elevationUnit": "METERS",
      "longitude": -145.829066
    },
    {
      "elevation": 381.6,
      "mindate": "2023-04-25",
      "maxdate": "2025-03-05",
      "latitude": 63.96291,
      "name": "DELTA JUNCTION 9.8 SE, AK US",
      "datacoverage": 0.8574,
      "id": "GHCND:US1AKSF0006",
      "elevationUnit": "METERS",
      "longitude": -145.48059
    },
    {
      "elevation": 25,
      "mindate": "2009-07-01",
      "maxdate": "2019-12-23",
      "latitude": 59.5201,
      "name": "SKAGWAY 0.5 W, AK US",
      "datacoverage": 0.974,
      "id": "GHCND:US1AKSH0002",
      "elevationUnit": "METERS",
      "longitude": -135.3503
    },
    {
      "elevation": 16.8,
      "mindate": "2009-12-01",
      "maxdate": "2016-09-15",
      "latitude": 61.09578,
      "name": "VALDEZ 3.6 ENE, AK US",
      "datacoverage": 0.2856,
      "id": "GHCND:US1AKVC0005",
      "elevationUnit": "METERS",
      "longitude": -146.19673
    },
    {
      "elevation": 791,
      "mindate": "2015-10-31",
      "maxdate": "2025-02-17",
      "latitude": 62.939359,
      "name": "PAXSON 10.8 SSE, AK US",
      "datacoverage": 0.0733,
      "id": "GHCND:US1AKVC0006",
      "elevationUnit": "METERS",
      "longitude": -145.517247
    },
    {
      "elevation": 445.6,
      "mindate": "2022-02-04",
      "maxdate": "2024-11-14",
      "latitude": 62.113896,
      "name": "GLENNALLEN 3.2 NE, AK US",
      "datacoverage": 0.9223,
      "id": "GHCND:US1AKVC0008",
      "elevationUnit": "METERS",
      "longitude": -145.525639
    },
    {
      "mindate": "2007-09-01",
      "maxdate": "2008-02-13",
      "latitude": 61.527673,
      "name": "CHEVAK, AK US",
      "datacoverage": 1,
      "id": "GHCND:US1AKWH0003",
      "longitude": -165.578702
    },
    {
      "mindate": "2007-06-01",
      "maxdate": "2008-01-22",
      "latitude": 60.944456,
      "name": "NEWTOK, AK US",
      "datacoverage": 0.9939,
      "id": "GHCND:US1AKWH0005",
      "longitude": -164.644105
    },
    {
      "elevation": 7.9,
      "mindate": "2016-08-09",
      "maxdate": "2018-05-07",
      "latitude": 61.52285,
      "name": "HOOPER BAY 1.2 S, AK US",
      "datacoverage": 0.3658,
      "id": "GHCND:US1AKWH0012",
      "elevationUnit": "METERS",
      "longitude": -166.09814
    },
    {
      "elevation": 14.9,
      "mindate": "2010-09-01",
      "maxdate": "2020-09-30",
      "latitude": 56.813902,
      "name": "PETERSBURG 4.4 NW, AK US",
      "datacoverage": 0.3176,
      "id": "GHCND:US1AKWP0001",
      "elevationUnit": "METERS",
      "longitude": -132.95358
    },
    {
      "elevation": 23.8,
      "mindate": "2019-08-01",
      "maxdate": "2021-08-05",
      "latitude": 56.4628,
      "name": "WRANGELL 8.1 NNW, AK US",
      "datacoverage": 0.9819,
      "id": "GHCND:US1AKWP0002",
      "elevationUnit": "METERS",
      "longitude": -132.37527778
    },
    {
      "elevation": 17.1,
      "mindate": "2023-11-30",
      "maxdate": "2025-03-06",
      "latitude": 59.5370498,
      "name": "YAKUTAT 2.5 SE, AK US",
      "datacoverage": 0.7342,
      "id": "GHCND:US1AKYK0001",
      "elevationUnit": "METERS",
      "longitude": -139.7032394
    },
    {
      "elevation": 106.1,
      "mindate": "2000-07-01",
      "maxdate": "2012-10-06",
      "latitude": 32.4756,
      "name": "PRATTVILLE 1.1 NNE, AL US",
      "datacoverage": 0.7368,
      "id": "GHCND:US1ALAT0002",
      "elevationUnit": "METERS",
      "longitude": -86.4393
    },
    {
      "elevation": 95.1,
      "mindate": "2009-04-01",
      "maxdate": "2014-12-12",
      "latitude": 32.4262,
      "name": "PRATTVILLE 5.9 WSW, AL US",
      "datacoverage": 0.9996,
      "id": "GHCND:US1ALAT0010",
      "elevationUnit": "METERS",
      "longitude": -86.539
    },
    {
      "elevation": 268.2,
      "mindate": "2009-04-01",
      "maxdate": "2025-02-24",
      "latitude": 32.644383,
      "name": "DEATSVILLE 3.4 NW, AL US",
      "datacoverage": 0.9999,
      "id": "GHCND:US1ALAT0013",
      "elevationUnit": "METERS",
      "longitude": -86.430166
    },
    {
      "elevation": 100.3,
      "mindate": "2009-10-01",
      "maxdate": "2018-12-09",
      "latitude": 32.482454,
      "name": "PRATTVILLE 2.7 WNW, AL US",
      "datacoverage": 0.9488,
      "id": "GHCND:US1ALAT0014",
      "elevationUnit": "METERS",
      "longitude": -86.48538
    },
    {
      "elevation": 75.3,
      "mindate": "2022-08-30",
      "maxdate": "2024-01-09",
      "latitude": 32.4824398,
      "name": "PRATTVILLE 4.8 WNW, AL US",
      "datacoverage": 0.998,
      "id": "GHCND:US1ALAT0022",
      "elevationUnit": "METERS",
      "longitude": -86.525169
    },
    {
      "elevation": 141.1,
      "mindate": "2007-11-01",
      "maxdate": "2013-05-03",
      "latitude": 33.021195,
      "name": "WILTON 4.8 SSW, AL US",
      "datacoverage": 0.9701,
      "id": "GHCND:US1ALBB0003",
      "elevationUnit": "METERS",
      "longitude": -86.920789
    },
    {
      "elevation": 146,
      "mindate": "2007-11-01",
      "maxdate": "2011-01-14",
      "latitude": 33.019851,
      "name": "WILTON 5.0 SSW, AL US",
      "datacoverage": 0.9993,
      "id": "GHCND:US1ALBB0004",
      "elevationUnit": "METERS",
      "longitude": -86.92413
    },
    {
      "elevation": 165.8,
      "mindate": "2009-10-01",
      "maxdate": "2012-10-02",
      "latitude": 33.17715,
      "name": "WOODSTOCK 2.2 SW, AL US",
      "datacoverage": 0.9925,
      "id": "GHCND:US1ALBB0005",
      "elevationUnit": "METERS",
      "longitude": -87.16515
    },
    {
      "elevation": 139.9,
      "mindate": "2011-03-01",
      "maxdate": "2016-01-28",
      "latitude": 33.03595,
      "name": "BRIERFIELD 1.4 E, AL US",
      "datacoverage": 0.9988,
      "id": "GHCND:US1ALBB0006",
      "elevationUnit": "METERS",
      "longitude": -86.88578333
    },
    {
      "elevation": 113.7,
      "mindate": "2017-09-10",
      "maxdate": "2024-12-29",
      "latitude": 32.98781,
      "name": "CENTREVILLE 3.3 NE, AL US",
      "datacoverage": 0.1016,
      "id": "GHCND:US1ALBB0008",
      "elevationUnit": "METERS",
      "longitude": -87.088161
    },
    {
      "elevation": 171.9,
      "mindate": "2007-11-01",
      "maxdate": "2016-03-11",
      "latitude": 33.955394,
      "name": "ROSA 2.8 SW, AL US",
      "datacoverage": 0.9068,
      "id": "GHCND:US1ALBL0002",
      "elevationUnit": "METERS",
      "longitude": -86.54389
    },
    {
      "elevation": 288,
      "mindate": "2007-10-01",
      "maxdate": "2018-09-28",
      "latitude": 33.858396,
      "name": "WARRIOR 4.6 NW, AL US",
      "datacoverage": 0.9999,
      "id": "GHCND:US1ALBL0003",
      "elevationUnit": "METERS",
      "longitude": -86.867902
    },
    {
      "elevation": 326.1,
      "mindate": "2007-10-01",
      "maxdate": "2025-03-06",
      "latitude": 33.8029,
      "name": "SPRINGVILLE 5.3 WNW, AL US",
      "datacoverage": 0.9999,
      "id": "GHCND:US1ALBL0005",
      "elevationUnit": "METERS",
      "longitude": -86.5601
    },
    {
      "elevation": 215.2,
      "mindate": "2007-11-01",
      "maxdate": "2021-09-28",
      "latitude": 34.0913,
      "name": "BLOUNTSVILLE 1.3 NW, AL US",
      "datacoverage": 1,
      "id": "GHCND:US1ALBL0006",
      "elevationUnit": "METERS",
      "longitude": -86.6066
    },
    {
      "elevation": 392.9,
      "mindate": "2007-11-01",
      "maxdate": "2015-06-04",
      "latitude": 33.852654,
      "name": "SPRINGVILLE 6.7 NE, AL US",
      "datacoverage": 1,
      "id": "GHCND:US1ALBL0007",
      "elevationUnit": "METERS",
      "longitude": -86.408117
    },
    {
      "elevation": 146,
      "mindate": "2007-11-01",
      "maxdate": "2009-03-26",
      "latitude": 33.94,
      "name": "CLEVELAND 5.1 SW, AL US",
      "datacoverage": 0.942,
      "id": "GHCND:US1ALBL0008",
      "elevationUnit": "METERS",
      "longitude": -86.63
    },
    {
      "elevation": 282.9,
      "mindate": "2007-12-01",
      "maxdate": "2025-03-07",
      "latitude": 33.94163,
      "name": "ONEONTA 0.9 SE, AL US",
      "datacoverage": 0.9999,
      "id": "GHCND:US1ALBL0009",
      "elevationUnit": "METERS",
      "longitude": -86.45551
    },
    {
      "elevation": 239.6,
      "mindate": "2009-02-01",
      "maxdate": "2010-05-03",
      "latitude": 34.185474,
      "name": "BLOUNTSVILLE 10.8 NE, AL US",
      "datacoverage": 0.7958,
      "id": "GHCND:US1ALBL0011",
      "elevationUnit": "METERS",
      "longitude": -86.450967
    },
    {
      "elevation": 419.4,
      "mindate": "2010-04-01",
      "maxdate": "2025-03-05",
      "latitude": 33.9153,
      "name": "ONEONTA 7.5 ESE, AL US",
      "datacoverage": 0.9998,
      "id": "GHCND:US1ALBL0013",
      "elevationUnit": "METERS",
      "longitude": -86.3464
    },
    {
      "elevation": 150.9,
      "mindate": "2011-01-01",
      "maxdate": "2012-08-23",
      "latitude": 33.848142,
      "name": "EMPIRE 4.7 NE, AL US",
      "datacoverage": 0.9996,
      "id": "GHCND:US1ALBL0015",
      "elevationUnit": "METERS",
      "longitude": -86.945151
    },
    {
      "elevation": 152.4,
      "mindate": "2012-05-03",
      "maxdate": "2018-09-14",
      "latitude": 33.890194,
      "name": "HAYDEN 0.4 SSW, AL US",
      "datacoverage": 0.0847,
      "id": "GHCND:US1ALBL0016",
      "elevationUnit": "METERS",
      "longitude": -86.756689
    },
    {
      "elevation": 166.4,
      "mindate": "2011-12-01",
      "maxdate": "2025-03-05",
      "latitude": 33.871304,
      "name": "WARRIOR 5.1 NE, AL US",
      "datacoverage": 0.6345,
      "id": "GHCND:US1ALBL0018",
      "elevationUnit": "METERS",
      "longitude": -86.751849
    },
    {
      "elevation": 245.7,
      "mindate": "2014-01-01",
      "maxdate": "2016-12-12",
      "latitude": 34.075183,
      "name": "BLOUNTSVILLE 1.9 ESE, AL US",
      "datacoverage": 1,
      "id": "GHCND:US1ALBL0020",
      "elevationUnit": "METERS",
      "longitude": -86.556333
    },
    {
      "elevation": 297.2,
      "mindate": "2015-01-01",
      "maxdate": "2022-01-01",
      "latitude": 34.230519,
      "name": "ARAB 7.0 S, AL US",
      "datacoverage": 1,
      "id": "GHCND:US1ALBL0021",
      "elevationUnit": "METERS",
      "longitude": -86.479161
    },
    {
      "elevation": 283.5,
      "mindate": "2018-07-14",
      "maxdate": "2019-04-11",
      "latitude": 34.1404,
      "name": "BLOUNTSVILLE 4.8 NNE, AL US",
      "datacoverage": 0.998,
      "id": "GHCND:US1ALBL0023",
      "elevationUnit": "METERS",
      "longitude": -86.5467
    },
    {
      "elevation": 184.7,
      "mindate": "2022-05-28",
      "maxdate": "2025-03-07",
      "latitude": 33.863137,
      "name": "ONEONTA 7.6 SW, AL US",
      "datacoverage": 1,
      "id": "GHCND:US1ALBL0026",
      "elevationUnit": "METERS",
      "longitude": -86.549107
    }
  ]
}
