{
  "metadata": {
    "resultset": {
      "offset": 38400,
      "count": 154115,
      "limit": 100
    }
  },
  "results": [
    {
      "elevation": 141,
      "mindate": "2003-07-01",
      "maxdate": "2024-12-31",
      "latitude": -40.98,
      "name": "MOORLEAH, AS",
      "datacoverage": 0.9726,
      "id": "GHCND:ASN00091335",
      "elevationUnit": "METERS",
      "longitude": 145.6225
    },
    {
      "elevation": 292,
      "mindate": "2003-07-01",
      "maxdate": "2006-12-31",
      "latitude": -41.3936,
      "name": "STOODLEY, AS",
      "datacoverage": 0.975,
      "id": "GHCND:ASN00091336",
      "elevationUnit": "METERS",
      "longitude": 146.4203
    },
    {
      "elevation": 167,
      "mindate": "2003-07-01",
      "maxdate": "2016-11-08",
      "latitude": -41.5689,
      "name": "OAKS GLENBURN, AS",
      "datacoverage": 0.8551,
      "id": "GHCND:ASN00091337",
      "elevationUnit": "METERS",
      "longitude": 146.9733
    },
    {
      "elevation": 1180,
      "mindate": "2004-05-01",
      "maxdate": "2025-02-27",
      "latitude": -41.2767,
      "name": "MOUNT ARTHUR SUMMIT, AS",
      "datacoverage": 0.7958,
      "id": "GHCND:ASN00091338",
      "elevationUnit": "METERS",
      "longitude": 147.29
    },
    {
      "elevation": 202,
      "mindate": "2002-08-01",
      "maxdate": "2005-04-30",
      "latitude": -41.0597,
      "name": "TROWUTTA SCOTTS ROAD, AS",
      "datacoverage": 1,
      "id": "GHCND:ASN00091339",
      "elevationUnit": "METERS",
      "longitude": 145.0667
    },
    {
      "elevation": 126,
      "mindate": "2003-08-01",
      "maxdate": "2025-01-31",
      "latitude": -41.3592,
      "name": "GRINDELWALD, AS",
      "datacoverage": 0.9765,
      "id": "GHCND:ASN00091340",
      "elevationUnit": "METERS",
      "longitude": 147.01
    },
    {
      "elevation": 125,
      "mindate": "2003-08-01",
      "maxdate": "2025-01-20",
      "latitude": -41.3428,
      "name": "GLENGARRY HUNDRED ACRE WOOD, AS",
      "datacoverage": 0.9998,
      "id": "GHCND:ASN00091341",
      "elevationUnit": "METERS",
      "longitude": 146.8964
    },
    {
      "elevation": 166,
      "mindate": "2003-05-01",
      "maxdate": "2007-12-31",
      "latitude": -41.2142,
      "name": "SPRINGFIELD, AS",
      "datacoverage": 0.8385,
      "id": "GHCND:ASN00091342",
      "elevationUnit": "METERS",
      "longitude": 147.49
    },
    {
      "elevation": 192,
      "mindate": "2004-10-01",
      "maxdate": "2024-12-27",
      "latitude": -41.5944,
      "name": "CLUAN, AS",
      "datacoverage": 0.8572,
      "id": "GHCND:ASN00091343",
      "elevationUnit": "METERS",
      "longitude": 146.8469
    },
    {
      "elevation": 21,
      "mindate": "2004-12-01",
      "maxdate": "2012-09-30",
      "latitude": -41.0558,
      "name": "ARTHUR RIVER GARDINER STREET, AS",
      "datacoverage": 1,
      "id": "GHCND:ASN00091345",
      "elevationUnit": "METERS",
      "longitude": 144.6653
    },
    {
      "elevation": 150,
      "mindate": "2005-07-01",
      "maxdate": "2025-01-06",
      "latitude": -41.2336,
      "name": "LILYDALE TORWOOD, AS",
      "datacoverage": 0.9922,
      "id": "GHCND:ASN00091346",
      "elevationUnit": "METERS",
      "longitude": 147.2064
    },
    {
      "elevation": 239,
      "mindate": "2005-11-01",
      "maxdate": "2024-04-02",
      "latitude": -41.3736,
      "name": "SHEFFIELD AVONDALE, AS",
      "datacoverage": 0.7306,
      "id": "GHCND:ASN00091347",
      "elevationUnit": "METERS",
      "longitude": 146.3117
    },
    {
      "elevation": 70,
      "mindate": "2006-06-01",
      "maxdate": "2025-02-27",
      "latitude": -41.1131,
      "name": "PIPERS RIVER BAY OF FIRES, AS",
      "datacoverage": 0.9993,
      "id": "GHCND:ASN00091348",
      "elevationUnit": "METERS",
      "longitude": 147.0967
    },
    {
      "elevation": 5,
      "mindate": "2006-09-01",
      "maxdate": "2022-12-12",
      "latitude": -41.1494,
      "name": "PORT SORELL NARAWNTAPU NATION, AS",
      "datacoverage": 0.9994,
      "id": "GHCND:ASN00091349",
      "elevationUnit": "METERS",
      "longitude": 146.6033
    },
    {
      "elevation": 345,
      "mindate": "2006-09-01",
      "maxdate": "2025-01-31",
      "latitude": -41.2425,
      "name": "SOUTH RIANA JANSENS ROAD, AS",
      "datacoverage": 0.9086,
      "id": "GHCND:ASN00091350",
      "elevationUnit": "METERS",
      "longitude": 145.9883
    },
    {
      "elevation": 217,
      "mindate": "2007-03-01",
      "maxdate": "2025-02-23",
      "latitude": -41.3753,
      "name": "GLENGARRY GINNS ROAD, AS",
      "datacoverage": 0.9993,
      "id": "GHCND:ASN00091351",
      "elevationUnit": "METERS",
      "longitude": 146.8169
    },
    {
      "elevation": 87,
      "mindate": "2005-12-01",
      "maxdate": "2007-09-04",
      "latitude": -40.6828,
      "name": "CAPE GRIM COMPARISON, AS",
      "datacoverage": 1,
      "id": "GHCND:ASN00091438",
      "elevationUnit": "METERS",
      "longitude": 144.6897
    },
    {
      "elevation": 610,
      "mindate": "1931-08-01",
      "maxdate": "1982-07-31",
      "latitude": -41.6667,
      "name": "ROSSARDEN ABERFOYLE, AS",
      "datacoverage": 0.9902,
      "id": "GHCND:ASN00092000",
      "elevationUnit": "METERS",
      "longitude": 147.75
    },
    {
      "elevation": 10,
      "mindate": "1750-03-13",
      "maxdate": "2025-01-31",
      "latitude": -41.9525,
      "name": "APSLAWN, AS",
      "datacoverage": 0.7838,
      "id": "GHCND:ASN00092001",
      "elevationUnit": "METERS",
      "longitude": 148.1839
    },
    {
      "elevation": 205,
      "mindate": "1888-10-01",
      "maxdate": "2022-05-31",
      "latitude": -41.7792,
      "name": "AVOCA RAILWAY HOUSE, AS",
      "datacoverage": 0.8534,
      "id": "GHCND:ASN00092002",
      "elevationUnit": "METERS",
      "longitude": 147.7225
    },
    {
      "elevation": 11,
      "mindate": "1750-03-09",
      "maxdate": "2025-02-27",
      "latitude": -41.8739,
      "name": "BICHENO COUNCIL DEPOT, AS",
      "datacoverage": 0.9075,
      "id": "GHCND:ASN00092003",
      "elevationUnit": "METERS",
      "longitude": 148.3036
    },
    {
      "mindate": "1916-12-01",
      "maxdate": "1965-10-31",
      "latitude": -41.45,
      "name": "BLESSINGTON UPPER, AS",
      "datacoverage": 0.937,
      "id": "GHCND:ASN00092004",
      "longitude": 147.6
    },
    {
      "elevation": 115,
      "mindate": "1918-06-01",
      "maxdate": "2024-01-22",
      "latitude": -42.8122,
      "name": "BREAM CREEK STROUD, AS",
      "datacoverage": 0.9552,
      "id": "GHCND:ASN00092005",
      "elevationUnit": "METERS",
      "longitude": 147.8289
    },
    {
      "elevation": 58,
      "mindate": "1909-01-01",
      "maxdate": "2020-03-31",
      "latitude": -42.5847,
      "name": "BUCKLAND BROCKLEY, AS",
      "datacoverage": 0.9977,
      "id": "GHCND:ASN00092006",
      "elevationUnit": "METERS",
      "longitude": 147.7908
    },
    {
      "elevation": 10,
      "mindate": "1912-11-01",
      "maxdate": "2016-07-22",
      "latitude": -41.6711,
      "name": "CHAIN OF LAGOONS, AS",
      "datacoverage": 0.5428,
      "id": "GHCND:ASN00092007",
      "elevationUnit": "METERS",
      "longitude": 148.2842
    },
    {
      "elevation": 17,
      "mindate": "1750-05-02",
      "maxdate": "2024-05-10",
      "latitude": -42.0117,
      "name": "CRANBROOK CRANBROOK HOUSE, AS",
      "datacoverage": 0.936,
      "id": "GHCND:ASN00092008",
      "elevationUnit": "METERS",
      "longitude": 148.0747
    },
    {
      "elevation": 243.2,
      "mindate": "1896-01-01",
      "maxdate": "2018-05-12",
      "latitude": -41.5886,
      "name": "ST MARYS CULLENSWOOD, AS",
      "datacoverage": 0.9327,
      "id": "GHCND:ASN00092009",
      "elevationUnit": "METERS",
      "longitude": 148.1338
    },
    {
      "elevation": 23,
      "mindate": "1750-03-14",
      "maxdate": "2025-01-31",
      "latitude": -42.5844,
      "name": "MARIA ISLAND DARLINGTON, AS",
      "datacoverage": 0.9159,
      "id": "GHCND:ASN00092010",
      "elevationUnit": "METERS",
      "longitude": 148.0636
    },
    {
      "elevation": 61,
      "mindate": "1750-03-14",
      "maxdate": "2025-01-31",
      "latitude": -40.9589,
      "name": "GLADSTONE OLD POST OFFICE, AS",
      "datacoverage": 0.7601,
      "id": "GHCND:ASN00092011",
      "elevationUnit": "METERS",
      "longitude": 148.0086
    },
    {
      "elevation": 237,
      "mindate": "1888-10-01",
      "maxdate": "2021-11-30",
      "latitude": -41.6428,
      "name": "FINGAL LEGGE STREET, AS",
      "datacoverage": 0.9189,
      "id": "GHCND:ASN00092012",
      "elevationUnit": "METERS",
      "longitude": 147.9664
    },
    {
      "elevation": 180,
      "mindate": "1912-11-01",
      "maxdate": "2008-11-30",
      "latitude": -41.1328,
      "name": "MOORINA FROME DAM, AS",
      "datacoverage": 0.9532,
      "id": "GHCND:ASN00092013",
      "elevationUnit": "METERS",
      "longitude": 147.9092
    },
    {
      "elevation": 491,
      "mindate": "1750-03-14",
      "maxdate": "2025-01-31",
      "latitude": -41.5308,
      "name": "GERMAN TOWN, AS",
      "datacoverage": 0.662,
      "id": "GHCND:ASN00092014",
      "elevationUnit": "METERS",
      "longitude": 148.1969
    },
    {
      "elevation": 326,
      "mindate": "1999-01-01",
      "maxdate": "2010-10-31",
      "latitude": -41.6358,
      "name": "GRAY BLUEBERRY COTTAGE, AS",
      "datacoverage": 0.9648,
      "id": "GHCND:ASN00092015",
      "elevationUnit": "METERS",
      "longitude": 148.2319
    },
    {
      "elevation": 183,
      "mindate": "1885-12-01",
      "maxdate": "1964-04-30",
      "latitude": -41.25,
      "name": "GOULDS COUNTRY POST OFFICE, AS",
      "datacoverage": 0.8934,
      "id": "GHCND:ASN00092016",
      "elevationUnit": "METERS",
      "longitude": 148.05
    },
    {
      "elevation": 123,
      "mindate": "1750-03-14",
      "maxdate": "2025-01-31",
      "latitude": -42.7856,
      "name": "KELLEVIE, AS",
      "datacoverage": 0.7821,
      "id": "GHCND:ASN00092017",
      "elevationUnit": "METERS",
      "longitude": 147.8086
    },
    {
      "elevation": 6,
      "mindate": "1914-01-01",
      "maxdate": "2016-10-31",
      "latitude": -42.1994,
      "name": "SWANSEA KELVEDON, AS",
      "datacoverage": 0.9894,
      "id": "GHCND:ASN00092018",
      "elevationUnit": "METERS",
      "longitude": 148.0442
    },
    {
      "elevation": 575,
      "mindate": "1890-01-01",
      "maxdate": "2022-09-04",
      "latitude": -42.0067,
      "name": "LAKE LEAKE ELIZABETH RIVER, AS",
      "datacoverage": 0.9194,
      "id": "GHCND:ASN00092019",
      "elevationUnit": "METERS",
      "longitude": 147.7975
    },
    {
      "elevation": 229.1,
      "mindate": "1750-03-14",
      "maxdate": "2025-02-27",
      "latitude": -41.82,
      "name": "LEWIS HILL ST PAULS RIVER, AS",
      "datacoverage": 0.9942,
      "id": "GHCND:ASN00092020",
      "elevationUnit": "METERS",
      "longitude": 147.9551
    },
    {
      "elevation": 10,
      "mindate": "1912-11-01",
      "maxdate": "2013-12-31",
      "latitude": -42.2889,
      "name": "LITTLE SWANPORT LISDILLON, AS",
      "datacoverage": 0.9473,
      "id": "GHCND:ASN00092021",
      "elevationUnit": "METERS",
      "longitude": 148.0006
    },
    {
      "elevation": 274.3,
      "mindate": "1904-01-01",
      "maxdate": "1950-12-31",
      "latitude": -41.2,
      "name": "LOTTAH, AS",
      "datacoverage": 0.8333,
      "id": "GHCND:ASN00092022",
      "elevationUnit": "METERS",
      "longitude": 148
    },
    {
      "elevation": 270,
      "mindate": "1916-09-01",
      "maxdate": "1975-03-31",
      "latitude": -41.6,
      "name": "MANGANA, AS",
      "datacoverage": 0.5996,
      "id": "GHCND:ASN00092023",
      "elevationUnit": "METERS",
      "longitude": 147.8667
    },
    {
      "elevation": 285,
      "mindate": "1889-09-01",
      "maxdate": "2023-02-28",
      "latitude": -41.4703,
      "name": "MATHINNA FINGAL ROAD, AS",
      "datacoverage": 0.8328,
      "id": "GHCND:ASN00092024",
      "elevationUnit": "METERS",
      "longitude": 147.8919
    },
    {
      "mindate": "1937-09-01",
      "maxdate": "1962-06-30",
      "latitude": -41,
      "name": "MOUNT CAMERON SOUTH, AS",
      "datacoverage": 0.9934,
      "id": "GHCND:ASN00092025",
      "longitude": 147.95
    },
    {
      "elevation": 320,
      "mindate": "1916-11-01",
      "maxdate": "1981-12-31",
      "latitude": -42.7167,
      "name": "NUGENT, AS",
      "datacoverage": 0.9527,
      "id": "GHCND:ASN00092026",
      "elevationUnit": "METERS",
      "longitude": 147.75
    },
    {
      "elevation": 14,
      "mindate": "1951-01-01",
      "maxdate": "2023-09-25",
      "latitude": -42.5519,
      "name": "ORFORD AUBIN COURT, AS",
      "datacoverage": 0.9694,
      "id": "GHCND:ASN00092027",
      "elevationUnit": "METERS",
      "longitude": 147.8753
    },
    {
      "elevation": 40,
      "mindate": "1750-03-22",
      "maxdate": "2025-01-31",
      "latitude": -42.5853,
      "name": "ORFORD SOUTH, AS",
      "datacoverage": 0.9303,
      "id": "GHCND:ASN00092028",
      "elevationUnit": "METERS",
      "longitude": 147.9142
    },
    {
      "elevation": 220,
      "mindate": "1750-07-03",
      "maxdate": "2024-10-19",
      "latitude": -41.7214,
      "name": "ORMLEY, AS",
      "datacoverage": 0.8659,
      "id": "GHCND:ASN00092029",
      "elevationUnit": "METERS",
      "longitude": 147.8233
    },
    {
      "elevation": 120,
      "mindate": "1750-03-14",
      "maxdate": "2025-02-23",
      "latitude": -41.0825,
      "name": "PIONEER MAIN ROAD, AS",
      "datacoverage": 0.9577,
      "id": "GHCND:ASN00092030",
      "elevationUnit": "METERS",
      "longitude": 147.9353
    },
    {
      "elevation": 15,
      "mindate": "1942-09-01",
      "maxdate": "2017-12-31",
      "latitude": -42.3619,
      "name": "RAVENSDALE, AS",
      "datacoverage": 0.8865,
      "id": "GHCND:ASN00092031",
      "elevationUnit": "METERS",
      "longitude": 147.9397
    },
    {
      "elevation": 20,
      "mindate": "1920-01-01",
      "maxdate": "1984-12-31",
      "latitude": -42.6333,
      "name": "ORFORD RHEBAN",
      "datacoverage": 0.5666,
      "id": "GHCND:ASN00092032",
      "elevationUnit": "METERS",
      "longitude": 147.9333
    },
    {
      "elevation": 5,
      "mindate": "1890-04-01",
      "maxdate": "2004-11-30",
      "latitude": -41.3225,
      "name": "ST HELENS POST OFFICE, AS",
      "datacoverage": 0.9137,
      "id": "GHCND:ASN00092033",
      "elevationUnit": "METERS",
      "longitude": 148.2489
    },
    {
      "elevation": 258,
      "mindate": "1907-01-01",
      "maxdate": "2011-08-08",
      "latitude": -41.5817,
      "name": "ST MARYS CLIVE STREET, AS",
      "datacoverage": 0.9865,
      "id": "GHCND:ASN00092034",
      "elevationUnit": "METERS",
      "longitude": 148.1825
    },
    {
      "elevation": 15.2,
      "mindate": "1934-04-01",
      "maxdate": "1975-01-31",
      "latitude": -41.45,
      "name": "UPPER SCAMANDER, AS",
      "datacoverage": 0.9938,
      "id": "GHCND:ASN00092035",
      "elevationUnit": "METERS",
      "longitude": 148.2
    },
    {
      "elevation": 300,
      "mindate": "1921-11-01",
      "maxdate": "1984-02-29",
      "latitude": -42.3833,
      "name": "STONEHENGE, AS",
      "datacoverage": 0.7313,
      "id": "GHCND:ASN00092036",
      "elevationUnit": "METERS",
      "longitude": 147.6
    },
    {
      "elevation": 11,
      "mindate": "1878-01-01",
      "maxdate": "2004-10-24",
      "latitude": -40.7314,
      "name": "SWAN ISLAND LIGHTHOUSE, AS",
      "datacoverage": 0.9889,
      "id": "GHCND:ASN00092037",
      "elevationUnit": "METERS",
      "longitude": 148.1253
    },
    {
      "elevation": 6,
      "mindate": "1885-12-01",
      "maxdate": "2011-04-07",
      "latitude": -42.1236,
      "name": "SWANSEA POST OFFICE, AS",
      "datacoverage": 0.9339,
      "id": "GHCND:ASN00092038",
      "elevationUnit": "METERS",
      "longitude": 148.0731
    },
    {
      "elevation": 12.2,
      "mindate": "1932-05-01",
      "maxdate": "1953-11-30",
      "latitude": -42.1,
      "name": "SWANWICK, AS",
      "datacoverage": 0.888,
      "id": "GHCND:ASN00092039",
      "elevationUnit": "METERS",
      "longitude": 148.3
    },
    {
      "elevation": 8,
      "mindate": "1962-04-01",
      "maxdate": "2022-09-30",
      "latitude": -42.0692,
      "name": "SWANSEA BELMONT, AS",
      "datacoverage": 0.5675,
      "id": "GHCND:ASN00092040",
      "elevationUnit": "METERS",
      "longitude": 148.0678
    },
    {
      "elevation": 20,
      "mindate": "1931-11-01",
      "maxdate": "1993-09-30",
      "latitude": -42.0467,
      "name": "SWANSEA THE GRANGE, AS",
      "datacoverage": 0.9041,
      "id": "GHCND:ASN00092041",
      "elevationUnit": "METERS",
      "longitude": 148.06
    },
    {
      "elevation": 427,
      "mindate": "1909-04-01",
      "maxdate": "1984-12-31",
      "latitude": -41.5333,
      "name": "TOWER HILL, AS",
      "datacoverage": 0.9857,
      "id": "GHCND:ASN00092042",
      "elevationUnit": "METERS",
      "longitude": 147.8667
    },
    {
      "elevation": 8,
      "mindate": "1900-08-01",
      "maxdate": "1985-11-30",
      "latitude": -42.5111,
      "name": "TRIABUNNA 3 BOYLE STREET, AS",
      "datacoverage": 0.9376,
      "id": "GHCND:ASN00092043",
      "elevationUnit": "METERS",
      "longitude": 147.9192
    },
    {
      "elevation": 55,
      "mindate": "1999-01-01",
      "maxdate": "2020-05-31",
      "latitude": -41.9317,
      "name": "CRANBROOK WATERS MEETING, AS",
      "datacoverage": 0.6661,
      "id": "GHCND:ASN00092044",
      "elevationUnit": "METERS",
      "longitude": 148.0736
    },
    {
      "elevation": 19.7,
      "mindate": "1750-03-09",
      "maxdate": "2025-03-06",
      "latitude": -40.9928,
      "name": "EDDYSTONE POINT, AS",
      "datacoverage": 1,
      "id": "GHCND:ASN00092045",
      "elevationUnit": "METERS",
      "longitude": 148.3467
    },
    {
      "elevation": 830,
      "mindate": "1954-03-01",
      "maxdate": "1955-12-31",
      "latitude": -41.4667,
      "name": "ROSES TIER, AS",
      "datacoverage": 1,
      "id": "GHCND:ASN00092046",
      "elevationUnit": "METERS",
      "longitude": 147.6667
    },
    {
      "elevation": 375,
      "mindate": "1750-03-29",
      "maxdate": "2024-08-29",
      "latitude": -42.2708,
      "name": "STONEHOUSE, AS",
      "datacoverage": 0.9968,
      "id": "GHCND:ASN00092047",
      "elevationUnit": "METERS",
      "longitude": 147.6942
    },
    {
      "elevation": 55,
      "mindate": "1953-11-01",
      "maxdate": "2023-01-31",
      "latitude": -41.0228,
      "name": "SOUTH MOUNT CAMERON GLADSTONE, AS",
      "datacoverage": 0.9302,
      "id": "GHCND:ASN00092048",
      "elevationUnit": "METERS",
      "longitude": 147.9583
    },
    {
      "mindate": "1920-01-01",
      "maxdate": "1941-11-30",
      "latitude": -42.5667,
      "name": "ORFORD CENTRAL, AS",
      "datacoverage": 0.8023,
      "id": "GHCND:ASN00092049",
      "longitude": 147.9
    },
    {
      "elevation": 170,
      "mindate": "1750-03-14",
      "maxdate": "2025-02-23",
      "latitude": -41.27,
      "name": "PYENGANA FOREST LODGE ROAD, AS",
      "datacoverage": 1,
      "id": "GHCND:ASN00092051",
      "elevationUnit": "METERS",
      "longitude": 147.9492
    },
    {
      "elevation": 320,
      "mindate": "1962-08-01",
      "maxdate": "2008-04-17",
      "latitude": -41.6231,
      "name": "GRAY CRAIGIE LEA, AS",
      "datacoverage": 0.9993,
      "id": "GHCND:ASN00092052",
      "elevationUnit": "METERS",
      "longitude": 148.2208
    },
    {
      "elevation": 20,
      "mindate": "1750-03-21",
      "maxdate": "2024-12-29",
      "latitude": -42.1267,
      "name": "COLES BAY FREYCINET",
      "datacoverage": 0.9274,
      "id": "GHCND:ASN00092053",
      "elevationUnit": "METERS",
      "longitude": 148.2967
    },
    {
      "elevation": 19,
      "mindate": "1950-05-01",
      "maxdate": "2025-01-31",
      "latitude": -41.7822,
      "name": "DOUGLAS RIVER, AS",
      "datacoverage": 0.4441,
      "id": "GHCND:ASN00092054",
      "elevationUnit": "METERS",
      "longitude": 148.2525
    },
    {
      "elevation": 4.6,
      "mindate": "1963-02-01",
      "maxdate": "1965-03-24",
      "latitude": -42.55,
      "name": "ORFORD BLUE WATERS MOTEL, AS",
      "datacoverage": 1,
      "id": "GHCND:ASN00092055",
      "elevationUnit": "METERS",
      "longitude": 147.8833
    },
    {
      "mindate": "1912-11-01",
      "maxdate": "1929-12-31",
      "latitude": -41.2,
      "name": "BLUE TIER MOUNT INTAKE, AS",
      "datacoverage": 0.9952,
      "id": "GHCND:ASN00092056",
      "longitude": 148
    },
    {
      "elevation": 220,
      "mindate": "1885-12-01",
      "maxdate": "1977-02-28",
      "latitude": -41.5833,
      "name": "BREAK O DAY RIVER KILLYMOON, AS",
      "datacoverage": 0.8229,
      "id": "GHCND:ASN00092057",
      "elevationUnit": "METERS",
      "longitude": 148.0667
    },
    {
      "mindate": "1909-06-01",
      "maxdate": "1920-12-31",
      "latitude": -42.6,
      "name": "BUCKLAND, AS",
      "datacoverage": 0.9997,
      "id": "GHCND:ASN00092058",
      "longitude": 147.7
    },
    {
      "mindate": "1921-06-01",
      "maxdate": "1933-02-28",
      "latitude": -42.25,
      "name": "ROSS TOOMS LAKE, AS",
      "datacoverage": 0.986,
      "id": "GHCND:ASN00092059",
      "longitude": 147.7
    },
    {
      "elevation": 4,
      "mindate": "1884-05-01",
      "maxdate": "2004-04-30",
      "latitude": -40.8828,
      "name": "BOOBYALLA, AS",
      "datacoverage": 0.4792,
      "id": "GHCND:ASN00092060",
      "elevationUnit": "METERS",
      "longitude": 147.8817
    },
    {
      "mindate": "1925-08-01",
      "maxdate": "1932-12-31",
      "latitude": -42.3,
      "name": "SCHOUTEN ISLAND, AS",
      "datacoverage": 0.9998,
      "id": "GHCND:ASN00092061",
      "longitude": 148.3
    },
    {
      "elevation": 9.1,
      "mindate": "1904-05-01",
      "maxdate": "1931-11-30",
      "latitude": -42.1,
      "name": "RIVERSDALE",
      "datacoverage": 0.9033,
      "id": "GHCND:ASN00092062",
      "elevationUnit": "METERS",
      "longitude": 148.1
    },
    {
      "mindate": "1899-04-01",
      "maxdate": "1933-09-30",
      "latitude": -41.4333,
      "name": "SCAMANDER, AS",
      "datacoverage": 0.7536,
      "id": "GHCND:ASN00092063",
      "longitude": 148.1833
    },
    {
      "elevation": 338,
      "mindate": "1999-07-01",
      "maxdate": "2025-01-31",
      "latitude": -41.5633,
      "name": "CORNWALL, AS",
      "datacoverage": 0.9947,
      "id": "GHCND:ASN00092064",
      "elevationUnit": "METERS",
      "longitude": 148.1414
    },
    {
      "elevation": 76.2,
      "mindate": "1964-05-01",
      "maxdate": "1974-07-31",
      "latitude": -41.2667,
      "name": "GOSHEN POST OFFICE, AS",
      "datacoverage": 0.9756,
      "id": "GHCND:ASN00092065",
      "elevationUnit": "METERS",
      "longitude": 148.1
    },
    {
      "elevation": 30.5,
      "mindate": "1965-06-01",
      "maxdate": "1968-03-31",
      "latitude": -41.8667,
      "name": "BICHENO ROSEDALE, AS",
      "datacoverage": 0.971,
      "id": "GHCND:ASN00092066",
      "elevationUnit": "METERS",
      "longitude": 148.2
    },
    {
      "elevation": 40,
      "mindate": "1750-03-14",
      "maxdate": "2024-12-31",
      "latitude": -40.8586,
      "name": "RUSHY LAGOON CAPE PORTLAND RO, AS",
      "datacoverage": 0.9685,
      "id": "GHCND:ASN00092067",
      "elevationUnit": "METERS",
      "longitude": 148.0178
    },
    {
      "elevation": 380,
      "mindate": "1962-12-01",
      "maxdate": "1990-01-31",
      "latitude": -41.4608,
      "name": "FINGAL EVERCREECH, AS",
      "datacoverage": 0.5091,
      "id": "GHCND:ASN00092068",
      "elevationUnit": "METERS",
      "longitude": 148.0064
    },
    {
      "elevation": 490,
      "mindate": "1962-12-01",
      "maxdate": "1990-12-31",
      "latitude": -41.5811,
      "name": "TOWER HILL T1, AS",
      "datacoverage": 0.54,
      "id": "GHCND:ASN00092069",
      "elevationUnit": "METERS",
      "longitude": 147.9092
    },
    {
      "elevation": 421,
      "mindate": "1962-12-01",
      "maxdate": "1977-12-31",
      "latitude": -41.6,
      "name": "FINGAL TOWER HILL NO2, AS",
      "datacoverage": 0.5341,
      "id": "GHCND:ASN00092070",
      "elevationUnit": "METERS",
      "longitude": 147.9333
    },
    {
      "elevation": 330,
      "mindate": "1962-12-01",
      "maxdate": "1981-08-31",
      "latitude": -41.5167,
      "name": "FINGAL TOWER HILL NO3, AS",
      "datacoverage": 0.4777,
      "id": "GHCND:ASN00092071",
      "elevationUnit": "METERS",
      "longitude": 147.95
    },
    {
      "mindate": "1913-02-01",
      "maxdate": "1922-08-31",
      "latitude": -42.6,
      "name": "MARIA ISLAND CHINAMANS BAY, AS",
      "datacoverage": 0.9308,
      "id": "GHCND:ASN00092072",
      "longitude": 148.1
    },
    {
      "mindate": "1920-01-01",
      "maxdate": "1925-09-30",
      "latitude": -41.2,
      "name": "CASCADE UPPER, AS",
      "datacoverage": 1,
      "id": "GHCND:ASN00092073",
      "longitude": 147.8
    },
    {
      "elevation": 100,
      "mindate": "1966-12-01",
      "maxdate": "2012-10-31",
      "latitude": -42.8236,
      "name": "COPPING, AS",
      "datacoverage": 0.9437,
      "id": "GHCND:ASN00092074",
      "elevationUnit": "METERS",
      "longitude": 147.8061
    },
    {
      "elevation": 220,
      "mindate": "1967-08-21",
      "maxdate": "1981-08-31",
      "latitude": -41.5667,
      "name": "FINGAL TOWER HILL NO4, AS",
      "datacoverage": 0.515,
      "id": "GHCND:ASN00092075",
      "elevationUnit": "METERS",
      "longitude": 147.9333
    },
    {
      "elevation": 6,
      "mindate": "1967-07-01",
      "maxdate": "2007-05-31",
      "latitude": -41.5125,
      "name": "FALMOUTH GLENCOE, AS",
      "datacoverage": 0.9916,
      "id": "GHCND:ASN00092076",
      "elevationUnit": "METERS",
      "longitude": 148.2642
    },
    {
      "elevation": 224,
      "mindate": "1967-10-01",
      "maxdate": "1969-08-31",
      "latitude": -41.8,
      "name": "AVOCA BONNEYS PLAIN, AS",
      "datacoverage": 1,
      "id": "GHCND:ASN00092077",
      "elevationUnit": "METERS",
      "longitude": 147.6167
    },
    {
      "elevation": 11,
      "mindate": "1968-07-01",
      "maxdate": "1977-02-28",
      "latitude": -41.75,
      "name": "SEYMOUR LONG POINT, AS",
      "datacoverage": 0.9993,
      "id": "GHCND:ASN00092078",
      "elevationUnit": "METERS",
      "longitude": 148.2833
    },
    {
      "elevation": 468.5,
      "mindate": "1750-03-14",
      "maxdate": "2025-02-27",
      "latitude": -42.2133,
      "name": "TOOMS LAKE TOOMS RIVER, AS",
      "datacoverage": 0.8639,
      "id": "GHCND:ASN00092079",
      "elevationUnit": "METERS",
      "longitude": 147.7831
    },
    {
      "elevation": 45.7,
      "mindate": "1969-04-01",
      "maxdate": "1971-12-31",
      "latitude": -41.8667,
      "name": "BICHENO GLENALBYN, AS",
      "datacoverage": 0.9389,
      "id": "GHCND:ASN00092080",
      "elevationUnit": "METERS",
      "longitude": 148.2167
    },
    {
      "elevation": 461,
      "mindate": "1969-05-01",
      "maxdate": "2013-09-30",
      "latitude": -41.4592,
      "name": "UPPER BLESSINGTON HEATHCOTE, AS",
      "datacoverage": 0.908,
      "id": "GHCND:ASN00092081",
      "elevationUnit": "METERS",
      "longitude": 147.5756
    },
    {
      "elevation": 4.6,
      "mindate": "1972-04-01",
      "maxdate": "1973-08-31",
      "latitude": -41.2833,
      "name": "LORDS POINT, AS",
      "datacoverage": 0.9402,
      "id": "GHCND:ASN00092082",
      "elevationUnit": "METERS",
      "longitude": 148.3333
    },
    {
      "elevation": 867,
      "mindate": "1957-08-01",
      "maxdate": "2007-07-31",
      "latitude": -41.4272,
      "name": "ROSES TIER MEMORY ROAD WEST, AS",
      "datacoverage": 0.72,
      "id": "GHCND:ASN00092083",
      "elevationUnit": "METERS",
      "longitude": 147.6489
    }
  ]
}
