{
  "metadata": {
    "resultset": {
      "offset": 48100,
      "count": 154115,
      "limit": 100
    }
  },
  "results": [
    {
      "elevation": 945,
      "mindate": "1966-08-01",
      "maxdate": "2003-12-31",
      "latitude": 50.7167,
      "name": "MOSSLEIGH BURNAY, CA",
      "datacoverage": 0.8997,
      "id": "GHCND:CA003034676",
      "elevationUnit": "METERS",
      "longitude": -113.3
    },
    {
      "elevation": 1339,
      "mindate": "1912-10-01",
      "maxdate": "2006-03-31",
      "latitude": 49.1333,
      "name": "MOUNTAIN VIEW, CA",
      "datacoverage": 0.9644,
      "id": "GHCND:CA003034720",
      "elevationUnit": "METERS",
      "longitude": -113.6333
    },
    {
      "elevation": 1308,
      "mindate": "1996-08-01",
      "maxdate": "2015-04-25",
      "latitude": 49.1333,
      "name": "MOUNTAIN VIEW VILLAGE, CA",
      "datacoverage": 0.9735,
      "id": "GHCND:CA003034725",
      "elevationUnit": "METERS",
      "longitude": -113.6
    },
    {
      "elevation": 1145,
      "mindate": "2005-02-01",
      "maxdate": "2024-04-10",
      "latitude": 51.3667,
      "name": "NEIR AGDM, CA",
      "datacoverage": 1,
      "id": "GHCND:CA003034795",
      "elevationUnit": "METERS",
      "longitude": -114.1
    },
    {
      "elevation": 983,
      "mindate": "1954-01-01",
      "maxdate": "1963-03-31",
      "latitude": 49.8833,
      "name": "NOBLEFORD EXPERIMENTAL ST, CA",
      "datacoverage": 0.9644,
      "id": "GHCND:CA003034820",
      "elevationUnit": "METERS",
      "longitude": -113.0667
    },
    {
      "elevation": 1051,
      "mindate": "1906-06-01",
      "maxdate": "1932-02-29",
      "latitude": 50.7167,
      "name": "OKOTOKS, CA",
      "datacoverage": 0.8576,
      "id": "GHCND:CA003034915",
      "elevationUnit": "METERS",
      "longitude": -113.9833
    },
    {
      "elevation": 1067,
      "mindate": "1970-01-01",
      "maxdate": "1971-03-31",
      "latitude": 50.7333,
      "name": "OKOTOKS EAST, CA",
      "datacoverage": 0.9365,
      "id": "GHCND:CA003034916",
      "elevationUnit": "METERS",
      "longitude": -113.9167
    },
    {
      "elevation": 1250,
      "mindate": "1958-08-01",
      "maxdate": "1963-01-30",
      "latitude": 49.1333,
      "name": "OWENDALE, CA",
      "datacoverage": 0.9622,
      "id": "GHCND:CA003034950",
      "elevationUnit": "METERS",
      "longitude": -113.0333
    },
    {
      "elevation": 899,
      "mindate": "1965-11-01",
      "maxdate": "1978-09-30",
      "latitude": 49.8833,
      "name": "PICTURE BUTTE, CA",
      "datacoverage": 1,
      "id": "GHCND:CA003035173",
      "elevationUnit": "METERS",
      "longitude": -112.7833
    },
    {
      "elevation": 1190,
      "mindate": "2011-06-01",
      "maxdate": "2024-04-28",
      "latitude": 49.5167,
      "name": "PINCHER CREEK, CA",
      "datacoverage": 0.9996,
      "id": "GHCND:CA003035198",
      "elevationUnit": "METERS",
      "longitude": -114
    },
    {
      "elevation": 1155,
      "mindate": "1960-08-01",
      "maxdate": "1979-05-31",
      "latitude": 49.5,
      "name": "PINCHER CREEK, CA",
      "datacoverage": 0.9958,
      "id": "GHCND:CA003035201",
      "elevationUnit": "METERS",
      "longitude": -113.95
    },
    {
      "elevation": 1190,
      "mindate": "1979-06-01",
      "maxdate": "1994-03-30",
      "latitude": 49.5167,
      "name": "PINCHER CREEK A, CA",
      "datacoverage": 1,
      "id": "GHCND:CA003035202",
      "elevationUnit": "METERS",
      "longitude": -114
    },
    {
      "elevation": 1190,
      "mindate": "1992-12-01",
      "maxdate": "2011-06-29",
      "latitude": 49.5167,
      "name": "PINCHER CREEK AUT, CA",
      "datacoverage": 0.9913,
      "id": "GHCND:CA003035206",
      "elevationUnit": "METERS",
      "longitude": -114
    },
    {
      "elevation": 1190,
      "mindate": "1996-03-01",
      "maxdate": "2024-04-28",
      "latitude": 49.5167,
      "name": "PINCHER CREEK CLIMATE, CA",
      "datacoverage": 0.8876,
      "id": "GHCND:CA003035208",
      "elevationUnit": "METERS",
      "longitude": -114
    },
    {
      "elevation": 1149,
      "mindate": "1954-01-01",
      "maxdate": "1962-07-31",
      "latitude": 49.4833,
      "name": "PINCHER CREEK EXPERIMENTAL ST, CA",
      "datacoverage": 0.9993,
      "id": "GHCND:CA003035216",
      "elevationUnit": "METERS",
      "longitude": -113.9333
    },
    {
      "elevation": 1334,
      "mindate": "1962-07-01",
      "maxdate": "1964-05-31",
      "latitude": 49.3833,
      "name": "PINCHER CREEK KERR, CA",
      "datacoverage": 0.826,
      "id": "GHCND:CA003035218",
      "elevationUnit": "METERS",
      "longitude": -113.9333
    },
    {
      "elevation": 1158,
      "mindate": "1962-08-01",
      "maxdate": "1969-08-31",
      "latitude": 49.45,
      "name": "PINCHER CRK SPRINGRIDGE, CA",
      "datacoverage": 0.4469,
      "id": "GHCND:CA003035219",
      "elevationUnit": "METERS",
      "longitude": -113.65
    },
    {
      "elevation": 1145,
      "mindate": "1893-08-01",
      "maxdate": "1963-03-31",
      "latitude": 49.5167,
      "name": "PINCHER CREEK TOWN, CA",
      "datacoverage": 0.896,
      "id": "GHCND:CA003035220",
      "elevationUnit": "METERS",
      "longitude": -113.9667
    },
    {
      "elevation": 1146,
      "mindate": "1961-01-01",
      "maxdate": "1965-12-31",
      "latitude": 49.5167,
      "name": "PINCHER CREEK WEST, CA",
      "datacoverage": 0.8835,
      "id": "GHCND:CA003035221",
      "elevationUnit": "METERS",
      "longitude": -114.0333
    },
    {
      "elevation": 1050,
      "mindate": "1999-06-01",
      "maxdate": "2007-11-30",
      "latitude": 50.1167,
      "name": "PINE COULEE RESERVOIR, CA",
      "datacoverage": 0.7495,
      "id": "GHCND:CA003035224",
      "elevationUnit": "METERS",
      "longitude": -113.75
    },
    {
      "elevation": 1040,
      "mindate": "1999-04-01",
      "maxdate": "2005-02-28",
      "latitude": 50.1167,
      "name": "PINE COULEE FP, CA",
      "datacoverage": 0.8028,
      "id": "GHCND:CA003035228",
      "elevationUnit": "METERS",
      "longitude": -113.75
    },
    {
      "elevation": 744,
      "mindate": "1921-05-01",
      "maxdate": "1935-12-31",
      "latitude": 50.4167,
      "name": "POKAPPINI, CA",
      "datacoverage": 1,
      "id": "GHCND:CA003035233",
      "elevationUnit": "METERS",
      "longitude": -113.6333
    },
    {
      "elevation": 1372,
      "mindate": "1972-05-01",
      "maxdate": "1975-05-31",
      "latitude": 50.8833,
      "name": "PRIDDIS, CA",
      "datacoverage": 0.9751,
      "id": "GHCND:CA003035301",
      "elevationUnit": "METERS",
      "longitude": -114.45
    },
    {
      "elevation": 940,
      "mindate": "1961-08-01",
      "maxdate": "2024-04-21",
      "latitude": 50.6,
      "name": "QUEENSTOWN, CA",
      "datacoverage": 0.9985,
      "id": "GHCND:CA003035340",
      "elevationUnit": "METERS",
      "longitude": -112.9833
    },
    {
      "elevation": 941,
      "mindate": "2009-08-01",
      "maxdate": "2023-10-17",
      "latitude": 50.6,
      "name": "QUEENSTOWN, CA",
      "datacoverage": 1,
      "id": "GHCND:CA003035342",
      "elevationUnit": "METERS",
      "longitude": -112.8
    },
    {
      "elevation": 764,
      "mindate": "1963-07-01",
      "maxdate": "1980-05-31",
      "latitude": 50.3667,
      "name": "RAINIER, CA",
      "datacoverage": 0.9752,
      "id": "GHCND:CA003035350",
      "elevationUnit": "METERS",
      "longitude": -112.0333
    },
    {
      "elevation": 770,
      "mindate": "1954-07-01",
      "maxdate": "1976-06-30",
      "latitude": 50.25,
      "name": "RALSTON, CA",
      "datacoverage": 0.9924,
      "id": "GHCND:CA003035360",
      "elevationUnit": "METERS",
      "longitude": -111.1667
    },
    {
      "elevation": 957,
      "mindate": "1910-05-01",
      "maxdate": "1976-12-31",
      "latitude": 49.45,
      "name": "RAYMOND, CA",
      "datacoverage": 0.5287,
      "id": "GHCND:CA003035420",
      "elevationUnit": "METERS",
      "longitude": -112.7
    },
    {
      "elevation": 937,
      "mindate": "2004-06-01",
      "maxdate": "2024-04-28",
      "latitude": 49.4833,
      "name": "RAYMOND AGDM, CA",
      "datacoverage": 1,
      "id": "GHCND:CA003035422",
      "elevationUnit": "METERS",
      "longitude": -112.6833
    },
    {
      "elevation": 741,
      "mindate": "1976-07-01",
      "maxdate": "1984-08-31",
      "latitude": 50.0667,
      "name": "REDCLIFF, CA",
      "datacoverage": 0.9282,
      "id": "GHCND:CA003035434",
      "elevationUnit": "METERS",
      "longitude": -110.7667
    },
    {
      "elevation": 645,
      "mindate": "2007-09-01",
      "maxdate": "2024-04-28",
      "latitude": 50.2667,
      "name": "ROLLING HILLS AGCM, CA",
      "datacoverage": 0.9903,
      "id": "GHCND:CA003035530",
      "elevationUnit": "METERS",
      "longitude": -111.7
    },
    {
      "elevation": 716,
      "mindate": "1913-09-01",
      "maxdate": "1924-07-31",
      "latitude": 50.0833,
      "name": "RONALANE, CA",
      "datacoverage": 0.9695,
      "id": "GHCND:CA003035540",
      "elevationUnit": "METERS",
      "longitude": -111.5667
    },
    {
      "elevation": 714,
      "mindate": "2004-06-01",
      "maxdate": "2024-04-28",
      "latitude": 50.8333,
      "name": "ROSEMARY AGDM, CA",
      "datacoverage": 1,
      "id": "GHCND:CA003035650",
      "elevationUnit": "METERS",
      "longitude": -112.05
    },
    {
      "elevation": 756,
      "mindate": "1911-01-01",
      "maxdate": "2007-11-30",
      "latitude": 49.8333,
      "name": "SEVEN PERSONS, CA",
      "datacoverage": 0.8328,
      "id": "GHCND:CA003035840",
      "elevationUnit": "METERS",
      "longitude": -110.9
    },
    {
      "elevation": 766,
      "mindate": "2004-06-01",
      "maxdate": "2024-04-28",
      "latitude": 49.9167,
      "name": "SEVEN PERSONS AGDM, CA",
      "datacoverage": 1,
      "id": "GHCND:CA003035845",
      "elevationUnit": "METERS",
      "longitude": -110.9167
    },
    {
      "elevation": 759,
      "mindate": "1958-09-01",
      "maxdate": "1963-07-31",
      "latitude": 49.8667,
      "name": "SEVEN PERSONS RIVERS DEV, CA",
      "datacoverage": 0.4409,
      "id": "GHCND:CA003035850",
      "elevationUnit": "METERS",
      "longitude": -110.9
    },
    {
      "elevation": 759,
      "mindate": "1952-09-01",
      "maxdate": "1956-02-29",
      "latitude": 49.8333,
      "name": "SHAUGHNESSY, CA",
      "datacoverage": 0.9057,
      "id": "GHCND:CA003035880",
      "elevationUnit": "METERS",
      "longitude": -112.8167
    },
    {
      "elevation": 1201,
      "mindate": "2012-08-01",
      "maxdate": "2014-02-13",
      "latitude": 51.1,
      "name": "CALGARY SPRINGBANK A, CA",
      "datacoverage": 0.6857,
      "id": "GHCND:CA003036077",
      "elevationUnit": "METERS",
      "longitude": -114.3667
    },
    {
      "elevation": 1201,
      "mindate": "1970-09-01",
      "maxdate": "1971-04-30",
      "latitude": 51.1,
      "name": "SPRINGBANK A, CA",
      "datacoverage": 1,
      "id": "GHCND:CA003036078",
      "elevationUnit": "METERS",
      "longitude": -114.3833
    },
    {
      "elevation": 1210,
      "mindate": "1990-08-01",
      "maxdate": "1992-05-31",
      "latitude": 51.2,
      "name": "SPY HILL, CA",
      "datacoverage": 0.9086,
      "id": "GHCND:CA003036084",
      "elevationUnit": "METERS",
      "longitude": -114.2167
    },
    {
      "elevation": 914,
      "mindate": "1965-05-01",
      "maxdate": "1975-07-31",
      "latitude": 51.15,
      "name": "STANDARD, CA",
      "datacoverage": 0.5712,
      "id": "GHCND:CA003036085",
      "elevationUnit": "METERS",
      "longitude": -112.9167
    },
    {
      "elevation": 901,
      "mindate": "2007-09-01",
      "maxdate": "2024-04-28",
      "latitude": 51.2333,
      "name": "STANDARD AGCM, CA",
      "datacoverage": 0.9903,
      "id": "GHCND:CA003036086",
      "elevationUnit": "METERS",
      "longitude": -112.9833
    },
    {
      "elevation": 1364,
      "mindate": "1996-11-01",
      "maxdate": "2024-04-28",
      "latitude": 50.1833,
      "name": "STAVELY AAFC, CA",
      "datacoverage": 1,
      "id": "GHCND:CA003036099",
      "elevationUnit": "METERS",
      "longitude": -113.8833
    },
    {
      "elevation": 1097,
      "mindate": "1955-01-01",
      "maxdate": "1962-10-31",
      "latitude": 50.1667,
      "name": "STAVELY CDA, CA",
      "datacoverage": 0.9995,
      "id": "GHCND:CA003036100",
      "elevationUnit": "METERS",
      "longitude": -113.8667
    },
    {
      "elevation": 1043,
      "mindate": "1959-06-01",
      "maxdate": "1963-03-31",
      "latitude": 50.1667,
      "name": "STAVELY EXPERIMENTAL ST 2, CA",
      "datacoverage": 0.9986,
      "id": "GHCND:CA003036102",
      "elevationUnit": "METERS",
      "longitude": -113.65
    },
    {
      "elevation": 963,
      "mindate": "1912-07-01",
      "maxdate": "2004-05-31",
      "latitude": 51.05,
      "name": "STRATHMORE, CA",
      "datacoverage": 0.8566,
      "id": "GHCND:CA003036200",
      "elevationUnit": "METERS",
      "longitude": -113.4167
    },
    {
      "elevation": 967,
      "mindate": "2004-06-01",
      "maxdate": "2024-04-28",
      "latitude": 51.0333,
      "name": "STRATHMORE AGDM, CA",
      "datacoverage": 1,
      "id": "GHCND:CA003036205",
      "elevationUnit": "METERS",
      "longitude": -113.2833
    },
    {
      "elevation": 930,
      "mindate": "1970-05-01",
      "maxdate": "1989-09-30",
      "latitude": 51.1,
      "name": "STRATHMORE EAST, CA",
      "datacoverage": 0.9956,
      "id": "GHCND:CA003036208",
      "elevationUnit": "METERS",
      "longitude": -113.2167
    },
    {
      "elevation": 748,
      "mindate": "1913-09-01",
      "maxdate": "1924-08-31",
      "latitude": 50.2167,
      "name": "SUFFIELD, CA",
      "datacoverage": 0.9924,
      "id": "GHCND:CA003036235",
      "elevationUnit": "METERS",
      "longitude": -111.15
    },
    {
      "elevation": 770,
      "mindate": "1950-04-01",
      "maxdate": "2008-12-31",
      "latitude": 50.2667,
      "name": "SUFFIELD A, CA",
      "datacoverage": 0.9985,
      "id": "GHCND:CA003036240",
      "elevationUnit": "METERS",
      "longitude": -111.1833
    },
    {
      "elevation": 751,
      "mindate": "1980-08-01",
      "maxdate": "1991-05-31",
      "latitude": 50.2167,
      "name": "SUFFIELD HAMLET, CA",
      "datacoverage": 0.9925,
      "id": "GHCND:CA003036241",
      "elevationUnit": "METERS",
      "longitude": -111.1667
    },
    {
      "elevation": 678,
      "mindate": "1985-06-01",
      "maxdate": "1989-02-28",
      "latitude": 50.0667,
      "name": "SUFFIELD SOUTH, CA",
      "datacoverage": 1,
      "id": "GHCND:CA003036242",
      "elevationUnit": "METERS",
      "longitude": -111.1667
    },
    {
      "elevation": 811,
      "mindate": "1907-03-01",
      "maxdate": "2024-04-22",
      "latitude": 49.8,
      "name": "TABER, CA",
      "datacoverage": 0.8977,
      "id": "GHCND:CA003036360",
      "elevationUnit": "METERS",
      "longitude": -112.1167
    },
    {
      "elevation": 955,
      "mindate": "2007-09-01",
      "maxdate": "2024-04-28",
      "latitude": 50.3,
      "name": "TRAVERS AGCM, CA",
      "datacoverage": 0.9903,
      "id": "GHCND:CA003036500",
      "elevationUnit": "METERS",
      "longitude": -112.8667
    },
    {
      "elevation": 823,
      "mindate": "1965-11-01",
      "maxdate": "1969-02-28",
      "latitude": 49.9667,
      "name": "TURIN, CA",
      "datacoverage": 1,
      "id": "GHCND:CA003036618",
      "elevationUnit": "METERS",
      "longitude": -112.45
    },
    {
      "elevation": 835,
      "mindate": "1955-01-01",
      "maxdate": "1963-03-31",
      "latitude": 50,
      "name": "TURIN EXPERIMENTAL ST, CA",
      "datacoverage": 0.9993,
      "id": "GHCND:CA003036620",
      "elevationUnit": "METERS",
      "longitude": -112.4333
    },
    {
      "elevation": 1238,
      "mindate": "1949-08-01",
      "maxdate": "1975-03-31",
      "latitude": 50.7167,
      "name": "TURNER VALLEY, CA",
      "datacoverage": 0.9969,
      "id": "GHCND:CA003036640",
      "elevationUnit": "METERS",
      "longitude": -114.35
    },
    {
      "elevation": 1219,
      "mindate": "1972-06-01",
      "maxdate": "1982-10-31",
      "latitude": 50.6667,
      "name": "TURNER VALLEY RANGER STATION, CA",
      "datacoverage": 0.6,
      "id": "GHCND:CA003036641",
      "elevationUnit": "METERS",
      "longitude": -114.2833
    },
    {
      "elevation": 1112,
      "mindate": "1964-11-01",
      "maxdate": "1990-06-30",
      "latitude": 51.0833,
      "name": "UNIVERSITY OF CALGARY, CA",
      "datacoverage": 0.9807,
      "id": "GHCND:CA003036652",
      "elevationUnit": "METERS",
      "longitude": -114.1333
    },
    {
      "elevation": 779,
      "mindate": "1913-10-01",
      "maxdate": "1957-02-28",
      "latitude": 50.0667,
      "name": "VAUXHALL, CA",
      "datacoverage": 0.9175,
      "id": "GHCND:CA003036680",
      "elevationUnit": "METERS",
      "longitude": -112.1
    },
    {
      "elevation": 779,
      "mindate": "1953-05-01",
      "maxdate": "1991-05-31",
      "latitude": 50.05,
      "name": "VAUXHALL CDA, CA",
      "datacoverage": 0.7943,
      "id": "GHCND:CA003036681",
      "elevationUnit": "METERS",
      "longitude": -112.1333
    },
    {
      "elevation": 779,
      "mindate": "1993-06-01",
      "maxdate": "2024-04-28",
      "latitude": 50.05,
      "name": "VAUXHALL CDA CS, CA",
      "datacoverage": 0.9927,
      "id": "GHCND:CA003036682",
      "elevationUnit": "METERS",
      "longitude": -112.1333
    },
    {
      "elevation": 760,
      "mindate": "1982-06-01",
      "maxdate": "2008-12-31",
      "latitude": 50.1833,
      "name": "VAUXHALL NORTH, CA",
      "datacoverage": 0.9904,
      "id": "GHCND:CA003036690",
      "elevationUnit": "METERS",
      "longitude": -112.1167
    },
    {
      "elevation": 1323,
      "mindate": "1992-01-01",
      "maxdate": "1993-08-31",
      "latitude": 50.8333,
      "name": "VINERIPE GREENHOUSE, CA",
      "datacoverage": 0.8497,
      "id": "GHCND:CA003036856",
      "elevationUnit": "METERS",
      "longitude": -114.5
    },
    {
      "elevation": 991,
      "mindate": "1921-05-01",
      "maxdate": "1968-05-31",
      "latitude": 50.5333,
      "name": "VULCAN, CA",
      "datacoverage": 0.9823,
      "id": "GHCND:CA003036880",
      "elevationUnit": "METERS",
      "longitude": -113.0667
    },
    {
      "elevation": 1049,
      "mindate": "1974-10-01",
      "maxdate": "2000-11-09",
      "latitude": 50.4,
      "name": "VULCAN, CA",
      "datacoverage": 0.9999,
      "id": "GHCND:CA003036881",
      "elevationUnit": "METERS",
      "longitude": -113.25
    },
    {
      "elevation": 966,
      "mindate": "1992-09-01",
      "maxdate": "1994-12-31",
      "latitude": 50.5,
      "name": "VULCAN SMITH, CA",
      "datacoverage": 0.9288,
      "id": "GHCND:CA003036884",
      "elevationUnit": "METERS",
      "longitude": -113.05
    },
    {
      "elevation": 838,
      "mindate": "1917-04-01",
      "maxdate": "1968-11-30",
      "latitude": 49.8667,
      "name": "WHITLA, CA",
      "datacoverage": 0.9992,
      "id": "GHCND:CA003037520",
      "elevationUnit": "METERS",
      "longitude": -111.05
    },
    {
      "elevation": 1268,
      "mindate": "2004-12-01",
      "maxdate": "2016-07-03",
      "latitude": 51.2667,
      "name": "WILDCAT HILLS, CA",
      "datacoverage": 1,
      "id": "GHCND:CA003037550",
      "elevationUnit": "METERS",
      "longitude": -114.7167
    },
    {
      "elevation": 831,
      "mindate": "1928-12-01",
      "maxdate": "1967-01-31",
      "latitude": 49.9,
      "name": "WINNIFRED, CA",
      "datacoverage": 0.9803,
      "id": "GHCND:CA003037600",
      "elevationUnit": "METERS",
      "longitude": -111.2
    },
    {
      "elevation": 975,
      "mindate": "1981-04-01",
      "maxdate": "1983-09-30",
      "latitude": 49.95,
      "name": "WOODHOUSE, CA",
      "datacoverage": 0.9001,
      "id": "GHCND:CA003037650",
      "elevationUnit": "METERS",
      "longitude": -113.3667
    },
    {
      "elevation": 944,
      "mindate": "2002-07-01",
      "maxdate": "2024-04-28",
      "latitude": 49.5,
      "name": "WRENTHAM AGDM, CA",
      "datacoverage": 0.9998,
      "id": "GHCND:CA003037675",
      "elevationUnit": "METERS",
      "longitude": -112.1167
    },
    {
      "elevation": 1128,
      "mindate": "1966-08-01",
      "maxdate": "1987-01-31",
      "latitude": 51.0167,
      "name": "CALGARY ELBOW VIEW, CA",
      "datacoverage": 0.9999,
      "id": "GHCND:CA00303A0Q6",
      "elevationUnit": "METERS",
      "longitude": -114.2
    },
    {
      "elevation": 1303,
      "mindate": "1990-06-01",
      "maxdate": "2003-11-30",
      "latitude": 51.2333,
      "name": "COCHRANE VE6CQC, CA",
      "datacoverage": 0.8333,
      "id": "GHCND:CA00303AFGF",
      "elevationUnit": "METERS",
      "longitude": -114.45
    },
    {
      "elevation": 948,
      "mindate": "1985-07-01",
      "maxdate": "2006-08-31",
      "latitude": 51.25,
      "name": "KEOMA, CA",
      "datacoverage": 0.7991,
      "id": "GHCND:CA00303C642",
      "elevationUnit": "METERS",
      "longitude": -113.6333
    },
    {
      "elevation": 1137,
      "mindate": "1969-12-01",
      "maxdate": "1970-05-31",
      "latitude": 50.7,
      "name": "OKOTOKS BIG ROCK, CA",
      "datacoverage": 1,
      "id": "GHCND:CA00303D9JN",
      "elevationUnit": "METERS",
      "longitude": -114.1167
    },
    {
      "elevation": 1201,
      "mindate": "1984-12-01",
      "maxdate": "2012-08-07",
      "latitude": 51.1,
      "name": "SPRINGBANK A, CA",
      "datacoverage": 0.9971,
      "id": "GHCND:CA00303F0PP",
      "elevationUnit": "METERS",
      "longitude": -114.3667
    },
    {
      "elevation": 1311,
      "mindate": "1991-05-01",
      "maxdate": "2000-09-30",
      "latitude": 50.6333,
      "name": "TURNER VALLEY, CA",
      "datacoverage": 0.3361,
      "id": "GHCND:CA00303FFLR",
      "elevationUnit": "METERS",
      "longitude": -114.3333
    },
    {
      "elevation": 1036,
      "mindate": "1988-04-01",
      "maxdate": "1993-03-31",
      "latitude": 50.5833,
      "name": "HIGH RIVER TOWERS, CA",
      "datacoverage": 1,
      "id": "GHCND:CA00303L24K",
      "elevationUnit": "METERS",
      "longitude": -113.8667
    },
    {
      "elevation": 1081,
      "mindate": "1990-05-01",
      "maxdate": "2024-04-28",
      "latitude": 50.7333,
      "name": "OKOTOKS, CA",
      "datacoverage": 0.9999,
      "id": "GHCND:CA00303M9JM",
      "elevationUnit": "METERS",
      "longitude": -113.9667
    },
    {
      "elevation": 901,
      "mindate": "1987-06-01",
      "maxdate": "2023-04-20",
      "latitude": 49.8667,
      "name": "PICTURE BUTTE WEST, CA",
      "datacoverage": 0.9066,
      "id": "GHCND:CA00303N1G3",
      "elevationUnit": "METERS",
      "longitude": -112.7833
    },
    {
      "elevation": 1036,
      "mindate": "1962-06-01",
      "maxdate": "2000-08-31",
      "latitude": 49.05,
      "name": "ADEN, CA",
      "datacoverage": 0.8823,
      "id": "GHCND:CA003040049",
      "elevationUnit": "METERS",
      "longitude": -111.3167
    },
    {
      "elevation": 945,
      "mindate": "1965-11-01",
      "maxdate": "2007-09-30",
      "latitude": 49.25,
      "name": "ALTAWAN, CA",
      "datacoverage": 0.8867,
      "id": "GHCND:CA003040223",
      "elevationUnit": "METERS",
      "longitude": -110.0167
    },
    {
      "elevation": 1250,
      "mindate": "1977-03-01",
      "maxdate": "1981-07-31",
      "latitude": 49.3167,
      "name": "BONNIE VIEW, CA",
      "datacoverage": 0.8675,
      "id": "GHCND:CA003040735",
      "elevationUnit": "METERS",
      "longitude": -112.6333
    },
    {
      "elevation": 1036,
      "mindate": "1899-04-01",
      "maxdate": "1973-08-31",
      "latitude": 49,
      "name": "COUTTS, CA",
      "datacoverage": 0.3749,
      "id": "GHCND:CA003041908",
      "elevationUnit": "METERS",
      "longitude": -111.95
    },
    {
      "elevation": 1057,
      "mindate": "1959-06-01",
      "maxdate": "1963-02-28",
      "latitude": 49.0333,
      "name": "COUTTS EXPERIMENTAL ST, CA",
      "datacoverage": 0.9991,
      "id": "GHCND:CA003041910",
      "elevationUnit": "METERS",
      "longitude": -111.85
    },
    {
      "elevation": 1158,
      "mindate": "1950-04-01",
      "maxdate": "1956-04-30",
      "latitude": 49.0333,
      "name": "DEL BONITA, CA",
      "datacoverage": 1,
      "id": "GHCND:CA003042040",
      "elevationUnit": "METERS",
      "longitude": -112.8
    },
    {
      "elevation": 1293,
      "mindate": "1985-05-01",
      "maxdate": "1990-02-28",
      "latitude": 49.1333,
      "name": "DEL BONITA, CA",
      "datacoverage": 0.9986,
      "id": "GHCND:CA003042041",
      "elevationUnit": "METERS",
      "longitude": -112.8167
    },
    {
      "elevation": 1310,
      "mindate": "2002-11-01",
      "maxdate": "2024-04-28",
      "latitude": 49.05,
      "name": "DEL BONITA AGDM, CA",
      "datacoverage": 1,
      "id": "GHCND:CA003042045",
      "elevationUnit": "METERS",
      "longitude": -112.8167
    },
    {
      "elevation": 1158,
      "mindate": "1955-01-01",
      "maxdate": "1963-03-31",
      "latitude": 49.0833,
      "name": "DEL BONITA EXPERIMENTAL ST, CA",
      "datacoverage": 0.9992,
      "id": "GHCND:CA003042056",
      "elevationUnit": "METERS",
      "longitude": -112.8833
    },
    {
      "elevation": 1163,
      "mindate": "1966-02-01",
      "maxdate": "2012-09-02",
      "latitude": 49.5833,
      "name": "EAGLE BUTTE, CA",
      "datacoverage": 0.475,
      "id": "GHCND:CA003042148",
      "elevationUnit": "METERS",
      "longitude": -110.3667
    },
    {
      "elevation": 834,
      "mindate": "1925-06-01",
      "maxdate": "1937-06-30",
      "latitude": 49.3667,
      "name": "GLASSFORD, CA",
      "datacoverage": 0.938,
      "id": "GHCND:CA003042793",
      "elevationUnit": "METERS",
      "longitude": -110.7
    },
    {
      "elevation": 914,
      "mindate": "1927-04-01",
      "maxdate": "1963-07-31",
      "latitude": 49.2,
      "name": "GROTON, CA",
      "datacoverage": 0.8647,
      "id": "GHCND:CA003042960",
      "elevationUnit": "METERS",
      "longitude": -111.3333
    },
    {
      "elevation": 975,
      "mindate": "1955-01-01",
      "maxdate": "1962-08-31",
      "latitude": 49.0667,
      "name": "KNAPPEN EXPERIMENTAL ST, CA",
      "datacoverage": 0.837,
      "id": "GHCND:CA003043660",
      "elevationUnit": "METERS",
      "longitude": -111.55
    },
    {
      "elevation": 1219,
      "mindate": "1981-12-01",
      "maxdate": "1995-02-28",
      "latitude": 49.2167,
      "name": "KNIGHT LAKE, CA",
      "datacoverage": 0.9877,
      "id": "GHCND:CA003043667",
      "elevationUnit": "METERS",
      "longitude": -112.7333
    },
    {
      "elevation": 896,
      "mindate": "1959-01-01",
      "maxdate": "1963-02-28",
      "latitude": 49.2333,
      "name": "LUCKY STRIKE, CA",
      "datacoverage": 0.9986,
      "id": "GHCND:CA003044070",
      "elevationUnit": "METERS",
      "longitude": -111.5667
    },
    {
      "elevation": 934,
      "mindate": "1928-05-01",
      "maxdate": "1993-12-31",
      "latitude": 49.1167,
      "name": "MANYBERRIES CDA, CA",
      "datacoverage": 0.9671,
      "id": "GHCND:CA003044200",
      "elevationUnit": "METERS",
      "longitude": -110.4667
    },
    {
      "elevation": 927,
      "mindate": "1957-01-01",
      "maxdate": "2024-07-15",
      "latitude": 49.3667,
      "name": "MANYBERRIES AGCM, CA",
      "datacoverage": 0.6661,
      "id": "GHCND:CA003044203",
      "elevationUnit": "METERS",
      "longitude": -110.6833
    },
    {
      "elevation": 1036,
      "mindate": "1966-08-01",
      "maxdate": "1970-06-30",
      "latitude": 49.4833,
      "name": "MANYBERRIES CREEK, CA",
      "datacoverage": 0.6173,
      "id": "GHCND:CA003044204",
      "elevationUnit": "METERS",
      "longitude": -110.55
    },
    {
      "elevation": 953,
      "mindate": "1980-12-01",
      "maxdate": "2008-09-25",
      "latitude": 49.1333,
      "name": "MASINASIN, CA",
      "datacoverage": 0.982,
      "id": "GHCND:CA003044230",
      "elevationUnit": "METERS",
      "longitude": -111.65
    }
  ]
}
