{
  "metadata": {
    "resultset": {
      "offset": 125200,
      "count": 154115,
      "limit": 100
    }
  },
  "results": [
    {
      "elevation": 368.8,
      "mindate": "1916-12-01",
      "maxdate": "1960-12-31",
      "latitude": 34.11667,
      "name": "LA VERNE HTS FC 560, CA US",
      "datacoverage": 0.9084,
      "id": "GHCND:USC00044993",
      "elevationUnit": "METERS",
      "longitude": -117.75
    },
    {
      "elevation": 161.2,
      "mindate": "1903-01-01",
      "maxdate": "2025-02-23",
      "latitude": 37.68194,
      "name": "LIVERMORE, CA US",
      "datacoverage": 1,
      "id": "GHCND:USC00044997",
      "elevationUnit": "METERS",
      "longitude": -121.75139
    },
    {
      "elevation": 125,
      "mindate": "1956-01-01",
      "maxdate": "1957-05-30",
      "latitude": 37.86667,
      "name": "ALAMO 1 N, CA US",
      "datacoverage": 0.8242,
      "id": "GHCND:USC00045000",
      "elevationUnit": "METERS",
      "longitude": -122.03333
    },
    {
      "elevation": 1036.9,
      "mindate": "1916-11-01",
      "maxdate": "1945-04-30",
      "latitude": 34.5,
      "name": "LLANO, CA US",
      "datacoverage": 0.9329,
      "id": "GHCND:USC00045001",
      "elevationUnit": "METERS",
      "longitude": -117.81667
    },
    {
      "elevation": 1164.9,
      "mindate": "1945-09-01",
      "maxdate": "1965-10-31",
      "latitude": 34.46667,
      "name": "LLANO SHAWNEE HILLS, CA US",
      "datacoverage": 1,
      "id": "GHCND:USC00045002",
      "elevationUnit": "METERS",
      "longitude": -117.75
    },
    {
      "elevation": 323.1,
      "mindate": "1943-01-01",
      "maxdate": "1978-05-31",
      "latitude": 35.96667,
      "name": "LOCKWOOD 1 N, CA US",
      "datacoverage": 0.9832,
      "id": "GHCND:USC00045017",
      "elevationUnit": "METERS",
      "longitude": -121.08333
    },
    {
      "elevation": 64,
      "mindate": "1940-09-01",
      "maxdate": "1965-07-31",
      "latitude": 32.98333,
      "name": "LOCKWOOD MESA, CA US",
      "datacoverage": 0.9834,
      "id": "GHCND:USC00045023",
      "elevationUnit": "METERS",
      "longitude": -117.25
    },
    {
      "elevation": 2052.8,
      "mindate": "1968-01-01",
      "maxdate": "2025-01-25",
      "latitude": 36.6044,
      "name": "LODGEPOLE, CA US",
      "datacoverage": 1,
      "id": "GHCND:USC00045026",
      "elevationUnit": "METERS",
      "longitude": -118.7325
    },
    {
      "elevation": 2052.8,
      "mindate": "1951-01-01",
      "maxdate": "1955-12-31",
      "latitude": 36.6044,
      "name": "LODGEPOLE, CA US",
      "datacoverage": 1,
      "id": "GHCND:USC00045028",
      "elevationUnit": "METERS",
      "longitude": -118.7325
    },
    {
      "elevation": 12.2,
      "mindate": "1893-01-01",
      "maxdate": "2015-01-30",
      "latitude": 38.1061,
      "name": "LODI, CA US",
      "datacoverage": 1,
      "id": "GHCND:USC00045032",
      "elevationUnit": "METERS",
      "longitude": -121.2877
    },
    {
      "elevation": 22.9,
      "mindate": "1917-03-01",
      "maxdate": "2025-01-31",
      "latitude": 34.6538,
      "name": "LOMPOC, CA US",
      "datacoverage": 1,
      "id": "GHCND:USC00045064",
      "elevationUnit": "METERS",
      "longitude": -120.4513
    },
    {
      "elevation": 1155.2,
      "mindate": "1948-07-01",
      "maxdate": "1951-09-30",
      "latitude": 36.443,
      "name": "LONE PINE 11 S COTTONWOOD POWER HOUSE, CA US",
      "datacoverage": 1,
      "id": "GHCND:USC00045067",
      "elevationUnit": "METERS",
      "longitude": -118.0433
    },
    {
      "elevation": 100.9,
      "mindate": "1943-10-01",
      "maxdate": "1969-06-30",
      "latitude": 37.63333,
      "name": "LONE TREE CANYON, CA US",
      "datacoverage": 0.9256,
      "id": "GHCND:USC00045074",
      "elevationUnit": "METERS",
      "longitude": -121.4
    },
    {
      "elevation": 1585.9,
      "mindate": "1948-07-01",
      "maxdate": "1951-09-30",
      "latitude": 38.18333,
      "name": "LONG BARN EXPERMENT, CA US",
      "datacoverage": 1,
      "id": "GHCND:USC00045078",
      "elevationUnit": "METERS",
      "longitude": -120.01667
    },
    {
      "elevation": 6.1,
      "mindate": "1970-03-01",
      "maxdate": "1973-04-30",
      "latitude": 33.76111,
      "name": "LONG BEACH AQUARIUM, CA US",
      "datacoverage": 1,
      "id": "GHCND:USC00045080",
      "elevationUnit": "METERS",
      "longitude": -118.19694
    },
    {
      "elevation": 6.1,
      "mindate": "1906-01-01",
      "maxdate": "1969-11-30",
      "latitude": 33.76111,
      "name": "LONG BEACH AQUARIUM, CA US",
      "datacoverage": 0.8679,
      "id": "GHCND:USC00045082",
      "elevationUnit": "METERS",
      "longitude": -118.19694
    },
    {
      "elevation": 1542.9,
      "mindate": "1959-01-01",
      "maxdate": "1968-10-31",
      "latitude": 39.68333,
      "name": "LONG VALLEY INSPECTI, CA US",
      "datacoverage": 0.9994,
      "id": "GHCND:USC00045088",
      "elevationUnit": "METERS",
      "longitude": -120.01667
    },
    {
      "elevation": 2554.2,
      "mindate": "2017-01-01",
      "maxdate": "2025-03-06",
      "latitude": 33.81299,
      "name": "LONG VALLEY 2, CA US",
      "datacoverage": 0.8945,
      "id": "GHCND:USC00045091",
      "elevationUnit": "METERS",
      "longitude": -116.64193
    },
    {
      "elevation": 1275,
      "mindate": "1963-05-01",
      "maxdate": "1977-05-31",
      "latitude": 41.2,
      "name": "LOOKOUT 3 WSW, CA US",
      "datacoverage": 0.9643,
      "id": "GHCND:USC00045093",
      "elevationUnit": "METERS",
      "longitude": -121.2
    },
    {
      "elevation": 829.1,
      "mindate": "1948-07-01",
      "maxdate": "1951-09-30",
      "latitude": 35.3,
      "name": "LORAINE, CA US",
      "datacoverage": 1,
      "id": "GHCND:USC00045098",
      "elevationUnit": "METERS",
      "longitude": -118.43333
    },
    {
      "elevation": 1290.8,
      "mindate": "2011-01-01",
      "maxdate": "2025-03-01",
      "latitude": 35.3836,
      "name": "LORAINE 5 NNE, CA US",
      "datacoverage": 1,
      "id": "GHCND:USC00045100",
      "elevationUnit": "METERS",
      "longitude": -118.4122
    },
    {
      "elevation": 172.2,
      "mindate": "1894-04-01",
      "maxdate": "2010-12-31",
      "latitude": 34.7455,
      "name": "LOS ALAMOS, CA US",
      "datacoverage": 1,
      "id": "GHCND:USC00045107",
      "elevationUnit": "METERS",
      "longitude": -120.28
    },
    {
      "elevation": 125,
      "mindate": "1948-07-01",
      "maxdate": "1951-09-30",
      "latitude": 34.05,
      "name": "LOS ANGELES 6TH MAIN, CA US",
      "datacoverage": 1,
      "id": "GHCND:USC00045111",
      "elevationUnit": "METERS",
      "longitude": -118.25
    },
    {
      "elevation": 85,
      "mindate": "1948-07-01",
      "maxdate": "1953-11-30",
      "latitude": 34.06667,
      "name": "LOS ANGELES TERMINAL, CA US",
      "datacoverage": 0.9843,
      "id": "GHCND:USC00045112",
      "elevationUnit": "METERS",
      "longitude": -118.23333
    },
    {
      "elevation": 36.6,
      "mindate": "1906-03-01",
      "maxdate": "2025-03-06",
      "latitude": 37.0563,
      "name": "LOS BANOS, CA US",
      "datacoverage": 1,
      "id": "GHCND:USC00045118",
      "elevationUnit": "METERS",
      "longitude": -120.8666
    },
    {
      "elevation": 256.9,
      "mindate": "1932-01-01",
      "maxdate": "2024-11-30",
      "latitude": 36.8749,
      "name": "LOS BANOS ARBURUA RANCH, CA US",
      "datacoverage": 1,
      "id": "GHCND:USC00045119",
      "elevationUnit": "METERS",
      "longitude": -120.9386
    },
    {
      "elevation": 124.1,
      "mindate": "1968-07-01",
      "maxdate": "2010-12-31",
      "latitude": 36.98972,
      "name": "LOS BANOS DET RESV, CA US",
      "datacoverage": 1,
      "id": "GHCND:USC00045120",
      "elevationUnit": "METERS",
      "longitude": -120.92972
    },
    {
      "elevation": 111.3,
      "mindate": "1893-01-01",
      "maxdate": "2019-01-28",
      "latitude": 37.2319,
      "name": "LOS GATOS, CA US",
      "datacoverage": 1,
      "id": "GHCND:USC00045123",
      "elevationUnit": "METERS",
      "longitude": -121.9592
    },
    {
      "elevation": 736.1,
      "mindate": "1957-01-01",
      "maxdate": "1988-12-31",
      "latitude": 37.18333,
      "name": "LOS GATOS 4 SW, CA US",
      "datacoverage": 0.9025,
      "id": "GHCND:USC00045125",
      "elevationUnit": "METERS",
      "longitude": -122.03333
    },
    {
      "elevation": 670.6,
      "mindate": "1943-05-01",
      "maxdate": "1955-03-31",
      "latitude": 37.16667,
      "name": "HOLY CITY 3 WNW, CA US",
      "datacoverage": 0.9993,
      "id": "GHCND:USC00045126",
      "elevationUnit": "METERS",
      "longitude": -122.03333
    },
    {
      "elevation": 67.1,
      "mindate": "1910-06-01",
      "maxdate": "1948-11-30",
      "latitude": 40.01667,
      "name": "LOS MOLINOS, CA US",
      "datacoverage": 0.3052,
      "id": "GHCND:USC00045131",
      "elevationUnit": "METERS",
      "longitude": -122.1
    },
    {
      "elevation": 312.1,
      "mindate": "1943-07-01",
      "maxdate": "2016-03-01",
      "latitude": 34.5444,
      "name": "LOS PRIETOS RANGER STATION, CA US",
      "datacoverage": 1,
      "id": "GHCND:USC00045147",
      "elevationUnit": "METERS",
      "longitude": -119.7913
    },
    {
      "elevation": 87.8,
      "mindate": "1948-07-01",
      "maxdate": "2023-10-31",
      "latitude": 35.6181,
      "name": "LOST HILLS, CA US",
      "datacoverage": 0.1139,
      "id": "GHCND:USC00045151",
      "elevationUnit": "METERS",
      "longitude": -119.6892
    },
    {
      "elevation": 164.6,
      "mindate": "1940-09-01",
      "maxdate": "1956-10-31",
      "latitude": 32.61667,
      "name": "LOWER OTAY RESERVOIR, CA US",
      "datacoverage": 0.9993,
      "id": "GHCND:USC00045162",
      "elevationUnit": "METERS",
      "longitude": -116.93333
    },
    {
      "elevation": 1506.9,
      "mindate": "1948-07-01",
      "maxdate": "1972-11-30",
      "latitude": 39.68333,
      "name": "LOYALTON, CA US",
      "datacoverage": 0.5699,
      "id": "GHCND:USC00045171",
      "elevationUnit": "METERS",
      "longitude": -120.25
    },
    {
      "elevation": 903.1,
      "mindate": "1949-01-01",
      "maxdate": "1973-09-30",
      "latitude": 34.45,
      "name": "LUCERNE VALLEY, CA US",
      "datacoverage": 0.9457,
      "id": "GHCND:USC00045182",
      "elevationUnit": "METERS",
      "longitude": -116.95
    },
    {
      "elevation": 108.2,
      "mindate": "1948-07-01",
      "maxdate": "1951-09-30",
      "latitude": 35.878,
      "name": "LUCIA WILLOW SPRINGS, CA US",
      "datacoverage": 1,
      "id": "GHCND:USC00045184",
      "elevationUnit": "METERS",
      "longitude": -121.4497
    },
    {
      "elevation": 353.6,
      "mindate": "1948-07-01",
      "maxdate": "1951-09-30",
      "latitude": 34.095,
      "name": "LYTLE CREEK FOOTHILL, CA US",
      "datacoverage": 1,
      "id": "GHCND:USC00045212",
      "elevationUnit": "METERS",
      "longitude": -117.3347
    },
    {
      "elevation": 686.1,
      "mindate": "1906-04-01",
      "maxdate": "1967-08-31",
      "latitude": 34.2,
      "name": "LYTLE CREEK PH, CA US",
      "datacoverage": 0.8331,
      "id": "GHCND:USC00045215",
      "elevationUnit": "METERS",
      "longitude": -117.45
    },
    {
      "elevation": 832.1,
      "mindate": "1921-01-01",
      "maxdate": "2015-10-01",
      "latitude": 34.23833,
      "name": "LYTLE CREEK RANGER STATION, CA US",
      "datacoverage": 1,
      "id": "GHCND:USC00045218",
      "elevationUnit": "METERS",
      "longitude": -117.47083
    },
    {
      "elevation": 1623.1,
      "mindate": "1908-01-01",
      "maxdate": "1975-02-28",
      "latitude": 41.01667,
      "name": "MADELINE, CA US",
      "datacoverage": 0.4875,
      "id": "GHCND:USC00045231",
      "elevationUnit": "METERS",
      "longitude": -120.5
    },
    {
      "elevation": 82.3,
      "mindate": "1928-01-01",
      "maxdate": "2023-08-31",
      "latitude": 36.9539,
      "name": "MADERA, CA US",
      "datacoverage": 1,
      "id": "GHCND:USC00045233",
      "elevationUnit": "METERS",
      "longitude": -120.0378
    },
    {
      "elevation": 842.2,
      "mindate": "2022-06-04",
      "maxdate": "2022-06-04",
      "latitude": 40.3186,
      "name": "MAD RIVER 12 SE, CA US",
      "datacoverage": 1,
      "id": "GHCND:USC00045242",
      "elevationUnit": "METERS",
      "longitude": -123.3738
    },
    {
      "elevation": 815.3,
      "mindate": "1943-11-01",
      "maxdate": "1988-09-30",
      "latitude": 40.45,
      "name": "MAD RIVER RANGER STATION, CA US",
      "datacoverage": 0.9258,
      "id": "GHCND:USC00045244",
      "elevationUnit": "METERS",
      "longitude": -123.53333
    },
    {
      "elevation": 1357,
      "mindate": "1948-07-01",
      "maxdate": "1951-04-30",
      "latitude": 34.4,
      "name": "MAGIC MOUNTAIN, CA US",
      "datacoverage": 0.9714,
      "id": "GHCND:USC00045256",
      "elevationUnit": "METERS",
      "longitude": -118.28333
    },
    {
      "elevation": 2378.7,
      "mindate": "1993-12-01",
      "maxdate": "2022-08-31",
      "latitude": 37.6478,
      "name": "MAMMOTH LAKES RANGER STATION, CA US",
      "datacoverage": 1,
      "id": "GHCND:USC00045280",
      "elevationUnit": "METERS",
      "longitude": -118.9617
    },
    {
      "elevation": 3,
      "mindate": "1955-05-01",
      "maxdate": "1965-02-28",
      "latitude": 38.03333,
      "name": "MANDEVILLE ISLAND, CA US",
      "datacoverage": 0.9999,
      "id": "GHCND:USC00045296",
      "elevationUnit": "METERS",
      "longitude": -121.56667
    },
    {
      "elevation": 11.9,
      "mindate": "1965-01-01",
      "maxdate": "1977-06-30",
      "latitude": 37.8,
      "name": "MANTECA, CA US",
      "datacoverage": 1,
      "id": "GHCND:USC00045303",
      "elevationUnit": "METERS",
      "longitude": -121.2
    },
    {
      "elevation": 1752.6,
      "mindate": "1949-01-01",
      "maxdate": "2025-01-29",
      "latitude": 40.5411,
      "name": "MANZANITA LAKE, CA US",
      "datacoverage": 1,
      "id": "GHCND:USC00045311",
      "elevationUnit": "METERS",
      "longitude": -121.5766
    },
    {
      "elevation": 954.9,
      "mindate": "1948-07-01",
      "maxdate": "1951-01-31",
      "latitude": 34.9,
      "name": "MANZANITA MOUNTAIN, CA US",
      "datacoverage": 0.6764,
      "id": "GHCND:USC00045314",
      "elevationUnit": "METERS",
      "longitude": -120.08333
    },
    {
      "elevation": 454.2,
      "mindate": "1948-07-01",
      "maxdate": "1964-02-29",
      "latitude": 33.86667,
      "name": "MARCH FIELD, CA US",
      "datacoverage": 1,
      "id": "GHCND:USC00045326",
      "elevationUnit": "METERS",
      "longitude": -117.25
    },
    {
      "elevation": 14.9,
      "mindate": "1961-01-01",
      "maxdate": "1975-12-31",
      "latitude": 38.100278,
      "name": "MARE ISLAND, CA US",
      "datacoverage": 0.9946,
      "id": "GHCND:USC00045333",
      "elevationUnit": "METERS",
      "longitude": -122.268611
    },
    {
      "elevation": 205.7,
      "mindate": "1911-09-01",
      "maxdate": "1993-07-31",
      "latitude": 35.08333,
      "name": "MARICOPA, CA US",
      "datacoverage": 0.9685,
      "id": "GHCND:USC00045338",
      "elevationUnit": "METERS",
      "longitude": -119.38333
    },
    {
      "elevation": 613,
      "mindate": "1893-01-01",
      "maxdate": "1984-09-19",
      "latitude": 37.48333,
      "name": "MARIPOSA, CA US",
      "datacoverage": 0.8229,
      "id": "GHCND:USC00045346",
      "elevationUnit": "METERS",
      "longitude": -119.96667
    },
    {
      "elevation": 640.1,
      "mindate": "1984-10-01",
      "maxdate": "2016-03-01",
      "latitude": 37.495,
      "name": "MARIPOSA RANGER STATION, CA US",
      "datacoverage": 1,
      "id": "GHCND:USC00045352",
      "elevationUnit": "METERS",
      "longitude": -119.98583
    },
    {
      "elevation": 1685.5,
      "mindate": "1909-08-01",
      "maxdate": "2010-12-31",
      "latitude": 38.69194,
      "name": "MARKLEEVILLE, CA US",
      "datacoverage": 1,
      "id": "GHCND:USC00045356",
      "elevationUnit": "METERS",
      "longitude": -119.78028
    },
    {
      "elevation": 146.3,
      "mindate": "1970-03-01",
      "maxdate": "2025-03-07",
      "latitude": 38.4916,
      "name": "MARKLEY COVE, CA US",
      "datacoverage": 1,
      "id": "GHCND:USC00045360",
      "elevationUnit": "METERS",
      "longitude": -122.1241
    },
    {
      "elevation": 70.1,
      "mindate": "1948-07-01",
      "maxdate": "1951-09-30",
      "latitude": 37.97,
      "name": "MARTINEZ 2 S, CA US",
      "datacoverage": 1,
      "id": "GHCND:USC00045371",
      "elevationUnit": "METERS",
      "longitude": -122.1275
    },
    {
      "elevation": 78.9,
      "mindate": "1956-01-01",
      "maxdate": "1975-09-30",
      "latitude": 37.96667,
      "name": "MARTINEZ 3 SSE, CA US",
      "datacoverage": 0.9663,
      "id": "GHCND:USC00045372",
      "elevationUnit": "METERS",
      "longitude": -122.1
    },
    {
      "elevation": 7.9,
      "mindate": "1906-01-01",
      "maxdate": "1969-12-31",
      "latitude": 38.01667,
      "name": "MARTINEZ, CA US",
      "datacoverage": 0.5953,
      "id": "GHCND:USC00045377",
      "elevationUnit": "METERS",
      "longitude": -122.13333
    },
    {
      "elevation": 12.2,
      "mindate": "1970-02-01",
      "maxdate": "2019-08-31",
      "latitude": 38.0131,
      "name": "MARTINEZ WATER PLANT, CA US",
      "datacoverage": 1,
      "id": "GHCND:USC00045378",
      "elevationUnit": "METERS",
      "longitude": -122.1142
    },
    {
      "elevation": 17.4,
      "mindate": "1897-02-01",
      "maxdate": "2010-12-31",
      "latitude": 39.1458,
      "name": "MARYSVILLE, CA US",
      "datacoverage": 1,
      "id": "GHCND:USC00045385",
      "elevationUnit": "METERS",
      "longitude": -121.5852
    },
    {
      "elevation": 18,
      "mindate": "1885-01-01",
      "maxdate": "1950-11-30",
      "latitude": 39.13333,
      "name": "MARYSVILLE D ST BRID, CA US",
      "datacoverage": 0.6688,
      "id": "GHCND:USC00045391",
      "elevationUnit": "METERS",
      "longitude": -121.6
    },
    {
      "elevation": 1374.6,
      "mindate": "1947-10-01",
      "maxdate": "2011-03-31",
      "latitude": 37.885,
      "name": "MATHER, CA US",
      "datacoverage": 1,
      "id": "GHCND:USC00045400",
      "elevationUnit": "METERS",
      "longitude": -119.8561
    },
    {
      "elevation": 985.4,
      "mindate": "1909-10-01",
      "maxdate": "2025-03-06",
      "latitude": 41.25171,
      "name": "MCCLOUD, CA US",
      "datacoverage": 1,
      "id": "GHCND:USC00045449",
      "elevationUnit": "METERS",
      "longitude": -122.13827
    },
    {
      "elevation": 1366.1,
      "mindate": "1948-01-01",
      "maxdate": "1975-12-31",
      "latitude": 37.08333,
      "name": "MEADOW LAKE, CA US",
      "datacoverage": 0.9908,
      "id": "GHCND:USC00045496",
      "elevationUnit": "METERS",
      "longitude": -119.43333
    },
    {
      "elevation": -55.8,
      "mindate": "1905-09-01",
      "maxdate": "2024-12-31",
      "latitude": 33.5697,
      "name": "MECCA FIRE STATION, CA US",
      "datacoverage": 1,
      "id": "GHCND:USC00045502",
      "elevationUnit": "METERS",
      "longitude": -116.073
    },
    {
      "elevation": 52.1,
      "mindate": "1906-03-01",
      "maxdate": "1951-09-30",
      "latitude": 36.78333,
      "name": "MENDOTA 1 NNW, CA US",
      "datacoverage": 0.1261,
      "id": "GHCND:USC00045526",
      "elevationUnit": "METERS",
      "longitude": -120.36667
    },
    {
      "elevation": 52.1,
      "mindate": "1948-01-01",
      "maxdate": "1984-09-30",
      "latitude": 36.78333,
      "name": "MENDOTA DAM, CA US",
      "datacoverage": 0.9931,
      "id": "GHCND:USC00045528",
      "elevationUnit": "METERS",
      "longitude": -120.36667
    },
    {
      "elevation": 46.9,
      "mindate": "1899-01-01",
      "maxdate": "2025-03-06",
      "latitude": 37.2888,
      "name": "MERCED, CA US",
      "datacoverage": 1,
      "id": "GHCND:USC00045532",
      "elevationUnit": "METERS",
      "longitude": -120.5158
    },
    {
      "elevation": 51.8,
      "mindate": "1948-07-01",
      "maxdate": "1951-09-30",
      "latitude": 37.3053,
      "name": "MERCED 2, CA US",
      "datacoverage": 1,
      "id": "GHCND:USC00045535",
      "elevationUnit": "METERS",
      "longitude": -120.4857
    },
    {
      "elevation": 98.1,
      "mindate": "1906-12-01",
      "maxdate": "1950-06-30",
      "latitude": 37.53333,
      "name": "MERCED FALLS, CA US",
      "datacoverage": 0.5851,
      "id": "GHCND:USC00045541",
      "elevationUnit": "METERS",
      "longitude": -120.33333
    },
    {
      "elevation": 356.9,
      "mindate": "1932-09-01",
      "maxdate": "1967-11-30",
      "latitude": 36.7,
      "name": "MERCEY HOT SPRINGS, CA US",
      "datacoverage": 0.7943,
      "id": "GHCND:USC00045550",
      "elevationUnit": "METERS",
      "longitude": -120.86667
    },
    {
      "elevation": 1973,
      "mindate": "1961-01-01",
      "maxdate": "1966-08-31",
      "latitude": 38.81667,
      "name": "MEYERS 4 SW, CA US",
      "datacoverage": 0.9995,
      "id": "GHCND:USC00045571",
      "elevationUnit": "METERS",
      "longitude": -120.01667
    },
    {
      "elevation": 1934,
      "mindate": "1955-01-01",
      "maxdate": "1969-10-31",
      "latitude": 38.85,
      "name": "MEYERS INSPECTION ST, CA US",
      "datacoverage": 0.9993,
      "id": "GHCND:USC00045572",
      "elevationUnit": "METERS",
      "longitude": -120.01667
    },
    {
      "elevation": 1061,
      "mindate": "1948-07-01",
      "maxdate": "1951-09-30",
      "latitude": 39.05,
      "name": "MICHIGAN BLUF, CA US",
      "datacoverage": 1,
      "id": "GHCND:USC00045586",
      "elevationUnit": "METERS",
      "longitude": -120.73333
    },
    {
      "elevation": 341.7,
      "mindate": "1893-01-01",
      "maxdate": "2025-03-05",
      "latitude": 38.74774,
      "name": "MIDDLETOWN, CA US",
      "datacoverage": 1,
      "id": "GHCND:USC00045598",
      "elevationUnit": "METERS",
      "longitude": -122.62583
    },
    {
      "elevation": 545.9,
      "mindate": "1963-01-01",
      "maxdate": "1964-04-30",
      "latitude": 38.73333,
      "name": "MIDDLETOWN 4 WSW, CA US",
      "datacoverage": 0.9274,
      "id": "GHCND:USC00045599",
      "elevationUnit": "METERS",
      "longitude": -122.66667
    },
    {
      "elevation": 244.1,
      "mindate": "1911-09-01",
      "maxdate": "1962-03-31",
      "latitude": 35.5,
      "name": "MIDDLEWATER, CA US",
      "datacoverage": 0.9984,
      "id": "GHCND:USC00045602",
      "elevationUnit": "METERS",
      "longitude": -119.81667
    },
    {
      "elevation": 1481.3,
      "mindate": "1948-07-01",
      "maxdate": "1951-09-30",
      "latitude": 40.1414,
      "name": "MILFORD LAUFMAN RANGER STATION, CA US",
      "datacoverage": 1,
      "id": "GHCND:USC00045623",
      "elevationUnit": "METERS",
      "longitude": -120.3533
    },
    {
      "elevation": 897,
      "mindate": "1904-01-01",
      "maxdate": "1967-08-31",
      "latitude": 34.08333,
      "name": "MILL CREEK 2, CA US",
      "datacoverage": 0.9607,
      "id": "GHCND:USC00045629",
      "elevationUnit": "METERS",
      "longitude": -117.03333
    },
    {
      "elevation": 1507.2,
      "mindate": "1948-07-01",
      "maxdate": "1951-09-30",
      "latitude": 34.09139,
      "name": "MILL CREEK INTAKE, CA US",
      "datacoverage": 1,
      "id": "GHCND:USC00045632",
      "elevationUnit": "METERS",
      "longitude": -116.93639
    },
    {
      "elevation": 1485.9,
      "mindate": "1909-01-01",
      "maxdate": "2025-02-28",
      "latitude": 40.3458,
      "name": "MINERAL, CA US",
      "datacoverage": 1,
      "id": "GHCND:USC00045679",
      "elevationUnit": "METERS",
      "longitude": -121.6091
    },
    {
      "elevation": 81.1,
      "mindate": "2022-06-04",
      "maxdate": "2022-06-04",
      "latitude": 40.1816,
      "name": "MIRANDA 4 SE, CA US",
      "datacoverage": 1,
      "id": "GHCND:USC00045711",
      "elevationUnit": "METERS",
      "longitude": -123.7761
    },
    {
      "elevation": 110,
      "mindate": "1939-11-01",
      "maxdate": "1966-08-31",
      "latitude": 40.2,
      "name": "MIRANDA SPENGLER RAN, CA US",
      "datacoverage": 0.9938,
      "id": "GHCND:USC00045713",
      "elevationUnit": "METERS",
      "longitude": -123.76667
    },
    {
      "elevation": 1325.9,
      "mindate": "1958-01-01",
      "maxdate": "2011-04-30",
      "latitude": 34.9436,
      "name": "MITCHELL CAVERNS, CA US",
      "datacoverage": 1,
      "id": "GHCND:USC00045721",
      "elevationUnit": "METERS",
      "longitude": -115.5469
    },
    {
      "elevation": 26.8,
      "mindate": "2024-01-01",
      "maxdate": "2025-03-06",
      "latitude": 37.64366,
      "name": "MODESTO IRRIGATION DISTRICT, CA US",
      "datacoverage": 0.9652,
      "id": "GHCND:USC00045739",
      "elevationUnit": "METERS",
      "longitude": -120.00257
    },
    {
      "elevation": 27.1,
      "mindate": "1948-07-01",
      "maxdate": "1951-09-30",
      "latitude": 37.6255,
      "name": "MODESTO 2, CA US",
      "datacoverage": 1,
      "id": "GHCND:USC00045741",
      "elevationUnit": "METERS",
      "longitude": -121.0313
    },
    {
      "elevation": 833.6,
      "mindate": "1904-01-01",
      "maxdate": "2023-08-31",
      "latitude": 35.0492,
      "name": "MOJAVE, CA US",
      "datacoverage": 1,
      "id": "GHCND:USC00045756",
      "elevationUnit": "METERS",
      "longitude": -118.1619
    },
    {
      "elevation": 816.9,
      "mindate": "1963-04-01",
      "maxdate": "1969-06-30",
      "latitude": 35.03333,
      "name": "MOJAVE 2 ESE, CA US",
      "datacoverage": 0.9986,
      "id": "GHCND:USC00045758",
      "elevationUnit": "METERS",
      "longitude": -118.15
    },
    {
      "elevation": 1965.7,
      "mindate": "1944-01-01",
      "maxdate": "1988-02-29",
      "latitude": 38,
      "name": "MONO LAKE, CA US",
      "datacoverage": 0.8941,
      "id": "GHCND:USC00045779",
      "elevationUnit": "METERS",
      "longitude": -119.15
    },
    {
      "elevation": 171,
      "mindate": "1952-01-01",
      "maxdate": "1953-11-30",
      "latitude": 34.15,
      "name": "MONROVIA, CA US",
      "datacoverage": 1,
      "id": "GHCND:USC00045781",
      "elevationUnit": "METERS",
      "longitude": -118
    },
    {
      "elevation": 75,
      "mindate": "1979-01-01",
      "maxdate": "2011-02-26",
      "latitude": 34.0191,
      "name": "MONTEBELLO, CA US",
      "datacoverage": 1,
      "id": "GHCND:USC00045790",
      "elevationUnit": "METERS",
      "longitude": -118.1052
    },
    {
      "elevation": 37.2,
      "mindate": "1906-01-01",
      "maxdate": "2025-03-06",
      "latitude": 36.5927,
      "name": "MONTEREY, CA US",
      "datacoverage": 1,
      "id": "GHCND:USC00045795",
      "elevationUnit": "METERS",
      "longitude": -121.8555
    },
    {
      "elevation": 37.2,
      "mindate": "1995-01-01",
      "maxdate": "2019-03-31",
      "latitude": 36.5927,
      "name": "MONTEREY WEATHER FORECAST OFFICE, CA US",
      "datacoverage": 1,
      "id": "GHCND:USC00045802",
      "elevationUnit": "METERS",
      "longitude": -121.8555
    },
    {
      "elevation": 653.8,
      "mindate": "1908-10-01",
      "maxdate": "1941-06-30",
      "latitude": 40.85,
      "name": "MONTGOMERY CREEK, CA US",
      "datacoverage": 0.3843,
      "id": "GHCND:USC00045808",
      "elevationUnit": "METERS",
      "longitude": -121.916667
    },
    {
      "elevation": 641,
      "mindate": "1948-07-01",
      "maxdate": "1951-09-30",
      "latitude": 40.81667,
      "name": "MONTGOMERY CREEK 2 S, CA US",
      "datacoverage": 1,
      "id": "GHCND:USC00045809",
      "elevationUnit": "METERS",
      "longitude": -121.93333
    },
    {
      "elevation": 156.1,
      "mindate": "1957-01-01",
      "maxdate": "1970-01-31",
      "latitude": 38.5,
      "name": "MONTICELLO DAM, CA US",
      "datacoverage": 0.9998,
      "id": "GHCND:USC00045818",
      "elevationUnit": "METERS",
      "longitude": -122.11667
    },
    {
      "elevation": 177.1,
      "mindate": "1956-01-01",
      "maxdate": "1977-06-30",
      "latitude": 34.28333,
      "name": "MOORPARK, CA US",
      "datacoverage": 0.9924,
      "id": "GHCND:USC00045823",
      "elevationUnit": "METERS",
      "longitude": -118.88333
    },
    {
      "elevation": 937.3,
      "mindate": "1896-08-01",
      "maxdate": "1951-09-30",
      "latitude": 32.68167,
      "name": "MORENA DAM, CA US",
      "datacoverage": 0.1148,
      "id": "GHCND:USC00045840",
      "elevationUnit": "METERS",
      "longitude": -116.52083
    }
  ]
}
