{
  "metadata": {
    "resultset": {
      "offset": 14100,
      "count": 154115,
      "limit": 100
    }
  },
  "results": [
    {
      "elevation": 1266.1,
      "mindate": "2008-07-01",
      "maxdate": "2015-11-01",
      "latitude": 42.2008,
      "name": "KLAMATH FALLS 1 NW, OR US",
      "datacoverage": 1,
      "id": "COOP:354501",
      "elevationUnit": "METERS",
      "longitude": -121.7267
    },
    {
      "elevation": 1249.1,
      "mindate": "1894-03-01",
      "maxdate": "2001-05-01",
      "latitude": 42.20083,
      "name": "KLAMATH FALLS 2 SSW, OR US",
      "datacoverage": 0.9456,
      "id": "COOP:354506",
      "elevationUnit": "METERS",
      "longitude": -121.78139
    },
    {
      "elevation": 1247.2,
      "mindate": "1942-02-01",
      "maxdate": "2004-01-01",
      "latitude": 42.16444,
      "name": "KLAMATH FALLS AG STATION, OR US",
      "datacoverage": 0.5,
      "id": "COOP:354511",
      "elevationUnit": "METERS",
      "longitude": -121.75472
    },
    {
      "elevation": 198.1,
      "mindate": "1941-03-01",
      "maxdate": "1987-03-01",
      "latitude": 44.58333,
      "name": "LACOMB 1 WNW, OR US",
      "datacoverage": 0.9684,
      "id": "COOP:354603",
      "elevationUnit": "METERS",
      "longitude": -122.75
    },
    {
      "elevation": 158.5,
      "mindate": "1973-01-01",
      "maxdate": "2015-11-01",
      "latitude": 44.625,
      "name": "LACOMB 3 NNE, OR US",
      "datacoverage": 0.9923,
      "id": "COOP:354606",
      "elevationUnit": "METERS",
      "longitude": -122.7191
    },
    {
      "elevation": 857.1,
      "mindate": "1893-01-01",
      "maxdate": "1965-08-01",
      "latitude": 45.33333,
      "name": "LA GRANDE, OR US",
      "datacoverage": 0.9599,
      "id": "COOP:354615",
      "elevationUnit": "METERS",
      "longitude": -118.11667
    },
    {
      "elevation": 826.9,
      "mindate": "1940-12-01",
      "maxdate": "1966-09-01",
      "latitude": 45.28333,
      "name": "LA GRANDE MUNICIPAL AIRPORT, OR US",
      "datacoverage": 0.8639,
      "id": "COOP:354620",
      "elevationUnit": "METERS",
      "longitude": -118
    },
    {
      "elevation": 839.7,
      "mindate": "1965-09-01",
      "maxdate": "2015-11-01",
      "latitude": 45.3167,
      "name": "LA GRANDE, OR US",
      "datacoverage": 1,
      "id": "COOP:354622",
      "elevationUnit": "METERS",
      "longitude": -118.0747
    },
    {
      "elevation": 1061,
      "mindate": "1958-09-01",
      "maxdate": "1959-08-01",
      "latitude": 45.23333,
      "name": "LA GRANDE 19 WSW, OR US",
      "datacoverage": 1,
      "id": "COOP:354624",
      "elevationUnit": "METERS",
      "longitude": -118.45
    },
    {
      "elevation": 1054.9,
      "mindate": "1959-12-01",
      "maxdate": "1960-05-01",
      "latitude": 45.25,
      "name": "LA GRANDE 16 WSW, OR US",
      "datacoverage": 0.998,
      "id": "COOP:354625",
      "elevationUnit": "METERS",
      "longitude": -118.4
    },
    {
      "elevation": 1054.9,
      "mindate": "1960-08-01",
      "maxdate": "1962-06-01",
      "latitude": 45.25,
      "name": "LA GRANDE 16 WSW, OR US",
      "datacoverage": 0.958,
      "id": "COOP:354626",
      "elevationUnit": "METERS",
      "longitude": -118.4
    },
    {
      "elevation": 1314.9,
      "mindate": "1931-01-01",
      "maxdate": "1978-05-01",
      "latitude": 43.26667,
      "name": "LAKE 2 N, OR US",
      "datacoverage": 0.5941,
      "id": "COOP:354632",
      "elevationUnit": "METERS",
      "longitude": -120.63333
    },
    {
      "elevation": 731.5,
      "mindate": "1978-01-01",
      "maxdate": "1995-11-01",
      "latitude": 42.45,
      "name": "LAKE CREEK 3 NE, OR US",
      "datacoverage": 0.9211,
      "id": "COOP:354633",
      "elevationUnit": "METERS",
      "longitude": -122.56667
    },
    {
      "elevation": 568.5,
      "mindate": "1955-05-01",
      "maxdate": "2009-12-01",
      "latitude": 42.39028,
      "name": "LAKE CREEK, OR US",
      "datacoverage": 0.4999,
      "id": "COOP:354634",
      "elevationUnit": "METERS",
      "longitude": -122.62583
    },
    {
      "elevation": 534,
      "mindate": "1917-09-01",
      "maxdate": "1953-03-01",
      "latitude": 42.36667,
      "name": "LAKE CREEK 6 SE, OR US",
      "datacoverage": 0.9649,
      "id": "COOP:354635",
      "elevationUnit": "METERS",
      "longitude": -122.53333
    },
    {
      "elevation": 472.4,
      "mindate": "1996-01-01",
      "maxdate": "1998-05-01",
      "latitude": 42.42583,
      "name": "LAKE CREEK 1 E, OR US",
      "datacoverage": 0.9318,
      "id": "COOP:354636",
      "elevationUnit": "METERS",
      "longitude": -122.62306
    },
    {
      "elevation": 1490.5,
      "mindate": "1910-01-01",
      "maxdate": "2013-12-01",
      "latitude": 42.2414,
      "name": "LAKEVIEW 2 NNW, OR US",
      "datacoverage": 0.9367,
      "id": "COOP:354670",
      "elevationUnit": "METERS",
      "longitude": -120.3677
    },
    {
      "elevation": 30.2,
      "mindate": "1956-07-01",
      "maxdate": "2015-11-01",
      "latitude": 42.92413,
      "name": "LANGLOIS NUMBER 2, OR US",
      "datacoverage": 0.9762,
      "id": "COOP:354721",
      "elevationUnit": "METERS",
      "longitude": -124.44854
    },
    {
      "elevation": 38.1,
      "mindate": "1983-10-01",
      "maxdate": "1995-08-01",
      "latitude": 42.98333,
      "name": "LANGLOIS 5 NNE, OR US",
      "datacoverage": 0.9999,
      "id": "COOP:354732",
      "elevationUnit": "METERS",
      "longitude": -124.25
    },
    {
      "elevation": 1093.9,
      "mindate": "1978-01-01",
      "maxdate": "2015-11-01",
      "latitude": 44.9231,
      "name": "LAUREL MOUNTAIN, OR US",
      "datacoverage": 0.9979,
      "id": "COOP:354776",
      "elevationUnit": "METERS",
      "longitude": -123.575
    },
    {
      "elevation": 205.7,
      "mindate": "1934-01-01",
      "maxdate": "2015-11-01",
      "latitude": 44.1013,
      "name": "LEABURG 1 SW, OR US",
      "datacoverage": 0.9929,
      "id": "COOP:354811",
      "elevationUnit": "METERS",
      "longitude": -122.6886
    },
    {
      "elevation": 100.6,
      "mindate": "2008-07-01",
      "maxdate": "2015-11-01",
      "latitude": 44.5327,
      "name": "LEBANON, OR US",
      "datacoverage": 1,
      "id": "COOP:354819",
      "elevationUnit": "METERS",
      "longitude": -122.9013
    },
    {
      "elevation": 199.6,
      "mindate": "1948-07-01",
      "maxdate": "2014-01-01",
      "latitude": 45.5925,
      "name": "LEES CAMP, OR US",
      "datacoverage": 0.8194,
      "id": "COOP:354824",
      "elevationUnit": "METERS",
      "longitude": -123.5222
    },
    {
      "elevation": 1243.6,
      "mindate": "1978-01-01",
      "maxdate": "2015-11-01",
      "latitude": 43.35947,
      "name": "LEMOLO LAKE 3 NNW, OR US",
      "datacoverage": 1,
      "id": "COOP:354835",
      "elevationUnit": "METERS",
      "longitude": -122.22033
    },
    {
      "elevation": 323.1,
      "mindate": "1955-03-01",
      "maxdate": "2007-12-01",
      "latitude": 43.23306,
      "name": "LITTLE RIVER, OR US",
      "datacoverage": 0.9684,
      "id": "COOP:354939",
      "elevationUnit": "METERS",
      "longitude": -122.98722
    },
    {
      "elevation": 762.9,
      "mindate": "1944-09-01",
      "maxdate": "1954-07-01",
      "latitude": 43.88333,
      "name": "LITTLE VALLEY, OR US",
      "datacoverage": 0.7481,
      "id": "COOP:354943",
      "elevationUnit": "METERS",
      "longitude": -117.48333
    },
    {
      "elevation": 284.1,
      "mindate": "1949-05-01",
      "maxdate": "1967-11-01",
      "latitude": 43.65,
      "name": "LONDON, OR US",
      "datacoverage": 0.973,
      "id": "COOP:355008",
      "elevationUnit": "METERS",
      "longitude": -123.08333
    },
    {
      "elevation": 1140,
      "mindate": "1957-10-01",
      "maxdate": "2015-11-01",
      "latitude": 44.7135,
      "name": "LONG CREEK, OR US",
      "datacoverage": 0.9728,
      "id": "COOP:355020",
      "elevationUnit": "METERS",
      "longitude": -119.1018
    },
    {
      "elevation": 223.4,
      "mindate": "1978-01-01",
      "maxdate": "2015-11-01",
      "latitude": 43.19226,
      "name": "LOOKINGGLASS, OR US",
      "datacoverage": 0.9825,
      "id": "COOP:355026",
      "elevationUnit": "METERS",
      "longitude": -123.46931
    },
    {
      "elevation": 217,
      "mindate": "1955-09-01",
      "maxdate": "2015-11-01",
      "latitude": 43.9139,
      "name": "LOOKOUT POINT DAM, OR US",
      "datacoverage": 0.9986,
      "id": "COOP:355050",
      "elevationUnit": "METERS",
      "longitude": -122.76
    },
    {
      "elevation": 482.8,
      "mindate": "1970-05-01",
      "maxdate": "2015-11-01",
      "latitude": 42.67135,
      "name": "LOST CREEK DAM, OR US",
      "datacoverage": 0.9963,
      "id": "COOP:355055",
      "elevationUnit": "METERS",
      "longitude": -122.67718
    },
    {
      "elevation": 1152.1,
      "mindate": "2002-04-01",
      "maxdate": "2015-11-01",
      "latitude": 45.523,
      "name": "LOSTINE 4 NE, OR US",
      "datacoverage": 0.9817,
      "id": "COOP:355067",
      "elevationUnit": "METERS",
      "longitude": -117.3736
    },
    {
      "elevation": 225.9,
      "mindate": "1946-10-01",
      "maxdate": "1949-06-01",
      "latitude": 43.91667,
      "name": "LOWELL, OR US",
      "datacoverage": 1,
      "id": "COOP:355072",
      "elevationUnit": "METERS",
      "longitude": -122.78333
    },
    {
      "elevation": 307.8,
      "mindate": "1947-10-01",
      "maxdate": "1955-10-01",
      "latitude": 43.91667,
      "name": "LOWELL 1 E, OR US",
      "datacoverage": 0.7084,
      "id": "COOP:355074",
      "elevationUnit": "METERS",
      "longitude": -122.76667
    },
    {
      "elevation": 200.9,
      "mindate": "1951-02-01",
      "maxdate": "1959-05-01",
      "latitude": 43.95,
      "name": "FALL CREEK DAM, OR US",
      "datacoverage": 0.9906,
      "id": "COOP:355076",
      "elevationUnit": "METERS",
      "longitude": -122.76667
    },
    {
      "elevation": 575.2,
      "mindate": "1938-01-01",
      "maxdate": "2015-11-01",
      "latitude": 44.7327,
      "name": "LOWER HAY CREEK, OR US",
      "datacoverage": 0.937,
      "id": "COOP:355080",
      "elevationUnit": "METERS",
      "longitude": -120.9747
    },
    {
      "elevation": 237.7,
      "mindate": "2009-04-01",
      "maxdate": "2015-11-01",
      "latitude": 44.7938,
      "name": "LYONS 3 N, OR US",
      "datacoverage": 1,
      "id": "COOP:355092",
      "elevationUnit": "METERS",
      "longitude": -122.595
    },
    {
      "elevation": 696.5,
      "mindate": "1913-01-01",
      "maxdate": "2015-11-01",
      "latitude": 44.6236,
      "name": "MADRAS, OR US",
      "datacoverage": 0.9628,
      "id": "COOP:355139",
      "elevationUnit": "METERS",
      "longitude": -121.1101
    },
    {
      "elevation": 744.6,
      "mindate": "1952-03-01",
      "maxdate": "2015-11-01",
      "latitude": 44.6634,
      "name": "MADRAS 2 N, OR US",
      "datacoverage": 0.7333,
      "id": "COOP:355142",
      "elevationUnit": "METERS",
      "longitude": -121.146
    },
    {
      "elevation": 688.8,
      "mindate": "1942-08-01",
      "maxdate": "2012-12-01",
      "latitude": 43.9794,
      "name": "MALHEUR BRANCH EXPERIMENT STATION, OR US",
      "datacoverage": 0.9857,
      "id": "COOP:355160",
      "elevationUnit": "METERS",
      "longitude": -117.0247
    },
    {
      "elevation": 1255.2,
      "mindate": "1959-04-01",
      "maxdate": "2015-11-01",
      "latitude": 43.265,
      "name": "MALHEUR REFUGE HEADQUARTERS, OR US",
      "datacoverage": 0.9559,
      "id": "COOP:355162",
      "elevationUnit": "METERS",
      "longitude": -118.8447
    },
    {
      "elevation": 1235,
      "mindate": "1925-07-01",
      "maxdate": "1946-08-01",
      "latitude": 42.01667,
      "name": "MALIN, OR US",
      "datacoverage": 0.9526,
      "id": "COOP:355170",
      "elevationUnit": "METERS",
      "longitude": -121.41667
    },
    {
      "elevation": 1410.3,
      "mindate": "1968-10-01",
      "maxdate": "2007-04-01",
      "latitude": 42.00778,
      "name": "MALIN 5 E, OR US",
      "datacoverage": 0.9936,
      "id": "COOP:355174",
      "elevationUnit": "METERS",
      "longitude": -121.31861
    },
    {
      "elevation": 5.2,
      "mindate": "2005-10-01",
      "maxdate": "2015-11-01",
      "latitude": 44.0366,
      "name": "MAPLETON, OR US",
      "datacoverage": 0.9509,
      "id": "COOP:355204",
      "elevationUnit": "METERS",
      "longitude": -123.8627
    },
    {
      "elevation": 12.5,
      "mindate": "1975-05-01",
      "maxdate": "2013-12-28",
      "latitude": 44.0615,
      "name": "MAPLETON 2 NNW, OR US",
      "datacoverage": 0.0657,
      "id": "COOP:355206",
      "elevationUnit": "METERS",
      "longitude": -123.8847
    },
    {
      "elevation": 166.1,
      "mindate": "1948-08-01",
      "maxdate": "2014-01-01",
      "latitude": 44.1706,
      "name": "MARCOLA, OR US",
      "datacoverage": 0.8194,
      "id": "COOP:355213",
      "elevationUnit": "METERS",
      "longitude": -122.8714
    },
    {
      "elevation": 634,
      "mindate": "1955-10-12",
      "maxdate": "1974-01-01",
      "latitude": 42.81667,
      "name": "MARIAL 8 NNE, OR US",
      "datacoverage": 0.0787,
      "id": "COOP:355217",
      "elevationUnit": "METERS",
      "longitude": -123.85
    },
    {
      "elevation": 705,
      "mindate": "1974-06-01",
      "maxdate": "1984-03-01",
      "latitude": 42.81667,
      "name": "MARIAL 7 N, OR US",
      "datacoverage": 0.0492,
      "id": "COOP:355218",
      "elevationUnit": "METERS",
      "longitude": -123.9
    },
    {
      "elevation": 754.4,
      "mindate": "1948-07-01",
      "maxdate": "2015-11-01",
      "latitude": 44.6125,
      "name": "MARION FORKS FISH HATCHERY, OR US",
      "datacoverage": 0.9876,
      "id": "COOP:355221",
      "elevationUnit": "METERS",
      "longitude": -121.9486
    },
    {
      "elevation": 1188.7,
      "mindate": "1969-03-01",
      "maxdate": "2000-12-01",
      "latitude": 44.67194,
      "name": "MASON DAM, OR US",
      "datacoverage": 0.9998,
      "id": "COOP:355258",
      "elevationUnit": "METERS",
      "longitude": -117.99417
    },
    {
      "elevation": 647.1,
      "mindate": "1921-01-01",
      "maxdate": "1950-05-01",
      "latitude": 43.7,
      "name": "MC CREDIE SPRINGS, OR US",
      "datacoverage": 0.2437,
      "id": "COOP:355332",
      "elevationUnit": "METERS",
      "longitude": -122.28333
    },
    {
      "elevation": 1360.6,
      "mindate": "1955-11-01",
      "maxdate": "2012-12-01",
      "latitude": 42.4106,
      "name": "MC DERMITT 26 N, OR US",
      "datacoverage": 0.9154,
      "id": "COOP:355335",
      "elevationUnit": "METERS",
      "longitude": -117.8656
    },
    {
      "elevation": 417.9,
      "mindate": "1954-11-01",
      "maxdate": "1970-08-01",
      "latitude": 44.18333,
      "name": "MC KENZIE BRIDGE, OR US",
      "datacoverage": 1,
      "id": "COOP:355357",
      "elevationUnit": "METERS",
      "longitude": -122.16667
    },
    {
      "elevation": 450.5,
      "mindate": "1910-01-01",
      "maxdate": "2015-11-01",
      "latitude": 44.1793,
      "name": "MCKENZIE RIVER RANGER STATION, OR US",
      "datacoverage": 0.7955,
      "id": "COOP:355362",
      "elevationUnit": "METERS",
      "longitude": -122.1164
    },
    {
      "elevation": 43,
      "mindate": "1931-01-01",
      "maxdate": "1944-04-01",
      "latitude": 43.18333,
      "name": "MCKINLEY, OR US",
      "datacoverage": 0.994,
      "id": "COOP:355375",
      "elevationUnit": "METERS",
      "longitude": -124.03333
    },
    {
      "elevation": 47.2,
      "mindate": "1910-01-01",
      "maxdate": "2012-12-01",
      "latitude": 45.22139,
      "name": "MC MINNVILLE, OR US",
      "datacoverage": 0.9159,
      "id": "COOP:355384",
      "elevationUnit": "METERS",
      "longitude": -123.16222
    },
    {
      "elevation": 256,
      "mindate": "1936-12-01",
      "maxdate": "1942-09-01",
      "latitude": 45.6,
      "name": "MCNAMURS, OR US",
      "datacoverage": 1,
      "id": "COOP:355387",
      "elevationUnit": "METERS",
      "longitude": -123.48333
    },
    {
      "elevation": 146,
      "mindate": "1948-02-01",
      "maxdate": "1954-10-01",
      "latitude": 45.91667,
      "name": "MC NARY DAM, OR US",
      "datacoverage": 0.9261,
      "id": "COOP:355389",
      "elevationUnit": "METERS",
      "longitude": -119.3
    },
    {
      "elevation": 110,
      "mindate": "2009-01-01",
      "maxdate": "2015-11-01",
      "latitude": 45.9306,
      "name": "MCNARY DAM NUMBER 2, OR US",
      "datacoverage": 1,
      "id": "COOP:355392",
      "elevationUnit": "METERS",
      "longitude": -119.2955
    },
    {
      "elevation": 1131.1,
      "mindate": "1998-09-01",
      "maxdate": "2015-04-01",
      "latitude": 45.5122,
      "name": "MEACHAM NUMBER 2, OR US",
      "datacoverage": 0.8752,
      "id": "COOP:355394",
      "elevationUnit": "METERS",
      "longitude": -118.4231
    },
    {
      "elevation": 1137,
      "mindate": "1928-09-01",
      "maxdate": "1976-03-01",
      "latitude": 45.511788,
      "name": "MEACHAM, OR US",
      "datacoverage": 0.6902,
      "id": "COOP:355396",
      "elevationUnit": "METERS",
      "longitude": -118.424647
    },
    {
      "elevation": 444.1,
      "mindate": "1937-09-01",
      "maxdate": "2003-01-01",
      "latitude": 42.29611,
      "name": "MEDFORD EXPERIMENT STATION, OR US",
      "datacoverage": 0.9834,
      "id": "COOP:355424",
      "elevationUnit": "METERS",
      "longitude": -122.87
    },
    {
      "elevation": 400.3,
      "mindate": "1912-05-01",
      "maxdate": "2015-11-01",
      "latitude": 42.37503,
      "name": "MEDFORD INTERNATIONAL AIRPORT, OR US",
      "datacoverage": 0.9863,
      "id": "COOP:355429",
      "elevationUnit": "METERS",
      "longitude": -122.87702
    },
    {
      "elevation": 189,
      "mindate": "1929-01-01",
      "maxdate": "1966-04-01",
      "latitude": 44.78889,
      "name": "MEHAMA, OR US",
      "datacoverage": 0.9734,
      "id": "COOP:355447",
      "elevationUnit": "METERS",
      "longitude": -122.61667
    },
    {
      "elevation": 1243.9,
      "mindate": "1949-06-01",
      "maxdate": "1968-07-01",
      "latitude": 42.05,
      "name": "MERRILL 2 NW, OR US",
      "datacoverage": 0.9347,
      "id": "COOP:355505",
      "elevationUnit": "METERS",
      "longitude": -121.63333
    },
    {
      "elevation": 762.9,
      "mindate": "1913-01-01",
      "maxdate": "1993-11-01",
      "latitude": 44.58333,
      "name": "METOLIUS 1 W, OR US",
      "datacoverage": 0.5942,
      "id": "COOP:355515",
      "elevationUnit": "METERS",
      "longitude": -121.18333
    },
    {
      "elevation": 472.4,
      "mindate": "1910-01-01",
      "maxdate": "1994-11-01",
      "latitude": 45.46667,
      "name": "MIKKALO 6 W, OR US",
      "datacoverage": 0.8352,
      "id": "COOP:355545",
      "elevationUnit": "METERS",
      "longitude": -120.35
    },
    {
      "elevation": 548.9,
      "mindate": "1941-08-01",
      "maxdate": "1948-01-01",
      "latitude": 45.46667,
      "name": "MIKKALO NISH RANCH, OR US",
      "datacoverage": 0.9612,
      "id": "COOP:355550",
      "elevationUnit": "METERS",
      "longitude": -120.25
    },
    {
      "elevation": 295.7,
      "mindate": "1914-12-01",
      "maxdate": "2015-11-01",
      "latitude": 45.9428,
      "name": "MILTON FREEWATER, OR US",
      "datacoverage": 0.9843,
      "id": "COOP:355593",
      "elevationUnit": "METERS",
      "longitude": -118.4089
    },
    {
      "elevation": 399.9,
      "mindate": "1910-01-01",
      "maxdate": "1950-07-28",
      "latitude": 45.88333,
      "name": "MILTON 5 SE, OR US",
      "datacoverage": 0.7126,
      "id": "COOP:355598",
      "elevationUnit": "METERS",
      "longitude": -118.28333
    },
    {
      "elevation": 1102.2,
      "mindate": "1955-07-01",
      "maxdate": "1985-09-01",
      "latitude": 45.68333,
      "name": "MINAM 7 NE, OR US",
      "datacoverage": 0.9971,
      "id": "COOP:355610",
      "elevationUnit": "METERS",
      "longitude": -117.6
    },
    {
      "elevation": 153,
      "mindate": "1948-07-05",
      "maxdate": "1958-01-01",
      "latitude": 45.98333,
      "name": "MIST 1 SE, OR US",
      "datacoverage": 0.8194,
      "id": "COOP:355629",
      "elevationUnit": "METERS",
      "longitude": -123.25
    },
    {
      "elevation": 1011.9,
      "mindate": "1997-01-01",
      "maxdate": "2015-11-01",
      "latitude": 44.5681,
      "name": "MITCHELL 2 E, OR US",
      "datacoverage": 0.9958,
      "id": "COOP:355638",
      "elevationUnit": "METERS",
      "longitude": -120.1156
    },
    {
      "elevation": 806.2,
      "mindate": "1931-07-01",
      "maxdate": "1994-02-01",
      "latitude": 44.58333,
      "name": "MITCHELL 2 NW, OR US",
      "datacoverage": 0.8564,
      "id": "COOP:355641",
      "elevationUnit": "METERS",
      "longitude": -120.18333
    },
    {
      "elevation": 903.1,
      "mindate": "1962-07-01",
      "maxdate": "1965-05-01",
      "latitude": 44.56667,
      "name": "MITCHELL 2, OR US",
      "datacoverage": 0.9708,
      "id": "COOP:355642",
      "elevationUnit": "METERS",
      "longitude": -120.15
    },
    {
      "elevation": 371.9,
      "mindate": "1915-04-01",
      "maxdate": "1966-06-01",
      "latitude": 42.45,
      "name": "MODOC ORCHARD, OR US",
      "datacoverage": 0.9854,
      "id": "COOP:355656",
      "elevationUnit": "METERS",
      "longitude": -122.88333
    },
    {
      "elevation": 121.9,
      "mindate": "1936-01-01",
      "maxdate": "1976-12-01",
      "latitude": 45.15,
      "name": "MOLALLA, OR US",
      "datacoverage": 0.9857,
      "id": "COOP:355677",
      "elevationUnit": "METERS",
      "longitude": -122.56667
    },
    {
      "elevation": 197.2,
      "mindate": "2006-06-01",
      "maxdate": "2015-11-01",
      "latitude": 45.1783,
      "name": "MOLALLA 7 NE, OR US",
      "datacoverage": 1,
      "id": "COOP:355681",
      "elevationUnit": "METERS",
      "longitude": -122.5063
    },
    {
      "elevation": 88.1,
      "mindate": "1910-01-01",
      "maxdate": "1949-12-01",
      "latitude": 44.31667,
      "name": "MONROE, OR US",
      "datacoverage": 0.2666,
      "id": "COOP:355695",
      "elevationUnit": "METERS",
      "longitude": -123.3
    },
    {
      "elevation": 580,
      "mindate": "1930-04-01",
      "maxdate": "1949-02-01",
      "latitude": 44.61667,
      "name": "MONTGOMERY RANCH, OR US",
      "datacoverage": 0.9868,
      "id": "COOP:355707",
      "elevationUnit": "METERS",
      "longitude": -121.48333
    },
    {
      "elevation": 608.1,
      "mindate": "1961-02-01",
      "maxdate": "2015-11-01",
      "latitude": 44.8185,
      "name": "MONUMENT 2, OR US",
      "datacoverage": 0.9697,
      "id": "COOP:355711",
      "elevationUnit": "METERS",
      "longitude": -119.42
    },
    {
      "elevation": 603.8,
      "mindate": "1948-07-05",
      "maxdate": "2007-01-01",
      "latitude": 44.81806,
      "name": "MONUMENT RANGER STATION, OR US",
      "datacoverage": 0.789,
      "id": "COOP:355715",
      "elevationUnit": "METERS",
      "longitude": -119.42083
    },
    {
      "elevation": 289.9,
      "mindate": "1923-06-01",
      "maxdate": "1979-12-01",
      "latitude": 45.58333,
      "name": "MORGAN 3 NE, OR US",
      "datacoverage": 0.9558,
      "id": "COOP:355726",
      "elevationUnit": "METERS",
      "longitude": -119.88333
    },
    {
      "elevation": 570,
      "mindate": "1917-01-01",
      "maxdate": "2015-11-01",
      "latitude": 45.4825,
      "name": "MORO, OR US",
      "datacoverage": 0.979,
      "id": "COOP:355734",
      "elevationUnit": "METERS",
      "longitude": -120.7236
    },
    {
      "elevation": 2140.9,
      "mindate": "1965-10-01",
      "maxdate": "1975-02-01",
      "latitude": 45.31667,
      "name": "MOUNT FANNY, OR US",
      "datacoverage": 1,
      "id": "COOP:355788",
      "elevationUnit": "METERS",
      "longitude": -117.73333
    },
    {
      "elevation": 251.5,
      "mindate": "1980-07-01",
      "maxdate": "2007-09-01",
      "latitude": 43.09056,
      "name": "MYRTLE CREEK 8 NE, OR US",
      "datacoverage": 0.9939,
      "id": "COOP:355891",
      "elevationUnit": "METERS",
      "longitude": -123.16694
    },
    {
      "elevation": 363,
      "mindate": "1955-05-01",
      "maxdate": "1980-06-01",
      "latitude": 43.05,
      "name": "MYRTLE CREEK 12 ENE, OR US",
      "datacoverage": 0.9999,
      "id": "COOP:355892",
      "elevationUnit": "METERS",
      "longitude": -123.06667
    },
    {
      "elevation": 232.3,
      "mindate": "2008-06-01",
      "maxdate": "2015-11-01",
      "latitude": 43.00709,
      "name": "MYRTLE CREEK 1 SE, OR US",
      "datacoverage": 0.7779,
      "id": "COOP:355894",
      "elevationUnit": "METERS",
      "longitude": -123.27523
    },
    {
      "elevation": 56.4,
      "mindate": "2007-07-01",
      "maxdate": "2015-11-01",
      "latitude": 45.498,
      "name": "NATURE PARK BEAVERTON, OR US",
      "datacoverage": 0.9997,
      "id": "COOP:355945",
      "elevationUnit": "METERS",
      "longitude": -122.8394
    },
    {
      "elevation": 6.7,
      "mindate": "1948-07-05",
      "maxdate": "2014-01-01",
      "latitude": 45.7149,
      "name": "NEHALEM, OR US",
      "datacoverage": 0.8194,
      "id": "COOP:355969",
      "elevationUnit": "METERS",
      "longitude": -123.8869
    },
    {
      "elevation": 42.7,
      "mindate": "1969-04-01",
      "maxdate": "2015-11-01",
      "latitude": 45.8127,
      "name": "NEHALEM 9 NE, OR US",
      "datacoverage": 0.9911,
      "id": "COOP:355971",
      "elevationUnit": "METERS",
      "longitude": -123.7752
    },
    {
      "elevation": 1488,
      "mindate": "1961-12-01",
      "maxdate": "1972-07-01",
      "latitude": 42,
      "name": "NEW PINE CREEK, OR US",
      "datacoverage": 0.992,
      "id": "COOP:356027",
      "elevationUnit": "METERS",
      "longitude": -120.3
    },
    {
      "elevation": 37.2,
      "mindate": "1910-01-01",
      "maxdate": "2011-12-01",
      "latitude": 44.643,
      "name": "NEWPORT, OR US",
      "datacoverage": 0.9502,
      "id": "COOP:356032",
      "elevationUnit": "METERS",
      "longitude": -124.0555
    },
    {
      "elevation": 2.4,
      "mindate": "2012-01-01",
      "maxdate": "2015-11-01",
      "latitude": 44.6247,
      "name": "NEWPORT 1 SE, OR US",
      "datacoverage": 1,
      "id": "COOP:356033",
      "elevationUnit": "METERS",
      "longitude": -124.0469
    },
    {
      "elevation": 67.1,
      "mindate": "2009-02-01",
      "maxdate": "2015-11-01",
      "latitude": 44.6839,
      "name": "NEWPORT 3 N, OR US",
      "datacoverage": 1,
      "id": "COOP:356035",
      "elevationUnit": "METERS",
      "longitude": -124.0555
    },
    {
      "elevation": 5.1,
      "mindate": "1910-01-01",
      "maxdate": "2010-04-01",
      "latitude": 43.41333,
      "name": "NORTH BEND SOUTHWEST OREGON REGIONAL AIRPORT, OR US",
      "datacoverage": 0.9535,
      "id": "COOP:356073",
      "elevationUnit": "METERS",
      "longitude": -124.24361
    },
    {
      "elevation": 45.7,
      "mindate": "1963-01-01",
      "maxdate": "2007-08-01",
      "latitude": 45.28167,
      "name": "N WILLAMETTE EXPERIMENTAL STATION, OR US",
      "datacoverage": 0.9851,
      "id": "COOP:356151",
      "elevationUnit": "METERS",
      "longitude": -122.75167
    },
    {
      "elevation": 136.9,
      "mindate": "1948-07-06",
      "maxdate": "1984-10-01",
      "latitude": 44.05,
      "name": "NOTI 2 ESE, OR US",
      "datacoverage": 0.9547,
      "id": "COOP:356171",
      "elevationUnit": "METERS",
      "longitude": -123.41667
    },
    {
      "elevation": 143.3,
      "mindate": "1964-03-01",
      "maxdate": "1991-04-01",
      "latitude": 44.06667,
      "name": "NOTI 1 NW, OR US",
      "datacoverage": 0.9909,
      "id": "COOP:356173",
      "elevationUnit": "METERS",
      "longitude": -123.46667
    },
    {
      "elevation": 662.9,
      "mindate": "1937-11-01",
      "maxdate": "2015-11-01",
      "latitude": 43.8764,
      "name": "NYSSA, OR US",
      "datacoverage": 0.9883,
      "id": "COOP:356179",
      "elevationUnit": "METERS",
      "longitude": -116.9903
    }
  ]
}
