{
  "metadata": {
    "resultset": {
      "offset": 9200,
      "count": 154115,
      "limit": 100
    }
  },
  "results": [
    {
      "elevation": 376.7,
      "mindate": "1940-05-01",
      "maxdate": "2015-11-01",
      "latitude": 37.14002,
      "name": "SUMMERSVILLE 3 SE, MO US",
      "datacoverage": 0.9526,
      "id": "COOP:238184",
      "elevationUnit": "METERS",
      "longitude": -91.62707
    },
    {
      "elevation": 210.3,
      "mindate": "1948-12-01",
      "maxdate": "2010-12-01",
      "latitude": 39.6366,
      "name": "SUMNER 3 SW, MO US",
      "datacoverage": 0.8081,
      "id": "COOP:238188",
      "elevationUnit": "METERS",
      "longitude": -93.2899
    },
    {
      "elevation": 205.7,
      "mindate": "1941-01-01",
      "maxdate": "2015-11-01",
      "latitude": 38.9663,
      "name": "SWEET SPRINGS, MO US",
      "datacoverage": 0.9955,
      "id": "COOP:238223",
      "elevationUnit": "METERS",
      "longitude": -93.4195
    },
    {
      "elevation": 286.5,
      "mindate": "1956-08-01",
      "maxdate": "2015-11-01",
      "latitude": 36.59375,
      "name": "TABLE ROCK DAM, MO US",
      "datacoverage": 0.8709,
      "id": "COOP:238252",
      "elevationUnit": "METERS",
      "longitude": -93.31177
    },
    {
      "elevation": 318.5,
      "mindate": "1931-01-01",
      "maxdate": "2008-09-01",
      "latitude": 40.43444,
      "name": "TARKIO, MO US",
      "datacoverage": 0.8809,
      "id": "COOP:238289",
      "elevationUnit": "METERS",
      "longitude": -95.38833
    },
    {
      "elevation": 298.1,
      "mindate": "2008-11-01",
      "maxdate": "2014-01-01",
      "latitude": 40.4373,
      "name": "TARKIO NUMBER 2, MO US",
      "datacoverage": 1,
      "id": "COOP:238292",
      "elevationUnit": "METERS",
      "longitude": -95.3866
    },
    {
      "elevation": 167.6,
      "mindate": "2011-01-01",
      "maxdate": "2012-12-01",
      "latitude": 39.8969,
      "name": "TAYLOR 5 SW, MO US",
      "datacoverage": 0.9993,
      "id": "COOP:238300",
      "elevationUnit": "METERS",
      "longitude": -91.578
    },
    {
      "elevation": 251.8,
      "mindate": "1941-09-01",
      "maxdate": "2015-11-01",
      "latitude": 36.58674,
      "name": "TECUMSEH 1 W, MO US",
      "datacoverage": 0.9473,
      "id": "COOP:238313",
      "elevationUnit": "METERS",
      "longitude": -92.30685
    },
    {
      "elevation": 335.9,
      "mindate": "1940-02-01",
      "maxdate": "1969-06-01",
      "latitude": 36.96667,
      "name": "TOPAZ 4 NE, MO US",
      "datacoverage": 0.9746,
      "id": "COOP:238412",
      "elevationUnit": "METERS",
      "longitude": -92.2
    },
    {
      "elevation": 255.1,
      "mindate": "1931-01-01",
      "maxdate": "2015-11-01",
      "latitude": 40.0824,
      "name": "TRENTON, MO US",
      "datacoverage": 0.8724,
      "id": "COOP:238444",
      "elevationUnit": "METERS",
      "longitude": -93.6086
    },
    {
      "elevation": 170.7,
      "mindate": "1931-04-01",
      "maxdate": "2012-12-01",
      "latitude": 38.95,
      "name": "TROY, MO US",
      "datacoverage": 0.898,
      "id": "COOP:238456",
      "elevationUnit": "METERS",
      "longitude": -91
    },
    {
      "elevation": 229.8,
      "mindate": "1980-12-01",
      "maxdate": "2015-11-01",
      "latitude": 38.25974,
      "name": "TRUMAN DAM AND RESERVOIR, MO US",
      "datacoverage": 0.9477,
      "id": "COOP:238466",
      "elevationUnit": "METERS",
      "longitude": -93.41358
    },
    {
      "elevation": 402.9,
      "mindate": "1949-09-01",
      "maxdate": "1978-01-01",
      "latitude": 37.23333,
      "name": "TYRONE 2 NNW, MO US",
      "datacoverage": 1,
      "id": "COOP:238498",
      "elevationUnit": "METERS",
      "longitude": -91.88333
    },
    {
      "elevation": 164.6,
      "mindate": "1931-01-01",
      "maxdate": "2009-08-01",
      "latitude": 38.4444,
      "name": "UNION, MO US",
      "datacoverage": 0.9989,
      "id": "COOP:238515",
      "elevationUnit": "METERS",
      "longitude": -91.0041
    },
    {
      "elevation": 323.1,
      "mindate": "1931-01-01",
      "maxdate": "2015-11-01",
      "latitude": 40.475,
      "name": "UNIONVILLE, MO US",
      "datacoverage": 0.8499,
      "id": "COOP:238523",
      "elevationUnit": "METERS",
      "longitude": -93.0031
    },
    {
      "elevation": 287.1,
      "mindate": "1966-03-01",
      "maxdate": "2015-11-01",
      "latitude": 38.9482,
      "name": "UNITY VILLAGE, MO US",
      "datacoverage": 0.9539,
      "id": "COOP:238524",
      "elevationUnit": "METERS",
      "longitude": -94.397
    },
    {
      "elevation": 286.5,
      "mindate": "2007-01-01",
      "maxdate": "2007-05-01",
      "latitude": 38.9388,
      "name": "UNITY VILLAGE 2.6ESE, MO US",
      "datacoverage": 1,
      "id": "COOP:238526",
      "elevationUnit": "METERS",
      "longitude": -94.3558
    },
    {
      "elevation": 274.3,
      "mindate": "2010-11-01",
      "maxdate": "2015-11-01",
      "latitude": 38.4306,
      "name": "URICH 2 SW, MO US",
      "datacoverage": 1,
      "id": "COOP:238542",
      "elevationUnit": "METERS",
      "longitude": -94.0252
    },
    {
      "elevation": 210.6,
      "mindate": "2009-08-01",
      "maxdate": "2015-11-01",
      "latitude": 38.87287,
      "name": "VALLEY CITY, MO US",
      "datacoverage": 1,
      "id": "COOP:238555",
      "elevationUnit": "METERS",
      "longitude": -93.60382
    },
    {
      "elevation": 161.8,
      "mindate": "1931-01-01",
      "maxdate": "2015-11-01",
      "latitude": 38.5572,
      "name": "VALLEY PARK, MO US",
      "datacoverage": 0.9519,
      "id": "COOP:238561",
      "elevationUnit": "METERS",
      "longitude": -90.4922
    },
    {
      "elevation": 151.2,
      "mindate": "1937-02-01",
      "maxdate": "2006-05-01",
      "latitude": 36.99861,
      "name": "VAN BUREN, MO US",
      "datacoverage": 0.696,
      "id": "COOP:238569",
      "elevationUnit": "METERS",
      "longitude": -91.01056
    },
    {
      "elevation": 304.8,
      "mindate": "1963-08-01",
      "maxdate": "1995-01-01",
      "latitude": 36.97528,
      "name": "VAN BUREN RANGER STATION, MO US",
      "datacoverage": 0.9628,
      "id": "COOP:238571",
      "elevationUnit": "METERS",
      "longitude": -91.01861
    },
    {
      "elevation": 232.9,
      "mindate": "1944-09-01",
      "maxdate": "2015-11-01",
      "latitude": 39.3076,
      "name": "VANDALIA, MO US",
      "datacoverage": 0.9193,
      "id": "COOP:238577",
      "elevationUnit": "METERS",
      "longitude": -91.4926
    },
    {
      "elevation": 342.3,
      "mindate": "2003-10-01",
      "maxdate": "2013-12-01",
      "latitude": 36.9858,
      "name": "VANZANT 5 E, MO US",
      "datacoverage": 0.9997,
      "id": "COOP:238583",
      "elevationUnit": "METERS",
      "longitude": -92.2058
    },
    {
      "mindate": "1941-10-01",
      "maxdate": "1959-12-01",
      "latitude": 36.93333,
      "name": "VANZANT 4 SE, MO US",
      "datacoverage": 0.9863,
      "id": "COOP:238585",
      "longitude": -92.26667
    },
    {
      "elevation": 305.7,
      "mindate": "1932-01-01",
      "maxdate": "2015-11-01",
      "latitude": 38.4326,
      "name": "VERSAILLES, MO US",
      "datacoverage": 0.8352,
      "id": "COOP:238603",
      "elevationUnit": "METERS",
      "longitude": -92.8398
    },
    {
      "elevation": 391.7,
      "mindate": "1971-01-01",
      "maxdate": "2015-11-01",
      "latitude": 37.7109,
      "name": "VIBURNUM, MO US",
      "datacoverage": 0.9033,
      "id": "COOP:238609",
      "elevationUnit": "METERS",
      "longitude": -91.1336
    },
    {
      "elevation": 317,
      "mindate": "1948-08-01",
      "maxdate": "1959-10-01",
      "latitude": 38.08333,
      "name": "VICHY 2 SE, MO US",
      "datacoverage": 1,
      "id": "COOP:238612",
      "elevationUnit": "METERS",
      "longitude": -91.73333
    },
    {
      "elevation": 338.5,
      "mindate": "1943-07-01",
      "maxdate": "2015-11-01",
      "latitude": 38.13178,
      "name": "VICHY ROLLA NATIONAL AIRPORT, MO US",
      "datacoverage": 0.8205,
      "id": "COOP:238614",
      "elevationUnit": "METERS",
      "longitude": -91.76468
    },
    {
      "elevation": 234.7,
      "mindate": "1948-11-01",
      "maxdate": "2012-05-01",
      "latitude": 38.2016,
      "name": "VIENNA 2 WNW, MO US",
      "datacoverage": 0.7955,
      "id": "COOP:238620",
      "elevationUnit": "METERS",
      "longitude": -91.9811
    },
    {
      "elevation": 182.9,
      "mindate": "1948-08-01",
      "maxdate": "1958-07-01",
      "latitude": 38.5,
      "name": "VILLA RIDGE 2 NW, MO US",
      "datacoverage": 0.9742,
      "id": "COOP:238630",
      "elevationUnit": "METERS",
      "longitude": -90.91667
    },
    {
      "elevation": 274,
      "mindate": "1946-06-01",
      "maxdate": "2011-12-01",
      "latitude": 37.29,
      "name": "WACO, MO US",
      "datacoverage": 0.9746,
      "id": "COOP:238664",
      "elevationUnit": "METERS",
      "longitude": -94.6041
    },
    {
      "elevation": 125,
      "mindate": "1938-12-01",
      "maxdate": "2015-11-01",
      "latitude": 36.923,
      "name": "WAPPAPELLO DAM, MO US",
      "datacoverage": 0.9827,
      "id": "COOP:238700",
      "elevationUnit": "METERS",
      "longitude": -90.2836
    },
    {
      "elevation": 240.8,
      "mindate": "1931-01-01",
      "maxdate": "2015-11-01",
      "latitude": 38.78711,
      "name": "WARRENSBURG 4 NW, MO US",
      "datacoverage": 0.9451,
      "id": "COOP:238712",
      "elevationUnit": "METERS",
      "longitude": -93.79944
    },
    {
      "mindate": "1948-08-01",
      "maxdate": "1953-04-01",
      "latitude": 38.75,
      "name": "WARRENSBURG 4 E, MO US",
      "datacoverage": 1,
      "id": "COOP:238717",
      "longitude": -93.65
    },
    {
      "elevation": 252.1,
      "mindate": "1931-01-01",
      "maxdate": "2015-11-01",
      "latitude": 38.83463,
      "name": "WARRENTON 1 N, MO US",
      "datacoverage": 0.8931,
      "id": "COOP:238725",
      "elevationUnit": "METERS",
      "longitude": -91.13888
    },
    {
      "elevation": 214.9,
      "mindate": "1931-01-01",
      "maxdate": "1984-07-01",
      "latitude": 38.25,
      "name": "WARSAW 1, MO US",
      "datacoverage": 0.9891,
      "id": "COOP:238733",
      "elevationUnit": "METERS",
      "longitude": -93.36667
    },
    {
      "elevation": 192,
      "mindate": "1931-01-01",
      "maxdate": "1960-10-01",
      "latitude": 38.25,
      "name": "WARSAW 2, MO US",
      "datacoverage": 0.7737,
      "id": "COOP:238738",
      "elevationUnit": "METERS",
      "longitude": -93.36667
    },
    {
      "elevation": 426.7,
      "mindate": "2009-03-01",
      "maxdate": "2015-11-01",
      "latitude": 36.5753,
      "name": "WASHBURN 5 W, MO US",
      "datacoverage": 0.9998,
      "id": "COOP:238740",
      "elevationUnit": "METERS",
      "longitude": -94.0537
    },
    {
      "elevation": 148.4,
      "mindate": "1948-08-01",
      "maxdate": "2015-11-01",
      "latitude": 38.54155,
      "name": "WASHINGTON, MO US",
      "datacoverage": 0.3762,
      "id": "COOP:238746",
      "elevationUnit": "METERS",
      "longitude": -90.975
    },
    {
      "elevation": 373.7,
      "mindate": "1940-01-01",
      "maxdate": "2015-11-01",
      "latitude": 36.85814,
      "name": "WASOLA 5 N, MO US",
      "datacoverage": 0.9517,
      "id": "COOP:238754",
      "elevationUnit": "METERS",
      "longitude": -92.58758
    },
    {
      "elevation": 243.8,
      "mindate": "1931-01-01",
      "maxdate": "1986-09-01",
      "latitude": 39.21667,
      "name": "WAVERLY, MO US",
      "datacoverage": 0.9866,
      "id": "COOP:238768",
      "elevationUnit": "METERS",
      "longitude": -93.51667
    },
    {
      "elevation": 242.3,
      "mindate": "2010-12-01",
      "maxdate": "2015-11-01",
      "latitude": 39.20979,
      "name": "WAVERLY, MO US",
      "datacoverage": 1,
      "id": "COOP:238770",
      "elevationUnit": "METERS",
      "longitude": -93.52983
    },
    {
      "elevation": 271.3,
      "mindate": "1948-01-01",
      "maxdate": "2015-11-01",
      "latitude": 37.81313,
      "name": "WAYNESVILLE 2 W, MO US",
      "datacoverage": 0.9411,
      "id": "COOP:238777",
      "elevationUnit": "METERS",
      "longitude": -92.23161
    },
    {
      "elevation": 189,
      "mindate": "1945-01-01",
      "maxdate": "1974-11-01",
      "latitude": 38.56667,
      "name": "WEBSTER GROVES, MO US",
      "datacoverage": 0.9806,
      "id": "COOP:238791",
      "elevationUnit": "METERS",
      "longitude": -90.36667
    },
    {
      "elevation": 253,
      "mindate": "1940-06-01",
      "maxdate": "1964-02-01",
      "latitude": 37.88333,
      "name": "WEINGARTEN, MO US",
      "datacoverage": 0.9369,
      "id": "COOP:238799",
      "elevationUnit": "METERS",
      "longitude": -90.21667
    },
    {
      "elevation": 185.9,
      "mindate": "1957-06-01",
      "maxdate": "2015-11-01",
      "latitude": 38.69893,
      "name": "WELDON SPRING NWS, MO US",
      "datacoverage": 0.9658,
      "id": "COOP:238805",
      "elevationUnit": "METERS",
      "longitude": -90.68287
    },
    {
      "elevation": 176.8,
      "mindate": "1971-01-01",
      "maxdate": "2014-01-01",
      "latitude": 38.8127,
      "name": "WENTZVILLE, MO US",
      "datacoverage": 0.0194,
      "id": "COOP:238827",
      "elevationUnit": "METERS",
      "longitude": -90.8561
    },
    {
      "elevation": 336.8,
      "mindate": "1937-01-01",
      "maxdate": "2014-12-01",
      "latitude": 36.72667,
      "name": "WEST PLAINS, MO US",
      "datacoverage": 0.9872,
      "id": "COOP:238880",
      "elevationUnit": "METERS",
      "longitude": -91.87357
    },
    {
      "elevation": 182.9,
      "mindate": "1949-05-01",
      "maxdate": "1949-10-01",
      "latitude": 38.45,
      "name": "WESTPHALIA, MO US",
      "datacoverage": 0.9925,
      "id": "COOP:238882",
      "elevationUnit": "METERS",
      "longitude": -92
    },
    {
      "elevation": 349.9,
      "mindate": "1996-05-01",
      "maxdate": "2015-11-01",
      "latitude": 36.93577,
      "name": "WHITE CHURCH 6 NNE, MO US",
      "datacoverage": 0.9744,
      "id": "COOP:238910",
      "elevationUnit": "METERS",
      "longitude": -91.76333
    },
    {
      "elevation": 249.9,
      "mindate": "1948-11-01",
      "maxdate": "1954-08-01",
      "latitude": 38.91667,
      "name": "WILLIAMSBURG 2 WSW, MO US",
      "datacoverage": 0.944,
      "id": "COOP:238960",
      "elevationUnit": "METERS",
      "longitude": -91.75
    },
    {
      "elevation": 147.8,
      "mindate": "1931-01-01",
      "maxdate": "2015-11-01",
      "latitude": 36.98922,
      "name": "WILLIAMSVILLE, MO US",
      "datacoverage": 0.9529,
      "id": "COOP:238984",
      "elevationUnit": "METERS",
      "longitude": -90.59462
    },
    {
      "elevation": 399.3,
      "mindate": "1931-01-01",
      "maxdate": "2001-05-01",
      "latitude": 36.98111,
      "name": "WILLOW SPRGS RD KUKU, MO US",
      "datacoverage": 0.9917,
      "id": "COOP:238995",
      "elevationUnit": "METERS",
      "longitude": -91.99139
    },
    {
      "elevation": 396.8,
      "mindate": "1948-01-01",
      "maxdate": "1973-10-01",
      "latitude": 36.98333,
      "name": "WILLOW SPRGS FOREST, MO US",
      "datacoverage": 0.9479,
      "id": "COOP:239000",
      "elevationUnit": "METERS",
      "longitude": -91.98333
    },
    {
      "elevation": 256,
      "mindate": "1948-07-01",
      "maxdate": "2009-11-01",
      "latitude": 38.5319,
      "name": "WINDSOR, MO US",
      "datacoverage": 0.9376,
      "id": "COOP:239032",
      "elevationUnit": "METERS",
      "longitude": -93.5241
    },
    {
      "elevation": 267.3,
      "mindate": "2010-01-01",
      "maxdate": "2015-11-01",
      "latitude": 38.5331,
      "name": "WINDSOR, MO US",
      "datacoverage": 1,
      "id": "COOP:239034",
      "elevationUnit": "METERS",
      "longitude": -93.5316
    },
    {
      "elevation": 292.9,
      "mindate": "2010-09-01",
      "maxdate": "2015-11-01",
      "latitude": 36.97877,
      "name": "WINONA 3 SW, MO US",
      "datacoverage": 0.9685,
      "id": "COOP:239056",
      "elevationUnit": "METERS",
      "longitude": -91.38456
    },
    {
      "mindate": "1938-07-01",
      "maxdate": "1948-01-01",
      "latitude": 37,
      "name": "WINONA RANGER STATION, MO US",
      "datacoverage": 0.9126,
      "id": "COOP:239059",
      "longitude": -91.33333
    },
    {
      "elevation": 128,
      "mindate": "1936-10-01",
      "maxdate": "2013-12-01",
      "latitude": 37.1563,
      "name": "ZALMA 4 E, MO US",
      "datacoverage": 0.9601,
      "id": "COOP:239178",
      "elevationUnit": "METERS",
      "longitude": -90.0105
    },
    {
      "elevation": 1205.5,
      "mindate": "1971-01-01",
      "maxdate": "2014-01-01",
      "latitude": 45.5443,
      "name": "ABSAROKEE, MT US",
      "datacoverage": 0.0134,
      "id": "COOP:240019",
      "elevationUnit": "METERS",
      "longitude": -109.3935
    },
    {
      "elevation": 1529.2,
      "mindate": "1911-01-01",
      "maxdate": "2015-11-01",
      "latitude": 47.0091,
      "name": "ADEL, MT US",
      "datacoverage": 0.4218,
      "id": "COOP:240056",
      "elevationUnit": "METERS",
      "longitude": -111.6741
    },
    {
      "elevation": 932.7,
      "mindate": "1958-04-01",
      "maxdate": "2015-11-01",
      "latitude": 47.0036,
      "name": "ALBERTON, MT US",
      "datacoverage": 0.5679,
      "id": "COOP:240075",
      "elevationUnit": "METERS",
      "longitude": -114.4781
    },
    {
      "elevation": 1009.5,
      "mindate": "1945-07-01",
      "maxdate": "2015-11-01",
      "latitude": 45.2088,
      "name": "ALBION 1 N, MT US",
      "datacoverage": 0.8568,
      "id": "COOP:240088",
      "elevationUnit": "METERS",
      "longitude": -104.2647
    },
    {
      "elevation": 1562.1,
      "mindate": "1950-06-01",
      "maxdate": "1980-01-01",
      "latitude": 45.31667,
      "name": "ALDER, MT US",
      "datacoverage": 0.7443,
      "id": "COOP:240100",
      "elevationUnit": "METERS",
      "longitude": -112.11667
    },
    {
      "elevation": 1783.1,
      "mindate": "1956-10-01",
      "maxdate": "2008-01-01",
      "latitude": 45.0708,
      "name": "ALDER 17 S, MT US",
      "datacoverage": 1,
      "id": "COOP:240110",
      "elevationUnit": "METERS",
      "longitude": -112.0575
    },
    {
      "elevation": 1752.3,
      "mindate": "2009-01-01",
      "maxdate": "2015-11-01",
      "latitude": 45.0962,
      "name": "ALDER 19 S, MT US",
      "datacoverage": 0.9885,
      "id": "COOP:240111",
      "elevationUnit": "METERS",
      "longitude": -112.0856
    },
    {
      "elevation": 1612.4,
      "mindate": "1981-02-01",
      "maxdate": "1993-04-01",
      "latitude": 45.25,
      "name": "ALDER RUBY DAM, MT US",
      "datacoverage": 0.9937,
      "id": "COOP:240115",
      "elevationUnit": "METERS",
      "longitude": -112.11667
    },
    {
      "elevation": 1051.6,
      "mindate": "1948-07-02",
      "maxdate": "2014-01-01",
      "latitude": 45.0155,
      "name": "ALZADA, MT US",
      "datacoverage": 0.88,
      "id": "COOP:240165",
      "elevationUnit": "METERS",
      "longitude": -104.4108
    },
    {
      "elevation": 1018.9,
      "mindate": "1951-03-01",
      "maxdate": "1955-09-01",
      "latitude": 45.06667,
      "name": "ALZADA 6 NW, MT US",
      "datacoverage": 0.4518,
      "id": "COOP:240179",
      "elevationUnit": "METERS",
      "longitude": -104.51667
    },
    {
      "elevation": 1043,
      "mindate": "1951-03-01",
      "maxdate": "1953-05-01",
      "latitude": 45.08333,
      "name": "ALZADA 8 NW, MT US",
      "datacoverage": 0.998,
      "id": "COOP:240181",
      "elevationUnit": "METERS",
      "longitude": -104.53333
    },
    {
      "elevation": 1635.6,
      "mindate": "1982-08-01",
      "maxdate": "2011-12-01",
      "latitude": 46.13439,
      "name": "ANACONDA, MT US",
      "datacoverage": 0.9943,
      "id": "COOP:240199",
      "elevationUnit": "METERS",
      "longitude": -112.97461
    },
    {
      "elevation": 1452.1,
      "mindate": "1952-03-01",
      "maxdate": "1974-05-01",
      "latitude": 45.65,
      "name": "ANCENEY, MT US",
      "datacoverage": 0.9438,
      "id": "COOP:240202",
      "elevationUnit": "METERS",
      "longitude": -111.36667
    },
    {
      "elevation": 1647.1,
      "mindate": "1949-06-01",
      "maxdate": "1977-12-01",
      "latitude": 45.4,
      "name": "APEX 2 NW, MT US",
      "datacoverage": 0.9358,
      "id": "COOP:240236",
      "elevationUnit": "METERS",
      "longitude": -112.71667
    },
    {
      "elevation": 1830,
      "mindate": "1949-07-01",
      "maxdate": "1958-06-01",
      "latitude": 45.28333,
      "name": "ARGENTA, MT US",
      "datacoverage": 0.9538,
      "id": "COOP:240255",
      "elevationUnit": "METERS",
      "longitude": -112.86667
    },
    {
      "elevation": 1675.2,
      "mindate": "1949-06-01",
      "maxdate": "1963-04-01",
      "latitude": 44.96667,
      "name": "ARMSTEAD, MT US",
      "datacoverage": 0.6421,
      "id": "COOP:240274",
      "elevationUnit": "METERS",
      "longitude": -112.86667
    },
    {
      "elevation": 1189.9,
      "mindate": "1927-08-01",
      "maxdate": "1949-10-01",
      "latitude": 45.35,
      "name": "ASHLAND 17 S, MT US",
      "datacoverage": 0.9961,
      "id": "COOP:240325",
      "elevationUnit": "METERS",
      "longitude": -106.26667
    },
    {
      "elevation": 896.1,
      "mindate": "1948-07-02",
      "maxdate": "2014-01-01",
      "latitude": 45.5938,
      "name": "ASHLAND RANGER STATION, MT US",
      "datacoverage": 0.88,
      "id": "COOP:240330",
      "elevationUnit": "METERS",
      "longitude": -106.2722
    },
    {
      "elevation": 1240.5,
      "mindate": "1907-06-01",
      "maxdate": "2015-11-01",
      "latitude": 47.4926,
      "name": "AUGUSTA, MT US",
      "datacoverage": 0.9178,
      "id": "COOP:240364",
      "elevationUnit": "METERS",
      "longitude": -112.397
    },
    {
      "elevation": 1478.9,
      "mindate": "1960-06-01",
      "maxdate": "1967-06-01",
      "latitude": 47.55,
      "name": "AUGUSTA 11 WNW, MT US",
      "datacoverage": 0.9416,
      "id": "COOP:240370",
      "elevationUnit": "METERS",
      "longitude": -112.61667
    },
    {
      "elevation": 1478.6,
      "mindate": "1950-05-01",
      "maxdate": "2015-11-01",
      "latitude": 46.6456,
      "name": "AUSTIN 1 W, MT US",
      "datacoverage": 0.9504,
      "id": "COOP:240375",
      "elevationUnit": "METERS",
      "longitude": -112.2656
    },
    {
      "elevation": 1310.6,
      "mindate": "1911-01-01",
      "maxdate": "2012-12-01",
      "latitude": 48.9388,
      "name": "BABB 6 NE, MT US",
      "datacoverage": 0.9485,
      "id": "COOP:240392",
      "elevationUnit": "METERS",
      "longitude": -113.3719
    },
    {
      "elevation": 615.1,
      "mindate": "2006-10-01",
      "maxdate": "2014-12-01",
      "latitude": 48.1404,
      "name": "BAINVILLE 6 NE, MT US",
      "datacoverage": 0.9594,
      "id": "COOP:240408",
      "elevationUnit": "METERS",
      "longitude": -104.1319
    },
    {
      "elevation": 894,
      "mindate": "1922-10-01",
      "maxdate": "2012-12-01",
      "latitude": 46.3662,
      "name": "BAKER, MT US",
      "datacoverage": 0.9418,
      "id": "COOP:240412",
      "elevationUnit": "METERS",
      "longitude": -104.2821
    },
    {
      "elevation": 902.9,
      "mindate": "2011-01-01",
      "maxdate": "2015-11-01",
      "latitude": 46.35205,
      "name": "BAKER MUNICIPAL AIRPORT, MT US",
      "datacoverage": 1,
      "id": "COOP:240413",
      "elevationUnit": "METERS",
      "longitude": -104.26134
    },
    {
      "elevation": 914.4,
      "mindate": "1919-04-01",
      "maxdate": "2011-12-01",
      "latitude": 45.9497,
      "name": "BALLANTINE, MT US",
      "datacoverage": 0.8634,
      "id": "COOP:240432",
      "elevationUnit": "METERS",
      "longitude": -108.1438
    },
    {
      "elevation": 2425,
      "mindate": "1969-10-01",
      "maxdate": "1972-06-01",
      "latitude": 45.8,
      "name": "BANGTAIL RIDGE, MT US",
      "datacoverage": 1,
      "id": "COOP:240443",
      "elevationUnit": "METERS",
      "longitude": -110.8
    },
    {
      "elevation": 1112.5,
      "mindate": "1941-01-01",
      "maxdate": "1998-04-01",
      "latitude": 46.2986,
      "name": "RYEGATE, MT US",
      "datacoverage": 0.9856,
      "id": "COOP:240466",
      "elevationUnit": "METERS",
      "longitude": -109.2561
    },
    {
      "elevation": 1634.9,
      "mindate": "1949-06-01",
      "maxdate": "1970-12-01",
      "latitude": 46.26667,
      "name": "BASIN, MT US",
      "datacoverage": 0.9498,
      "id": "COOP:240515",
      "elevationUnit": "METERS",
      "longitude": -112.26667
    },
    {
      "elevation": 1687.1,
      "mindate": "1971-02-01",
      "maxdate": "1973-08-01",
      "latitude": 46.28333,
      "name": "BASIN 3 W, MT US",
      "datacoverage": 0.7424,
      "id": "COOP:240520",
      "elevationUnit": "METERS",
      "longitude": -112.3
    },
    {
      "elevation": 903.1,
      "mindate": "1948-07-07",
      "maxdate": "2015-11-01",
      "latitude": 48.6715,
      "name": "BAYLOR, MT US",
      "datacoverage": 0.1507,
      "id": "COOP:240554",
      "elevationUnit": "METERS",
      "longitude": -106.4808
    },
    {
      "elevation": 1189.9,
      "mindate": "1951-09-01",
      "maxdate": "1974-06-01",
      "latitude": 45.08333,
      "name": "BELFRY 4 SSW, MT US",
      "datacoverage": 0.96,
      "id": "COOP:240617",
      "elevationUnit": "METERS",
      "longitude": -109.03333
    },
    {
      "elevation": 1350.7,
      "mindate": "1941-01-01",
      "maxdate": "2015-11-01",
      "latitude": 45.78759,
      "name": "BOZEMAN GALLATIN FIELD AIRPORT, MT US",
      "datacoverage": 0.9289,
      "id": "COOP:240622",
      "elevationUnit": "METERS",
      "longitude": -111.16152
    },
    {
      "elevation": 1248.5,
      "mindate": "2012-01-01",
      "maxdate": "2015-10-01",
      "latitude": 45.8009,
      "name": "BELGRADE 2 NW, MT US",
      "datacoverage": 0.8262,
      "id": "COOP:240625",
      "elevationUnit": "METERS",
      "longitude": -111.2092
    },
    {
      "elevation": 985.7,
      "mindate": "1949-06-01",
      "maxdate": "2015-11-01",
      "latitude": 45.6946,
      "name": "BELLTOWER, MT US",
      "datacoverage": 0.9837,
      "id": "COOP:240636",
      "elevationUnit": "METERS",
      "longitude": -104.3856
    },
    {
      "elevation": 959.5,
      "mindate": "1913-01-01",
      "maxdate": "1948-12-01",
      "latitude": 48.5002,
      "name": "WEST GLACIER, MT US",
      "datacoverage": 0.9444,
      "id": "COOP:240662",
      "elevationUnit": "METERS",
      "longitude": -113.9847
    },
    {
      "elevation": 1009.5,
      "mindate": "1950-07-01",
      "maxdate": "2015-11-01",
      "latitude": 45.10074,
      "name": "BIDDLE, MT US",
      "datacoverage": 0.9414,
      "id": "COOP:240739",
      "elevationUnit": "METERS",
      "longitude": -105.31856
    },
    {
      "elevation": 1106.7,
      "mindate": "1963-10-01",
      "maxdate": "2015-11-01",
      "latitude": 45.0429,
      "name": "BIDDLE 8 SW, MT US",
      "datacoverage": 0.9984,
      "id": "COOP:240743",
      "elevationUnit": "METERS",
      "longitude": -105.4799
    },
    {
      "elevation": 887.9,
      "mindate": "1966-06-01",
      "maxdate": "1971-12-01",
      "latitude": 47.8,
      "name": "BIG ARM, MT US",
      "datacoverage": 0.9997,
      "id": "COOP:240748",
      "elevationUnit": "METERS",
      "longitude": -114.3
    },
    {
      "elevation": 908,
      "mindate": "1938-11-01",
      "maxdate": "2015-11-01",
      "latitude": 47.87683,
      "name": "BIGFORK 13 S, MT US",
      "datacoverage": 0.9709,
      "id": "COOP:240755",
      "elevationUnit": "METERS",
      "longitude": -114.03361
    }
  ]
}
