{
  "metadata": {
    "resultset": {
      "offset": 21200,
      "count": 154115,
      "limit": 100
    }
  },
  "results": [
    {
      "elevation": 182.9,
      "mindate": "1919-01-01",
      "maxdate": "1934-11-01",
      "latitude": 20.23333,
      "name": "PUAKEA RANCH, HI US",
      "datacoverage": 0.9896,
      "id": "COOP:518181",
      "elevationUnit": "METERS",
      "longitude": -155.86667
    },
    {
      "elevation": 14.9,
      "mindate": "1939-11-01",
      "maxdate": "1976-01-01",
      "latitude": 19.98328,
      "name": "PUAKO 95.1, HI US",
      "datacoverage": 0.9793,
      "id": "COOP:518186",
      "elevationUnit": "METERS",
      "longitude": -155.82856
    },
    {
      "elevation": 487.7,
      "mindate": "1939-08-01",
      "maxdate": "2000-10-01",
      "latitude": 22.03222,
      "name": "PUEHU RIDGE 1040, HI US",
      "datacoverage": 0.9959,
      "id": "COOP:518205",
      "elevationUnit": "METERS",
      "longitude": -159.69278
    },
    {
      "elevation": 100.3,
      "mindate": "1935-05-01",
      "maxdate": "2015-09-01",
      "latitude": 21.9656,
      "name": "PUHI 1013, HI US",
      "datacoverage": 0.9637,
      "id": "COOP:518217",
      "elevationUnit": "METERS",
      "longitude": -159.3964
    },
    {
      "elevation": 3,
      "mindate": "1970-08-01",
      "maxdate": "1976-10-01",
      "latitude": 21.08333,
      "name": "PUKOO 545.1, HI US",
      "datacoverage": 0.0527,
      "id": "COOP:518221",
      "elevationUnit": "METERS",
      "longitude": -156.8
    },
    {
      "elevation": 854,
      "mindate": "1919-01-01",
      "maxdate": "1948-07-01",
      "latitude": 20.06667,
      "name": "PUUALALA, HI US",
      "datacoverage": 1,
      "id": "COOP:518236",
      "elevationUnit": "METERS",
      "longitude": -155.61667
    },
    {
      "elevation": 136.9,
      "mindate": "1925-01-01",
      "maxdate": "1963-04-01",
      "latitude": 20.83333,
      "name": "PULEHU 315, HI US",
      "datacoverage": 1,
      "id": "COOP:518275",
      "elevationUnit": "METERS",
      "longitude": -156.41667
    },
    {
      "elevation": 4,
      "mindate": "1940-01-01",
      "maxdate": "1971-04-01",
      "latitude": 21.58444,
      "name": "PUNALUU PUMP 905.2, HI US",
      "datacoverage": 1,
      "id": "COOP:518310",
      "elevationUnit": "METERS",
      "longitude": -157.89139
    },
    {
      "elevation": 4,
      "mindate": "1972-06-01",
      "maxdate": "2014-01-01",
      "latitude": 21.58444,
      "name": "PUNALUU PUMP 905.2, HI US",
      "datacoverage": 0.0329,
      "id": "COOP:518314",
      "elevationUnit": "METERS",
      "longitude": -157.89139
    },
    {
      "elevation": 243.8,
      "mindate": "1992-01-01",
      "maxdate": "2015-11-01",
      "latitude": 19.6158,
      "name": "PUNA MACADAMIA OCHD 91.11, HI US",
      "datacoverage": 1,
      "id": "COOP:518315",
      "elevationUnit": "METERS",
      "longitude": -155.0838
    },
    {
      "elevation": 103,
      "mindate": "1950-03-01",
      "maxdate": "2015-11-01",
      "latitude": 21.3103,
      "name": "PUNCHBOWL CRATER 709, HI US",
      "datacoverage": 1,
      "id": "COOP:518316",
      "elevationUnit": "METERS",
      "longitude": -157.8458
    },
    {
      "elevation": 908.3,
      "mindate": "1919-01-01",
      "maxdate": "2010-12-01",
      "latitude": 20.82556,
      "name": "PUOHOKAMOA 2 343, HI US",
      "datacoverage": 0.913,
      "id": "COOP:518336",
      "elevationUnit": "METERS",
      "longitude": -156.21278
    },
    {
      "elevation": 159.1,
      "mindate": "1919-01-01",
      "maxdate": "1936-12-01",
      "latitude": 21.65,
      "name": "PUPUKEA, HI US",
      "datacoverage": 0.9212,
      "id": "COOP:518340",
      "elevationUnit": "METERS",
      "longitude": -158.05
    },
    {
      "elevation": 228,
      "mindate": "1968-09-01",
      "maxdate": "2014-01-01",
      "latitude": 21.6427,
      "name": "PUPUKEA HEIGHTS 896.4, HI US",
      "datacoverage": 0.0367,
      "id": "COOP:518342",
      "elevationUnit": "METERS",
      "longitude": -158.0371
    },
    {
      "elevation": 198.1,
      "mindate": "1937-01-01",
      "maxdate": "1946-03-01",
      "latitude": 21.65,
      "name": "PUPUKEA FARM, HI US",
      "datacoverage": 1,
      "id": "COOP:518345",
      "elevationUnit": "METERS",
      "longitude": -158.05
    },
    {
      "elevation": 655.9,
      "mindate": "1942-12-01",
      "maxdate": "1963-04-01",
      "latitude": 19.81667,
      "name": "PUU ANAHULU 93A, HI US",
      "datacoverage": 0.8818,
      "id": "COOP:518346",
      "elevationUnit": "METERS",
      "longitude": -155.85
    },
    {
      "elevation": 24.1,
      "mindate": "1919-01-01",
      "maxdate": "1963-04-01",
      "latitude": 21.88333,
      "name": "PUUHI 940, HI US",
      "datacoverage": 1,
      "id": "COOP:518352",
      "elevationUnit": "METERS",
      "longitude": -159.43333
    },
    {
      "elevation": 869,
      "mindate": "1932-06-01",
      "maxdate": "1967-05-01",
      "latitude": 20.03333,
      "name": "PUU KAPU 192.1, HI US",
      "datacoverage": 1,
      "id": "COOP:518383",
      "elevationUnit": "METERS",
      "longitude": -155.63333
    },
    {
      "elevation": 987.6,
      "mindate": "1995-04-01",
      "maxdate": "1997-05-01",
      "latitude": 19.98333,
      "name": "PUUKAPU 204.3, HI US",
      "datacoverage": 0.9992,
      "id": "COOP:518384",
      "elevationUnit": "METERS",
      "longitude": -155.6
    },
    {
      "elevation": 860.1,
      "mindate": "1921-01-01",
      "maxdate": "1948-07-01",
      "latitude": 20.06667,
      "name": "PUU KAPU RES 3, HI US",
      "datacoverage": 1,
      "id": "COOP:518385",
      "elevationUnit": "METERS",
      "longitude": -155.56667
    },
    {
      "elevation": 916.2,
      "mindate": "2004-06-01",
      "maxdate": "2014-12-01",
      "latitude": 20.0375,
      "name": "PUUKAPU HOMESTEAD 192.9, HI US",
      "datacoverage": 0.9999,
      "id": "COOP:518386",
      "elevationUnit": "METERS",
      "longitude": -155.6347
    },
    {
      "elevation": 2364,
      "mindate": "1919-01-01",
      "maxdate": "1976-10-01",
      "latitude": 19.9,
      "name": "PUU KIHE 120, HI US",
      "datacoverage": 0.9798,
      "id": "COOP:518393",
      "elevationUnit": "METERS",
      "longitude": -155.4
    },
    {
      "elevation": 110,
      "mindate": "1919-01-01",
      "maxdate": "1963-04-01",
      "latitude": 20.91667,
      "name": "PUUKOLII 457, HI US",
      "datacoverage": 1,
      "id": "COOP:518398",
      "elevationUnit": "METERS",
      "longitude": -156.68333
    },
    {
      "elevation": 128.3,
      "mindate": "1986-06-01",
      "maxdate": "2015-11-01",
      "latitude": 20.9285,
      "name": "PUUKOLII 457.1, HI US",
      "datacoverage": 0.9915,
      "id": "COOP:518407",
      "elevationUnit": "METERS",
      "longitude": -156.6735
    },
    {
      "elevation": 40.5,
      "mindate": "1977-01-01",
      "maxdate": "2015-11-01",
      "latitude": 20.0256,
      "name": "PUUKOHOLA HEIAU 98.1, HI US",
      "datacoverage": 0.9915,
      "id": "COOP:518422",
      "elevationUnit": "METERS",
      "longitude": -155.822
    },
    {
      "elevation": 1764.8,
      "mindate": "1985-02-01",
      "maxdate": "2010-12-01",
      "latitude": 20.895,
      "name": "PUU KUKUI 380, HI US",
      "datacoverage": 1,
      "id": "COOP:518433",
      "elevationUnit": "METERS",
      "longitude": -156.58972
    },
    {
      "elevation": 762.9,
      "mindate": "1919-01-01",
      "maxdate": "1972-02-01",
      "latitude": 20.91667,
      "name": "PUU KUKUI MAKAI 472, HI US",
      "datacoverage": 1,
      "id": "COOP:518444",
      "elevationUnit": "METERS",
      "longitude": -156.63333
    },
    {
      "elevation": 1524.9,
      "mindate": "1919-01-01",
      "maxdate": "1922-12-01",
      "latitude": 20.91667,
      "name": "PUU KUKU UPPER NUMBER 1, HI US",
      "datacoverage": 0.9583,
      "id": "COOP:518446",
      "elevationUnit": "METERS",
      "longitude": -156.58333
    },
    {
      "elevation": 2268.9,
      "mindate": "1932-01-01",
      "maxdate": "1976-11-01",
      "latitude": 19.83333,
      "name": "PUU LAAU 102.1, HI US",
      "datacoverage": 1,
      "id": "COOP:518452",
      "elevationUnit": "METERS",
      "longitude": -155.6
    },
    {
      "elevation": 1487.7,
      "mindate": "1922-06-01",
      "maxdate": "1986-11-01",
      "latitude": 19.56667,
      "name": "PUU LEHUA 73, HI US",
      "datacoverage": 1,
      "id": "COOP:518460",
      "elevationUnit": "METERS",
      "longitude": -155.81667
    },
    {
      "elevation": 6.1,
      "mindate": "1919-01-01",
      "maxdate": "1940-12-01",
      "latitude": 21.35,
      "name": "PUULOA, HI ",
      "datacoverage": 0.9999,
      "id": "COOP:518470",
      "elevationUnit": "METERS",
      "longitude": -157.96667
    },
    {
      "elevation": 762.9,
      "mindate": "1919-01-01",
      "maxdate": "1926-12-01",
      "latitude": 19.98333,
      "name": "PUU LOA, HI US",
      "datacoverage": 1,
      "id": "COOP:518480",
      "elevationUnit": "METERS",
      "longitude": -155.33333
    },
    {
      "elevation": 509.9,
      "mindate": "1977-01-01",
      "maxdate": "2005-05-01",
      "latitude": 21.38139,
      "name": "PUU MANAWAHUA 725.6, HI US",
      "datacoverage": 0.962,
      "id": "COOP:518500",
      "elevationUnit": "METERS",
      "longitude": -158.11972
    },
    {
      "elevation": 2122.9,
      "mindate": "1932-11-01",
      "maxdate": "1976-10-01",
      "latitude": 19.91667,
      "name": "PUU MALI 113, HI US",
      "datacoverage": 0.9697,
      "id": "COOP:518515",
      "elevationUnit": "METERS",
      "longitude": -155.43333
    },
    {
      "elevation": 70.1,
      "mindate": "1919-01-01",
      "maxdate": "2015-11-01",
      "latitude": 20.8571,
      "name": "PUUNENE 396, HI US",
      "datacoverage": 0.9966,
      "id": "COOP:518543",
      "elevationUnit": "METERS",
      "longitude": -156.4313
    },
    {
      "elevation": 39.9,
      "mindate": "1949-10-01",
      "maxdate": "1958-12-01",
      "latitude": 20.83333,
      "name": "PUUNENE CAA AIRPORT, HI US",
      "datacoverage": 0.8918,
      "id": "COOP:518547",
      "elevationUnit": "METERS",
      "longitude": -156.46667
    },
    {
      "elevation": 548.9,
      "mindate": "1928-01-01",
      "maxdate": "1971-03-01",
      "latitude": 20.2,
      "name": "PUUOKUMAU 167, HI US",
      "datacoverage": 1,
      "id": "COOP:518548",
      "elevationUnit": "METERS",
      "longitude": -155.83333
    },
    {
      "elevation": 205.4,
      "mindate": "1955-01-01",
      "maxdate": "2015-11-01",
      "latitude": 21.1447,
      "name": "PUU O HOKU RANCH 542.1, HI US",
      "datacoverage": 0.4993,
      "id": "COOP:518549",
      "elevationUnit": "METERS",
      "longitude": -156.7329
    },
    {
      "elevation": 1934,
      "mindate": "1919-01-01",
      "maxdate": "1975-10-01",
      "latitude": 19.73333,
      "name": "PUU OO 82, HI US",
      "datacoverage": 0.4105,
      "id": "COOP:518550",
      "elevationUnit": "METERS",
      "longitude": -155.38333
    },
    {
      "elevation": 4.6,
      "mindate": "1979-04-01",
      "maxdate": "2015-11-01",
      "latitude": 19.4184,
      "name": "PUUHONUA O HONAUNAU 27.4, HI US",
      "datacoverage": 0.9727,
      "id": "COOP:518552",
      "elevationUnit": "METERS",
      "longitude": -155.9112
    },
    {
      "elevation": 658.4,
      "mindate": "1997-07-01",
      "maxdate": "2010-12-01",
      "latitude": 20.77361,
      "name": "PUU PAKI 352, HI US",
      "datacoverage": 0.9504,
      "id": "COOP:518553",
      "elevationUnit": "METERS",
      "longitude": -156.05667
    },
    {
      "elevation": 768.1,
      "mindate": "1919-01-01",
      "maxdate": "2014-01-01",
      "latitude": 19.7783,
      "name": "PUU WAAWAA 94.1, HI US",
      "datacoverage": 1,
      "id": "COOP:518555",
      "elevationUnit": "METERS",
      "longitude": -155.8432
    },
    {
      "elevation": 451.1,
      "mindate": "1919-01-01",
      "maxdate": "1937-12-01",
      "latitude": 20.86667,
      "name": "PUUOMALEI, HI US",
      "datacoverage": 0.9956,
      "id": "COOP:518559",
      "elevationUnit": "METERS",
      "longitude": -156.3
    },
    {
      "elevation": 118.9,
      "mindate": "1935-08-01",
      "maxdate": "1963-04-01",
      "latitude": 21.96667,
      "name": "RESERVOIR 5 1011, HI US",
      "datacoverage": 1,
      "id": "COOP:518570",
      "elevationUnit": "METERS",
      "longitude": -159.41667
    },
    {
      "elevation": 128,
      "mindate": "1919-01-01",
      "maxdate": "1973-12-01",
      "latitude": 21.95,
      "name": "RESERVOIR 6 1004, HI US",
      "datacoverage": 1,
      "id": "COOP:518573",
      "elevationUnit": "METERS",
      "longitude": -159.45
    },
    {
      "elevation": 53.6,
      "mindate": "1947-01-01",
      "maxdate": "1953-03-01",
      "latitude": 20.8156,
      "name": "POHAKEA BRIDGE 307.2, HI US",
      "datacoverage": 0.987,
      "id": "COOP:518577",
      "elevationUnit": "METERS",
      "longitude": -156.5072
    },
    {
      "elevation": 714.1,
      "mindate": "1949-10-01",
      "maxdate": "1978-03-01",
      "latitude": 19.7,
      "name": "SADDLE ROAD 1 84, HI US",
      "datacoverage": 0.9766,
      "id": "COOP:518590",
      "elevationUnit": "METERS",
      "longitude": -155.2
    },
    {
      "elevation": 24.4,
      "mindate": "1982-06-01",
      "maxdate": "2015-04-01",
      "latitude": 19.1335,
      "name": "SEA MOUNTAIN 12.15, HI US",
      "datacoverage": 0.9772,
      "id": "COOP:518600",
      "elevationUnit": "METERS",
      "longitude": -155.5113
    },
    {
      "elevation": 143,
      "mindate": "1943-01-01",
      "maxdate": "1976-02-01",
      "latitude": 21.36667,
      "name": "ST STEPHEN S SEMINARY, HI US",
      "datacoverage": 0.9925,
      "id": "COOP:518601",
      "elevationUnit": "METERS",
      "longitude": -157.77861
    },
    {
      "elevation": 627.9,
      "mindate": "1980-05-01",
      "maxdate": "2003-11-01",
      "latitude": 19.46333,
      "name": "S GLENWOOD 91.8, HI US",
      "datacoverage": 0.9788,
      "id": "COOP:518638",
      "elevationUnit": "METERS",
      "longitude": -155.11389
    },
    {
      "elevation": 823.3,
      "mindate": "1976-01-01",
      "maxdate": "1989-04-01",
      "latitude": 19.1,
      "name": "SOUTH KONA 2.31, HI US",
      "datacoverage": 0.9877,
      "id": "COOP:518650",
      "elevationUnit": "METERS",
      "longitude": -155.75
    },
    {
      "elevation": 694.6,
      "mindate": "1989-06-01",
      "maxdate": "2015-11-01",
      "latitude": 19.0826,
      "name": "SOUTH KONA 2 2.32, HI US",
      "datacoverage": 0.9969,
      "id": "COOP:518652",
      "elevationUnit": "METERS",
      "longitude": -155.7532
    },
    {
      "elevation": 8.5,
      "mindate": "1974-01-01",
      "maxdate": "1977-08-30",
      "latitude": 21.299,
      "name": "HAWAII KAI G.C. 724.19, HI US",
      "datacoverage": 0.0306,
      "id": "COOP:518665",
      "elevationUnit": "METERS",
      "longitude": -157.6644
    },
    {
      "elevation": 153,
      "mindate": "1950-03-01",
      "maxdate": "1978-04-01",
      "latitude": 18.95,
      "name": "SOUTH POINT CORRAL 3, HI US",
      "datacoverage": 0.9941,
      "id": "COOP:518675",
      "elevationUnit": "METERS",
      "longitude": -155.68333
    },
    {
      "elevation": 93,
      "mindate": "1965-03-01",
      "maxdate": "1969-12-01",
      "latitude": 18.95,
      "name": "SOUTH POINT TRACKING, HI US",
      "datacoverage": 0.0401,
      "id": "COOP:518679",
      "elevationUnit": "METERS",
      "longitude": -155.68333
    },
    {
      "elevation": 27.4,
      "mindate": "1925-01-01",
      "maxdate": "2015-11-01",
      "latitude": 20.894,
      "name": "SPRECKELSVILLE 400, HI US",
      "datacoverage": 0.9973,
      "id": "COOP:518688",
      "elevationUnit": "METERS",
      "longitude": -156.4104
    },
    {
      "elevation": 225.9,
      "mindate": "1965-03-01",
      "maxdate": "1977-08-01",
      "latitude": 22.06667,
      "name": "STABLE CAMP 1055.1, HI US",
      "datacoverage": 0.1653,
      "id": "COOP:518694",
      "elevationUnit": "METERS",
      "longitude": -159.45
    },
    {
      "elevation": 580,
      "mindate": "1920-08-01",
      "maxdate": "1938-02-01",
      "latitude": 20,
      "name": "STATION 39, HI US",
      "datacoverage": 1,
      "id": "COOP:518705",
      "elevationUnit": "METERS",
      "longitude": -155.33333
    },
    {
      "elevation": 1598.1,
      "mindate": "1919-01-01",
      "maxdate": "1963-04-01",
      "latitude": 19.95,
      "name": "STONE CORRAL 115, HI US",
      "datacoverage": 1,
      "id": "COOP:518710",
      "elevationUnit": "METERS",
      "longitude": -155.41667
    },
    {
      "elevation": 78.9,
      "mindate": "1919-01-01",
      "maxdate": "1941-12-01",
      "latitude": 20.05,
      "name": "SUGAHARA CAMP",
      "datacoverage": 1,
      "id": "COOP:518718",
      "elevationUnit": "METERS",
      "longitude": -155.35
    },
    {
      "elevation": 609.9,
      "mindate": "1965-07-01",
      "maxdate": "1977-02-01",
      "latitude": 21.33333,
      "name": "TANTALUS PEAK 780, HI US",
      "datacoverage": 0.0736,
      "id": "COOP:518730",
      "elevationUnit": "METERS",
      "longitude": -157.81667
    },
    {
      "elevation": 427,
      "mindate": "1919-01-01",
      "maxdate": "1957-02-01",
      "latitude": 21.33333,
      "name": "TANTALUS 714, HI US",
      "datacoverage": 1,
      "id": "COOP:518734",
      "elevationUnit": "METERS",
      "longitude": -157.81667
    },
    {
      "elevation": 488,
      "mindate": "1957-08-01",
      "maxdate": "1962-08-01",
      "latitude": 21.33333,
      "name": "TANTALUS MAUKA, HI US",
      "datacoverage": 0.9998,
      "id": "COOP:518736",
      "elevationUnit": "METERS",
      "longitude": -157.83333
    },
    {
      "elevation": 369.4,
      "mindate": "1964-01-01",
      "maxdate": "2015-09-01",
      "latitude": 21.3283,
      "name": "TANTALUS 2 780.5, HI US",
      "datacoverage": 0.992,
      "id": "COOP:518738",
      "elevationUnit": "METERS",
      "longitude": -157.8266
    },
    {
      "elevation": 399.3,
      "mindate": "1964-01-01",
      "maxdate": "1986-06-01",
      "latitude": 20.76667,
      "name": "TWIN GATES 261.3, HI US",
      "datacoverage": 1,
      "id": "COOP:518742",
      "elevationUnit": "METERS",
      "longitude": -156.38333
    },
    {
      "elevation": 952.5,
      "mindate": "1977-05-01",
      "maxdate": "1979-05-01",
      "latitude": 20.75868,
      "name": "KULA BRANCH STATION 324.5, HI US",
      "datacoverage": 1,
      "id": "COOP:518743",
      "elevationUnit": "METERS",
      "longitude": -156.3211
    },
    {
      "elevation": 1594.1,
      "mindate": "1919-01-01",
      "maxdate": "2014-12-01",
      "latitude": 20.7933,
      "name": "UKULELE 333, HI US",
      "datacoverage": 0.9826,
      "id": "COOP:518744",
      "elevationUnit": "METERS",
      "longitude": -156.2494
    },
    {
      "elevation": 24.4,
      "mindate": "1929-10-01",
      "maxdate": "1999-09-01",
      "latitude": 20.80583,
      "name": "UKUMEHAME 301, HI US",
      "datacoverage": 1,
      "id": "COOP:518750",
      "elevationUnit": "METERS",
      "longitude": -156.58528
    },
    {
      "elevation": 579.1,
      "mindate": "1955-01-01",
      "maxdate": "2015-11-01",
      "latitude": 20.6487,
      "name": "ULUPALAKUA RANCH 250, HI US",
      "datacoverage": 0.9959,
      "id": "COOP:518760",
      "elevationUnit": "METERS",
      "longitude": -156.3982
    },
    {
      "elevation": 24.1,
      "mindate": "1919-01-01",
      "maxdate": "1940-06-01",
      "latitude": 22.08333,
      "name": "STATION 35, HI US",
      "datacoverage": 0.9962,
      "id": "COOP:518766",
      "elevationUnit": "METERS",
      "longitude": -159.33333
    },
    {
      "elevation": 580,
      "mindate": "1919-01-01",
      "maxdate": "1927-08-01",
      "latitude": 22.1,
      "name": "SUMMIT CAMP, HI US",
      "datacoverage": 1,
      "id": "COOP:518775",
      "elevationUnit": "METERS",
      "longitude": -159.45
    },
    {
      "elevation": 1043,
      "mindate": "1919-01-01",
      "maxdate": "1976-10-01",
      "latitude": 19.98333,
      "name": "UMIKOA 118, HI US",
      "datacoverage": 0.987,
      "id": "COOP:518780",
      "elevationUnit": "METERS",
      "longitude": -155.38333
    },
    {
      "elevation": 3,
      "mindate": "1919-01-01",
      "maxdate": "1960-06-01",
      "latitude": 21.3,
      "name": "U S MAGNETIC OBSERVA, HI US",
      "datacoverage": 0.998,
      "id": "COOP:518805",
      "elevationUnit": "METERS",
      "longitude": -158.1
    },
    {
      "elevation": 1.5,
      "mindate": "1960-07-01",
      "maxdate": "1961-12-01",
      "latitude": 21.315,
      "name": "EWA BEACH USGS 702.2, HI US",
      "datacoverage": 0.998,
      "id": "COOP:518806",
      "elevationUnit": "METERS",
      "longitude": -157.9992
    },
    {
      "elevation": 3,
      "mindate": "1919-02-01",
      "maxdate": "1937-12-01",
      "latitude": 21.3,
      "name": "U S NAVAL STATION, HI US",
      "datacoverage": 1,
      "id": "COOP:518808",
      "elevationUnit": "METERS",
      "longitude": -157.86667
    },
    {
      "elevation": 34.1,
      "mindate": "1925-11-01",
      "maxdate": "2015-11-01",
      "latitude": 21.298,
      "name": "UNIVERSITY OF HAWAII 713, HI US",
      "datacoverage": 0.9982,
      "id": "COOP:518815",
      "elevationUnit": "METERS",
      "longitude": -157.8165
    },
    {
      "elevation": 27.1,
      "mindate": "1949-10-01",
      "maxdate": "1956-12-01",
      "latitude": 20.26667,
      "name": "UPOLU POINT AIRPORT 16, HI US",
      "datacoverage": 0.9996,
      "id": "COOP:518828",
      "elevationUnit": "METERS",
      "longitude": -155.85
    },
    {
      "elevation": 18.6,
      "mindate": "1956-05-01",
      "maxdate": "1992-12-01",
      "latitude": 20.25,
      "name": "UPOLU POINT US COAST GUARD 159, HI US",
      "datacoverage": 0.9726,
      "id": "COOP:518830",
      "elevationUnit": "METERS",
      "longitude": -155.88333
    },
    {
      "elevation": 306.6,
      "mindate": "1971-04-01",
      "maxdate": "2014-12-01",
      "latitude": 21.4992,
      "name": "UPPER WAHIAWA 874.3, HI US",
      "datacoverage": 0.8552,
      "id": "COOP:518838",
      "elevationUnit": "METERS",
      "longitude": -158.0111
    },
    {
      "elevation": 281,
      "mindate": "1919-01-01",
      "maxdate": "1965-12-01",
      "latitude": 21.5,
      "name": "WAHIAWA 872, HI US",
      "datacoverage": 1,
      "id": "COOP:518905",
      "elevationUnit": "METERS",
      "longitude": -158.03333
    },
    {
      "elevation": 65.5,
      "mindate": "1919-01-01",
      "maxdate": "2014-12-01",
      "latitude": 21.8967,
      "name": "WAHIAWA 930, HI US",
      "datacoverage": 0.9844,
      "id": "COOP:518941",
      "elevationUnit": "METERS",
      "longitude": -159.5569
    },
    {
      "elevation": 260.3,
      "mindate": "1919-01-01",
      "maxdate": "2014-01-01",
      "latitude": 21.4967,
      "name": "WAHIAWA DAM 863, HI US",
      "datacoverage": 0.9158,
      "id": "COOP:518945",
      "elevationUnit": "METERS",
      "longitude": -158.0497
    },
    {
      "elevation": 641,
      "mindate": "1919-01-01",
      "maxdate": "1973-03-01",
      "latitude": 21.96667,
      "name": "WAHIAWA MOUNTAIN 990, HI US",
      "datacoverage": 0.9984,
      "id": "COOP:518949",
      "elevationUnit": "METERS",
      "longitude": -159.51667
    },
    {
      "elevation": 369.1,
      "mindate": "1921-01-01",
      "maxdate": "1958-12-01",
      "latitude": 21.51667,
      "name": "WAHIAWA MAUKA INT 88, HI US",
      "datacoverage": 0.9978,
      "id": "COOP:518953",
      "elevationUnit": "METERS",
      "longitude": -157.95
    },
    {
      "elevation": 176.8,
      "mindate": "1921-01-01",
      "maxdate": "2001-10-01",
      "latitude": 20.9,
      "name": "WAHIKULI 364, HI US",
      "datacoverage": 0.999,
      "id": "COOP:518955",
      "elevationUnit": "METERS",
      "longitude": -156.66556
    },
    {
      "elevation": 172.2,
      "mindate": "1936-01-01",
      "maxdate": "1987-01-01",
      "latitude": 22.01667,
      "name": "WAIAHI LOWER 1054, HI US",
      "datacoverage": 0.9983,
      "id": "COOP:518958",
      "elevationUnit": "METERS",
      "longitude": -159.45
    },
    {
      "elevation": 227.1,
      "mindate": "1919-01-01",
      "maxdate": "2015-11-01",
      "latitude": 21.4705,
      "name": "WAIAHOLE 837, HI US",
      "datacoverage": 0.9854,
      "id": "COOP:518964",
      "elevationUnit": "METERS",
      "longitude": -157.8836
    },
    {
      "elevation": 237.7,
      "mindate": "1933-01-01",
      "maxdate": "2014-01-01",
      "latitude": 22.02194,
      "name": "WAIAHI UPPER 1052, HI US",
      "datacoverage": 0.9969,
      "id": "COOP:518966",
      "elevationUnit": "METERS",
      "longitude": -159.46444
    },
    {
      "elevation": 365.8,
      "mindate": "1919-01-01",
      "maxdate": "1952-12-01",
      "latitude": 20.86472,
      "name": "WAIKAMOI 449, HI US",
      "datacoverage": 1,
      "id": "COOP:518968",
      "elevationUnit": "METERS",
      "longitude": -156.19278
    },
    {
      "elevation": 1316.7,
      "mindate": "1919-01-01",
      "maxdate": "1952-12-01",
      "latitude": 20.8089,
      "name": "WAIKAMOI DAM 336, HI US",
      "datacoverage": 0.7941,
      "id": "COOP:518972",
      "elevationUnit": "METERS",
      "longitude": -156.2299
    },
    {
      "elevation": 586.1,
      "mindate": "1930-11-01",
      "maxdate": "1952-12-01",
      "latitude": 19.63333,
      "name": "WAIAKEA 88, HI US",
      "datacoverage": 0.9999,
      "id": "COOP:519014",
      "elevationUnit": "METERS",
      "longitude": -155.16667
    },
    {
      "elevation": 14.9,
      "mindate": "1919-01-01",
      "maxdate": "1948-07-01",
      "latitude": 19.7,
      "name": "WAIAKEA MILL, HI US",
      "datacoverage": 1,
      "id": "COOP:519020",
      "elevationUnit": "METERS",
      "longitude": -155.06667
    },
    {
      "elevation": 609.6,
      "mindate": "1955-01-01",
      "maxdate": "2008-09-01",
      "latitude": 20.78778,
      "name": "WAIAKEAKUA 685, HI US",
      "datacoverage": 0.9876,
      "id": "COOP:519021",
      "elevationUnit": "METERS",
      "longitude": -156.87361
    },
    {
      "elevation": 320,
      "mindate": "1953-01-01",
      "maxdate": "2011-12-01",
      "latitude": 19.658,
      "name": "WAIAKEA SCD 88.2, HI US",
      "datacoverage": 1,
      "id": "COOP:519025",
      "elevationUnit": "METERS",
      "longitude": -155.1324
    },
    {
      "elevation": 268.2,
      "mindate": "1975-07-01",
      "maxdate": "2015-11-01",
      "latitude": 19.9189,
      "name": "WAIKOLOA 95.8, HI US",
      "datacoverage": 0.9999,
      "id": "COOP:519142",
      "elevationUnit": "METERS",
      "longitude": -155.798
    },
    {
      "elevation": 24.4,
      "mindate": "1989-09-01",
      "maxdate": "2015-11-01",
      "latitude": 19.9095,
      "name": "WAIKOLOA BEACH RSRT 95.9, HI US",
      "datacoverage": 0.9937,
      "id": "COOP:519144",
      "elevationUnit": "METERS",
      "longitude": -155.8752
    },
    {
      "elevation": 3,
      "mindate": "1953-01-01",
      "maxdate": "2015-11-01",
      "latitude": 21.2733,
      "name": "WAIALAE KAHALA 715, HI US",
      "datacoverage": 0.9868,
      "id": "COOP:519185",
      "elevationUnit": "METERS",
      "longitude": -157.7803
    },
    {
      "elevation": 9.1,
      "mindate": "1971-07-01",
      "maxdate": "1979-10-01",
      "latitude": 21.6825,
      "name": "WAIALEE 896.3, HI ",
      "datacoverage": 0.9996,
      "id": "COOP:519190",
      "elevationUnit": "METERS",
      "longitude": -158.032222
    },
    {
      "elevation": 3,
      "mindate": "1919-01-01",
      "maxdate": "2014-01-01",
      "latitude": 21.5747,
      "name": "WAIALUA 847, HI US",
      "datacoverage": 0.9799,
      "id": "COOP:519195",
      "elevationUnit": "METERS",
      "longitude": -158.1204
    },
    {
      "elevation": 7.6,
      "mindate": "1919-01-01",
      "maxdate": "2015-11-01",
      "latitude": 21.433,
      "name": "WAIANAE 798, HI US",
      "datacoverage": 0.9828,
      "id": "COOP:519231",
      "elevationUnit": "METERS",
      "longitude": -158.1827
    }
  ]
}
