{
  "metadata": {
    "resultset": {
      "offset": 113000,
      "count": 154115,
      "limit": 100
    }
  },
  "results": [
    {
      "elevation": 335,
      "mindate": "2007-11-01",
      "maxdate": "2008-07-15",
      "latitude": 35.52606,
      "name": "MANCHESTER 5.3 NE, TN US",
      "datacoverage": 1,
      "id": "GHCND:US1TNCF0019",
      "elevationUnit": "METERS",
      "longitude": -86.017392
    },
    {
      "elevation": 324.6,
      "mindate": "2008-04-01",
      "maxdate": "2009-08-14",
      "latitude": 35.371562,
      "name": "TULLAHOMA 1.2 E, TN US",
      "datacoverage": 0.999,
      "id": "GHCND:US1TNCF0021",
      "elevationUnit": "METERS",
      "longitude": -86.194564
    },
    {
      "elevation": 327.1,
      "mindate": "1998-06-01",
      "maxdate": "2015-02-27",
      "latitude": 35.44907,
      "name": "MANCHESTER 2.9 WSW, TN US",
      "datacoverage": 0.9995,
      "id": "GHCND:US1TNCF0022",
      "elevationUnit": "METERS",
      "longitude": -86.1263
    },
    {
      "elevation": 328.9,
      "mindate": "2009-06-01",
      "maxdate": "2013-04-15",
      "latitude": 35.390419,
      "name": "HILLSBORO 1.7 SW, TN US",
      "datacoverage": 0.8262,
      "id": "GHCND:US1TNCF0024",
      "elevationUnit": "METERS",
      "longitude": -85.985611
    },
    {
      "elevation": 306,
      "mindate": "2010-03-01",
      "maxdate": "2011-05-13",
      "latitude": 35.327251,
      "name": "ESTILL SPRINGS 8.1 ENE, TN US",
      "datacoverage": 0.999,
      "id": "GHCND:US1TNCF0025",
      "elevationUnit": "METERS",
      "longitude": -86.009937
    },
    {
      "elevation": 306.9,
      "mindate": "2011-11-01",
      "maxdate": "2025-03-05",
      "latitude": 35.498519,
      "name": "MANCHESTER 2.4 NNW, TN US",
      "datacoverage": 1,
      "id": "GHCND:US1TNCF0027",
      "elevationUnit": "METERS",
      "longitude": -86.101221
    },
    {
      "elevation": 333.8,
      "mindate": "2016-01-13",
      "maxdate": "2025-03-07",
      "latitude": 35.519444,
      "name": "MANCHESTER 6.5 ENE, TN US",
      "datacoverage": 0.9913,
      "id": "GHCND:US1TNCF0032",
      "elevationUnit": "METERS",
      "longitude": -85.984167
    },
    {
      "elevation": 338.3,
      "mindate": "2016-02-07",
      "maxdate": "2016-12-12",
      "latitude": 35.560054,
      "name": "MANCHESTER 8.2 NE, TN US",
      "datacoverage": 0.7424,
      "id": "GHCND:US1TNCF0033",
      "elevationUnit": "METERS",
      "longitude": -85.986998
    },
    {
      "elevation": 330.1,
      "mindate": "2018-07-21",
      "maxdate": "2025-03-05",
      "latitude": 35.508859,
      "name": "MANCHESTER 2.8 N, TN US",
      "datacoverage": 0.2025,
      "id": "GHCND:US1TNCF0034",
      "elevationUnit": "METERS",
      "longitude": -86.073156
    },
    {
      "elevation": 365.5,
      "mindate": "2019-03-12",
      "maxdate": "2025-03-06",
      "latitude": 35.58819,
      "name": "MANCHESTER 9.2 NNW, TN US",
      "datacoverage": 0.2679,
      "id": "GHCND:US1TNCF0035",
      "elevationUnit": "METERS",
      "longitude": -86.15455
    },
    {
      "elevation": 342,
      "mindate": "2018-10-12",
      "maxdate": "2025-03-05",
      "latitude": 35.492821,
      "name": "MANCHESTER 5.2 WNW, TN US",
      "datacoverage": 0.8855,
      "id": "GHCND:US1TNCF0038",
      "elevationUnit": "METERS",
      "longitude": -86.16886
    },
    {
      "elevation": 331.3,
      "mindate": "2024-02-28",
      "maxdate": "2025-03-07",
      "latitude": 35.4213623,
      "name": "HILLSBORO 1.7 WNW, TN US",
      "datacoverage": 1,
      "id": "GHCND:US1TNCF0040",
      "elevationUnit": "METERS",
      "longitude": -85.9993967
    },
    {
      "elevation": 232.9,
      "mindate": "2007-05-01",
      "maxdate": "2014-02-02",
      "latitude": 36.306,
      "name": "ASHLAND CITY 5.6 ENE, TN US",
      "datacoverage": 0.9999,
      "id": "GHCND:US1TNCH0001",
      "elevationUnit": "METERS",
      "longitude": -86.966
    },
    {
      "elevation": 177.1,
      "mindate": "2007-04-01",
      "maxdate": "2020-12-01",
      "latitude": 36.098414,
      "name": "KINGSTON SPRINGS 0.3 ENE, TN US",
      "datacoverage": 0.9998,
      "id": "GHCND:US1TNCH0002",
      "elevationUnit": "METERS",
      "longitude": -87.096259
    },
    {
      "elevation": 178,
      "mindate": "2007-05-01",
      "maxdate": "2010-03-28",
      "latitude": 36.099208,
      "name": "KINGSTON SPRINGS 3.0 W, TN US",
      "datacoverage": 0.9994,
      "id": "GHCND:US1TNCH0003",
      "elevationUnit": "METERS",
      "longitude": -87.154055
    },
    {
      "elevation": 238,
      "mindate": "2007-05-01",
      "maxdate": "2017-11-07",
      "latitude": 36.05565,
      "name": "KINGSTON SPRINGS 4.8 SW, TN US",
      "datacoverage": 0.9998,
      "id": "GHCND:US1TNCH0004",
      "elevationUnit": "METERS",
      "longitude": -87.170084
    },
    {
      "elevation": 224,
      "mindate": "2007-07-01",
      "maxdate": "2024-09-13",
      "latitude": 36.080605,
      "name": "KINGSTON SPRINGS 1.4 SW, TN US",
      "datacoverage": 0.9997,
      "id": "GHCND:US1TNCH0007",
      "elevationUnit": "METERS",
      "longitude": -87.116539
    },
    {
      "elevation": 189,
      "mindate": "2007-07-01",
      "maxdate": "2009-04-19",
      "latitude": 36.26539,
      "name": "ASHLAND CITY 4.1 W, TN US",
      "datacoverage": 0.9408,
      "id": "GHCND:US1TNCH0011",
      "elevationUnit": "METERS",
      "longitude": -87.132521
    },
    {
      "elevation": 192,
      "mindate": "2007-11-01",
      "maxdate": "2013-03-24",
      "latitude": 36.395699,
      "name": "CLARKSVILLE 13.7 SE, TN US",
      "datacoverage": 1,
      "id": "GHCND:US1TNCH0013",
      "elevationUnit": "METERS",
      "longitude": -87.20992
    },
    {
      "elevation": 251.8,
      "mindate": "2009-11-01",
      "maxdate": "2010-06-26",
      "latitude": 36.11701,
      "name": "PEGRAM 2.1 ENE, TN US",
      "datacoverage": 1,
      "id": "GHCND:US1TNCH0016",
      "elevationUnit": "METERS",
      "longitude": -87.02303
    },
    {
      "elevation": 218.5,
      "mindate": "2020-08-11",
      "maxdate": "2025-03-07",
      "latitude": 36.113323,
      "name": "KINGSTON SPRINGS 2.8 WNW, TN US",
      "datacoverage": 1,
      "id": "GHCND:US1TNCH0024",
      "elevationUnit": "METERS",
      "longitude": -87.146123
    },
    {
      "elevation": 195.4,
      "mindate": "2023-03-25",
      "maxdate": "2024-04-03",
      "latitude": 36.0864215,
      "name": "KINGSTON SPRINGS 1.5 WSW, TN US",
      "datacoverage": 0.3059,
      "id": "GHCND:US1TNCH0026",
      "elevationUnit": "METERS",
      "longitude": -87.1244864
    },
    {
      "elevation": 211.8,
      "mindate": "2023-06-20",
      "maxdate": "2025-03-05",
      "latitude": 36.3704572,
      "name": "JOELTON 6.3 NW, TN US",
      "datacoverage": 0.9568,
      "id": "GHCND:US1TNCH0029",
      "elevationUnit": "METERS",
      "longitude": -86.9521067
    },
    {
      "elevation": 196,
      "mindate": "2024-03-05",
      "maxdate": "2025-03-02",
      "latitude": 36.370699360777,
      "name": "ASHLAND CITY 8.7 NW, TN US",
      "datacoverage": 0.9113,
      "id": "GHCND:US1TNCH0030",
      "elevationUnit": "METERS",
      "longitude": -87.1653247863314
    },
    {
      "elevation": 231.6,
      "mindate": "2024-04-01",
      "maxdate": "2025-03-07",
      "latitude": 36.31581,
      "name": "ASHLAND CITY 6.3 ENE, TN US",
      "datacoverage": 1,
      "id": "GHCND:US1TNCH0032",
      "elevationUnit": "METERS",
      "longitude": -86.9572
    },
    {
      "elevation": 102.1,
      "mindate": "2007-07-01",
      "maxdate": "2011-06-30",
      "latitude": 35.806,
      "name": "ALAMO 3.5 WNW, TN US",
      "datacoverage": 0.7247,
      "id": "GHCND:US1TNCK0001",
      "elevationUnit": "METERS",
      "longitude": -89.1708
    },
    {
      "elevation": 110,
      "mindate": "1998-06-01",
      "maxdate": "2019-07-30",
      "latitude": 35.747623,
      "name": "BELLS 2.5 NE, TN US",
      "datacoverage": 0.9176,
      "id": "GHCND:US1TNCK0004",
      "elevationUnit": "METERS",
      "longitude": -89.060285
    },
    {
      "elevation": 114,
      "mindate": "2010-05-01",
      "maxdate": "2010-11-25",
      "latitude": 35.840358,
      "name": "FRIENDSHIP 5.1 SSW, TN US",
      "datacoverage": 1,
      "id": "GHCND:US1TNCK0005",
      "elevationUnit": "METERS",
      "longitude": -89.270982
    },
    {
      "elevation": 114.3,
      "mindate": "2021-05-18",
      "maxdate": "2024-05-31",
      "latitude": 35.780015,
      "name": "ALAMO 0.2 SSW, TN US",
      "datacoverage": 0.7694,
      "id": "GHCND:US1TNCK0007",
      "elevationUnit": "METERS",
      "longitude": -89.11778
    },
    {
      "elevation": 491,
      "mindate": "2007-11-01",
      "maxdate": "2008-12-27",
      "latitude": 36.57446,
      "name": "HARROGATE SHAWANEE 3.6 E, TN US",
      "datacoverage": 0.998,
      "id": "GHCND:US1TNCL0002",
      "elevationUnit": "METERS",
      "longitude": -83.58
    },
    {
      "elevation": 487.1,
      "mindate": "2008-03-01",
      "maxdate": "2010-08-29",
      "latitude": 36.447521,
      "name": "NEW TAZEWELL 3.2 WNW, TN US",
      "datacoverage": 0.8732,
      "id": "GHCND:US1TNCL0003",
      "elevationUnit": "METERS",
      "longitude": -83.662188
    },
    {
      "elevation": 396.2,
      "mindate": "2011-02-01",
      "maxdate": "2011-12-20",
      "latitude": 36.532761,
      "name": "CUMBERLAND GAP 4.6 SSW, TN US",
      "datacoverage": 1,
      "id": "GHCND:US1TNCL0004",
      "elevationUnit": "METERS",
      "longitude": -83.684868
    },
    {
      "elevation": 573.9,
      "mindate": "2007-04-01",
      "maxdate": "2025-03-07",
      "latitude": 35.872488,
      "name": "CROSSVILLE 5.8 SSW, TN US",
      "datacoverage": 0.9998,
      "id": "GHCND:US1TNCM0001",
      "elevationUnit": "METERS",
      "longitude": -85.070438
    },
    {
      "elevation": 561.1,
      "mindate": "2007-05-01",
      "maxdate": "2022-08-14",
      "latitude": 35.938232,
      "name": "CROSSVILLE 0.9 S, TN US",
      "datacoverage": 0.1038,
      "id": "GHCND:US1TNCM0002",
      "elevationUnit": "METERS",
      "longitude": -85.035929
    },
    {
      "elevation": 572.1,
      "mindate": "2007-04-01",
      "maxdate": "2010-10-04",
      "latitude": 35.831423,
      "name": "CROSSVILLE 8.4 S, TN US",
      "datacoverage": 0.9995,
      "id": "GHCND:US1TNCM0003",
      "elevationUnit": "METERS",
      "longitude": -85.019117
    },
    {
      "elevation": 618.1,
      "mindate": "2007-04-01",
      "maxdate": "2025-03-07",
      "latitude": 36.001429,
      "name": "FAIRFIELD GLADE 0.1 NNW, TN US",
      "datacoverage": 0.9998,
      "id": "GHCND:US1TNCM0004",
      "elevationUnit": "METERS",
      "longitude": -84.900205
    },
    {
      "elevation": 555.3,
      "mindate": "2007-04-01",
      "maxdate": "2022-12-30",
      "latitude": 36.025165,
      "name": "CROSSVILLE 5.1 N, TN US",
      "datacoverage": 0.916,
      "id": "GHCND:US1TNCM0005",
      "elevationUnit": "METERS",
      "longitude": -85.02711
    },
    {
      "elevation": 552.9,
      "mindate": "2007-04-01",
      "maxdate": "2010-06-28",
      "latitude": 35.95976,
      "name": "CROSSVILLE 0.8 NE, TN US",
      "datacoverage": 1,
      "id": "GHCND:US1TNCM0006",
      "elevationUnit": "METERS",
      "longitude": -85.026862
    },
    {
      "elevation": 568.5,
      "mindate": "2007-06-01",
      "maxdate": "2008-06-19",
      "latitude": 35.962817,
      "name": "CROSSVILLE 2.4 WNW, TN US",
      "datacoverage": 0.9992,
      "id": "GHCND:US1TNCM0008",
      "elevationUnit": "METERS",
      "longitude": -85.078417
    },
    {
      "elevation": 568.1,
      "mindate": "2007-07-01",
      "maxdate": "2025-03-07",
      "latitude": 35.852646,
      "name": "CROSSVILLE 6.9 S, TN US",
      "datacoverage": 0.9521,
      "id": "GHCND:US1TNCM0009",
      "elevationUnit": "METERS",
      "longitude": -85.052635
    },
    {
      "elevation": 577,
      "mindate": "2007-07-01",
      "maxdate": "2023-02-22",
      "latitude": 35.9736,
      "name": "PLEASANT HILL 0.5 ESE, TN US",
      "datacoverage": 0.8949,
      "id": "GHCND:US1TNCM0010",
      "elevationUnit": "METERS",
      "longitude": -85.188614
    },
    {
      "elevation": 563.9,
      "mindate": "2007-07-01",
      "maxdate": "2010-10-23",
      "latitude": 36.1058,
      "name": "MONTEREY 6.4 ESE, TN US",
      "datacoverage": 0.9239,
      "id": "GHCND:US1TNCM0011",
      "elevationUnit": "METERS",
      "longitude": -85.1351
    },
    {
      "elevation": 562.1,
      "mindate": "2007-08-01",
      "maxdate": "2016-05-08",
      "latitude": 35.926709,
      "name": "CROSSVILLE 2.2 SW, TN US",
      "datacoverage": 0.9229,
      "id": "GHCND:US1TNCM0012",
      "elevationUnit": "METERS",
      "longitude": -85.060569
    },
    {
      "elevation": 579.1,
      "mindate": "2007-08-01",
      "maxdate": "2020-04-20",
      "latitude": 35.92341,
      "name": "CROSSVILLE 2.2 SSW, TN US",
      "datacoverage": 0.9991,
      "id": "GHCND:US1TNCM0013",
      "elevationUnit": "METERS",
      "longitude": -85.05337
    },
    {
      "elevation": 561.4,
      "mindate": "2009-05-01",
      "maxdate": "2011-08-07",
      "latitude": 35.8953,
      "name": "CROSSVILLE 3.9 S, TN US",
      "datacoverage": 0.5352,
      "id": "GHCND:US1TNCM0017",
      "elevationUnit": "METERS",
      "longitude": -85.0458
    },
    {
      "elevation": 568.8,
      "mindate": "2010-01-01",
      "maxdate": "2016-07-15",
      "latitude": 36.07118,
      "name": "MONTEREY 4.3 S, TN US",
      "datacoverage": 1,
      "id": "GHCND:US1TNCM0018",
      "elevationUnit": "METERS",
      "longitude": -85.23833
    },
    {
      "elevation": 573,
      "mindate": "2010-03-01",
      "maxdate": "2011-05-17",
      "latitude": 35.876504,
      "name": "CROSSVILLE 5.8 SSW, TN US",
      "datacoverage": 1,
      "id": "GHCND:US1TNCM0020",
      "elevationUnit": "METERS",
      "longitude": -85.081189
    },
    {
      "elevation": 519.1,
      "mindate": "2011-04-01",
      "maxdate": "2018-03-05",
      "latitude": 35.96381,
      "name": "CROSSVILLE 6.0 W, TN US",
      "datacoverage": 1,
      "id": "GHCND:US1TNCM0021",
      "elevationUnit": "METERS",
      "longitude": -85.14321
    },
    {
      "elevation": 570.9,
      "mindate": "2011-10-01",
      "maxdate": "2012-04-20",
      "latitude": 35.9927,
      "name": "CROSSVILLE 6.7 ENE, TN US",
      "datacoverage": 1,
      "id": "GHCND:US1TNCM0022",
      "elevationUnit": "METERS",
      "longitude": -84.9279
    },
    {
      "elevation": 532.5,
      "mindate": "2011-10-01",
      "maxdate": "2013-09-26",
      "latitude": 35.973657,
      "name": "CROSSVILLE 1.6 NNE, TN US",
      "datacoverage": 0.9994,
      "id": "GHCND:US1TNCM0023",
      "elevationUnit": "METERS",
      "longitude": -85.028744
    },
    {
      "elevation": 548.9,
      "mindate": "2012-01-01",
      "maxdate": "2012-12-01",
      "latitude": 35.990195,
      "name": "CROSSVILLE 7.7 ENE, TN US",
      "datacoverage": 0.998,
      "id": "GHCND:US1TNCM0024",
      "elevationUnit": "METERS",
      "longitude": -84.907676
    },
    {
      "elevation": 562.4,
      "mindate": "2013-04-01",
      "maxdate": "2014-12-24",
      "latitude": 36.086419,
      "name": "CROSSVILLE 9.5 NNW, TN US",
      "datacoverage": 0.9987,
      "id": "GHCND:US1TNCM0030",
      "elevationUnit": "METERS",
      "longitude": -85.07524
    },
    {
      "elevation": 595.9,
      "mindate": "2012-08-01",
      "maxdate": "2024-05-16",
      "latitude": 35.9952926635742,
      "name": "FAIRFIELD GLADE 0.5 SE, TN US",
      "datacoverage": 0.8338,
      "id": "GHCND:US1TNCM0031",
      "elevationUnit": "METERS",
      "longitude": -84.8929443359375
    },
    {
      "elevation": 577.3,
      "mindate": "2013-10-01",
      "maxdate": "2025-03-07",
      "latitude": 35.8839874267578,
      "name": "CROSSVILLE 4.7 S, TN US",
      "datacoverage": 1,
      "id": "GHCND:US1TNCM0032",
      "elevationUnit": "METERS",
      "longitude": -85.045036315918
    },
    {
      "elevation": 620,
      "mindate": "2015-12-26",
      "maxdate": "2016-12-17",
      "latitude": 36.001605,
      "name": "FAIRFIELD GLADE 0.6 E, TN US",
      "datacoverage": 0.3073,
      "id": "GHCND:US1TNCM0034",
      "elevationUnit": "METERS",
      "longitude": -84.889429
    },
    {
      "elevation": 630.3,
      "mindate": "2018-03-01",
      "maxdate": "2024-08-11",
      "latitude": 36.023209,
      "name": "CROSSVILLE 11.3 ENE, TN US",
      "datacoverage": 0.7866,
      "id": "GHCND:US1TNCM0035",
      "elevationUnit": "METERS",
      "longitude": -84.854185
    },
    {
      "elevation": 522.7,
      "mindate": "2020-03-17",
      "maxdate": "2025-03-07",
      "latitude": 36.01006,
      "name": "CROSSVILLE 4.6 NNW, TN US",
      "datacoverage": 0.5201,
      "id": "GHCND:US1TNCM0037",
      "elevationUnit": "METERS",
      "longitude": -85.075713
    },
    {
      "elevation": 543.8,
      "mindate": "1998-06-17",
      "maxdate": "2025-03-06",
      "latitude": 35.87738,
      "name": "CROSSVILLE 7.2 SE, TN US",
      "datacoverage": 1,
      "id": "GHCND:US1TNCM0038",
      "elevationUnit": "METERS",
      "longitude": -84.9464
    },
    {
      "elevation": 601.1,
      "mindate": "2023-01-27",
      "maxdate": "2024-03-27",
      "latitude": 36.094756,
      "name": "MONTEREY 3.2 SE, TN US",
      "datacoverage": 0.9366,
      "id": "GHCND:US1TNCM0041",
      "elevationUnit": "METERS",
      "longitude": -85.210822
    },
    {
      "elevation": 547.4,
      "mindate": "2023-02-13",
      "maxdate": "2025-03-07",
      "latitude": 35.932161,
      "name": "CROSSVILLE 2.3 SE, TN US",
      "datacoverage": 0.9231,
      "id": "GHCND:US1TNCM0042",
      "elevationUnit": "METERS",
      "longitude": -85.003346
    },
    {
      "elevation": 551.7,
      "mindate": "2023-03-28",
      "maxdate": "2025-03-06",
      "latitude": 35.9408581,
      "name": "CROSSVILLE 5.1 E, TN US",
      "datacoverage": 0.9992,
      "id": "GHCND:US1TNCM0043",
      "elevationUnit": "METERS",
      "longitude": -84.9473744
    },
    {
      "elevation": 582.5,
      "mindate": "2023-04-05",
      "maxdate": "2025-03-04",
      "latitude": 35.9759,
      "name": "PLEASANT HILL 0.3 W, TN US",
      "datacoverage": 0.6829,
      "id": "GHCND:US1TNCM0044",
      "elevationUnit": "METERS",
      "longitude": -85.20333
    },
    {
      "elevation": 623.6,
      "mindate": "2023-05-30",
      "maxdate": "2025-03-07",
      "latitude": 36.004526,
      "name": "FAIRFIELD GLADE 1.2 ENE, TN US",
      "datacoverage": 1,
      "id": "GHCND:US1TNCM0045",
      "elevationUnit": "METERS",
      "longitude": -84.878954
    },
    {
      "elevation": 563.9,
      "mindate": "2023-10-01",
      "maxdate": "2025-03-06",
      "latitude": 36.077067,
      "name": "MONTEREY 3.9 S, TN US",
      "datacoverage": 0.8967,
      "id": "GHCND:US1TNCM0046",
      "elevationUnit": "METERS",
      "longitude": -85.241538
    },
    {
      "elevation": 340.2,
      "mindate": "2007-07-01",
      "maxdate": "2008-07-14",
      "latitude": 35.758223,
      "name": "WOODBURY 7.1 SE, TN US",
      "datacoverage": 0.998,
      "id": "GHCND:US1TNCN0001",
      "elevationUnit": "METERS",
      "longitude": -85.972935
    },
    {
      "elevation": 337.1,
      "mindate": "2007-07-08",
      "maxdate": "2025-03-06",
      "latitude": 35.6656,
      "name": "MIDWAY 0.5 N, TN US",
      "datacoverage": 0.9989,
      "id": "GHCND:US1TNCN0002",
      "elevationUnit": "METERS",
      "longitude": -86.0636
    },
    {
      "elevation": 341.1,
      "mindate": "2007-09-01",
      "maxdate": "2008-02-26",
      "latitude": 35.859587,
      "name": "WOODBURY 9.6 ENE, TN US",
      "datacoverage": 1,
      "id": "GHCND:US1TNCN0003",
      "elevationUnit": "METERS",
      "longitude": -85.904478
    },
    {
      "elevation": 378.3,
      "mindate": "2013-03-01",
      "maxdate": "2014-06-13",
      "latitude": 35.6972938030958,
      "name": "BRADYVILLE 4.8 SE, TN US",
      "datacoverage": 0.998,
      "id": "GHCND:US1TNCN0008",
      "elevationUnit": "METERS",
      "longitude": -86.0995148867369
    },
    {
      "elevation": 264.9,
      "mindate": "2013-06-01",
      "maxdate": "2014-12-04",
      "latitude": 35.8898060023785,
      "name": "WOODBURY 5.1 NNE, TN US",
      "datacoverage": 0.9988,
      "id": "GHCND:US1TNCN0009",
      "elevationUnit": "METERS",
      "longitude": -86.0256931185722
    },
    {
      "elevation": 365.8,
      "mindate": "2017-04-16",
      "maxdate": "2025-03-07",
      "latitude": 35.78546,
      "name": "WOODBURY 4.0 SE, TN US",
      "datacoverage": 0.9608,
      "id": "GHCND:US1TNCN0010",
      "elevationUnit": "METERS",
      "longitude": -86.01898
    },
    {
      "elevation": 200.9,
      "mindate": "2022-07-25",
      "maxdate": "2023-07-21",
      "latitude": 35.9510658,
      "name": "WOODBURY 9.4 NNE, TN US",
      "datacoverage": 0.6617,
      "id": "GHCND:US1TNCN0012",
      "elevationUnit": "METERS",
      "longitude": -86.0097277
    },
    {
      "elevation": 203.9,
      "mindate": "2019-12-16",
      "maxdate": "2023-02-23",
      "latitude": 35.822402,
      "name": "WOODBURY 2.4 W, TN US",
      "datacoverage": 0.9925,
      "id": "GHCND:US1TNCN0013",
      "elevationUnit": "METERS",
      "longitude": -86.11367
    },
    {
      "elevation": 345.3,
      "mindate": "2022-07-23",
      "maxdate": "2023-02-19",
      "latitude": 35.83142,
      "name": "WOODBURY 5.7 E, TN US",
      "datacoverage": 0.9925,
      "id": "GHCND:US1TNCN0014",
      "elevationUnit": "METERS",
      "longitude": -85.96823
    },
    {
      "elevation": 209.7,
      "mindate": "2022-07-28",
      "maxdate": "2023-12-03",
      "latitude": 35.9672589,
      "name": "AUBURNTOWN 1.3 N, TN US",
      "datacoverage": 1,
      "id": "GHCND:US1TNCN0015",
      "elevationUnit": "METERS",
      "longitude": -86.0903256
    },
    {
      "elevation": 352,
      "mindate": "2022-07-19",
      "maxdate": "2025-03-06",
      "latitude": 35.7516694,
      "name": "WOODBURY 6.0 SSE, TN US",
      "datacoverage": 1,
      "id": "GHCND:US1TNCN0016",
      "elevationUnit": "METERS",
      "longitude": -86.0130252
    },
    {
      "elevation": 218.5,
      "mindate": "2022-07-21",
      "maxdate": "2025-03-07",
      "latitude": 35.855249,
      "name": "READYVILLE 2.1 NNE, TN US",
      "datacoverage": 1,
      "id": "GHCND:US1TNCN0017",
      "elevationUnit": "METERS",
      "longitude": -86.156003
    },
    {
      "elevation": 359.7,
      "mindate": "2022-07-22",
      "maxdate": "2025-03-05",
      "latitude": 35.806,
      "name": "WOODBURY 5.6 ESE, TN US",
      "datacoverage": 0.9683,
      "id": "GHCND:US1TNCN0018",
      "elevationUnit": "METERS",
      "longitude": -85.973833
    },
    {
      "elevation": 221.9,
      "mindate": "2023-06-11",
      "maxdate": "2025-03-06",
      "latitude": 35.9552688,
      "name": "AUBURNTOWN 0.5 NNE, TN US",
      "datacoverage": 1,
      "id": "GHCND:US1TNCN0020",
      "elevationUnit": "METERS",
      "longitude": -86.0917023
    },
    {
      "elevation": 317.9,
      "mindate": "2008-07-01",
      "maxdate": "2009-05-10",
      "latitude": 36.28986,
      "name": "CARYVILLE 3.8 SE, TN US",
      "datacoverage": 0.9994,
      "id": "GHCND:US1TNCP0003",
      "elevationUnit": "METERS",
      "longitude": -84.16506
    },
    {
      "elevation": 118,
      "mindate": "2007-06-01",
      "maxdate": "2017-08-18",
      "latitude": 36.070619,
      "name": "TREZEVANT 4.2 NNW, TN US",
      "datacoverage": 0.8071,
      "id": "GHCND:US1TNCR0003",
      "elevationUnit": "METERS",
      "longitude": -88.645286
    },
    {
      "elevation": 175,
      "mindate": "2007-10-01",
      "maxdate": "2025-03-05",
      "latitude": 35.882451,
      "name": "CLARKSBURG 5.6 E, TN US",
      "datacoverage": 0.9166,
      "id": "GHCND:US1TNCR0004",
      "elevationUnit": "METERS",
      "longitude": -88.290101
    },
    {
      "elevation": 136.6,
      "mindate": "2011-12-01",
      "maxdate": "2025-03-07",
      "latitude": 35.973176,
      "name": "ATWOOD 0.8 WSW, TN US",
      "datacoverage": 0.9998,
      "id": "GHCND:US1TNCR0006",
      "elevationUnit": "METERS",
      "longitude": -88.68489
    },
    {
      "elevation": 147.2,
      "mindate": "2004-02-03",
      "maxdate": "2025-02-17",
      "latitude": 36.034576,
      "name": "BRUCETON 0.2 E, TN US",
      "datacoverage": 0.9993,
      "id": "GHCND:US1TNCR0007",
      "elevationUnit": "METERS",
      "longitude": -88.243999
    },
    {
      "elevation": 130.1,
      "mindate": "2019-07-13",
      "maxdate": "2025-03-07",
      "latitude": 36.1193,
      "name": "MCKENZIE 1.5 SSE, TN US",
      "datacoverage": 0.9989,
      "id": "GHCND:US1TNCR0009",
      "elevationUnit": "METERS",
      "longitude": -88.5022
    },
    {
      "elevation": 148.4,
      "mindate": "2021-01-23",
      "maxdate": "2025-03-06",
      "latitude": 36.042787,
      "name": "HOLLOW ROCK 0.6 NNW, TN US",
      "datacoverage": 1,
      "id": "GHCND:US1TNCR0011",
      "elevationUnit": "METERS",
      "longitude": -88.2769
    },
    {
      "elevation": 132,
      "mindate": "2021-12-13",
      "maxdate": "2025-03-05",
      "latitude": 36.01786,
      "name": "HUNTINGDON 1.7 ENE, TN US",
      "datacoverage": 0.1281,
      "id": "GHCND:US1TNCR0012",
      "elevationUnit": "METERS",
      "longitude": -88.3834
    },
    {
      "elevation": 148.1,
      "mindate": "2007-11-01",
      "maxdate": "2023-11-21",
      "latitude": 35.458124,
      "name": "HENDERSON 1.1 NNW, TN US",
      "datacoverage": 1,
      "id": "GHCND:US1TNCS0003",
      "elevationUnit": "METERS",
      "longitude": -88.658324
    },
    {
      "elevation": 131.4,
      "mindate": "2022-04-21",
      "maxdate": "2025-03-07",
      "latitude": 35.414663,
      "name": "HENDERSON 2.2 SSE, TN US",
      "datacoverage": 0.9999,
      "id": "GHCND:US1TNCS0007",
      "elevationUnit": "METERS",
      "longitude": -88.635293
    },
    {
      "elevation": 295.7,
      "mindate": "2023-11-22",
      "maxdate": "2024-10-08",
      "latitude": 35.399881,
      "name": "HENDERSON 3.1 S, TN US",
      "datacoverage": 1,
      "id": "GHCND:US1TNCS0008",
      "elevationUnit": "METERS",
      "longitude": -88.639328
    },
    {
      "elevation": 146,
      "mindate": "2024-03-08",
      "maxdate": "2025-03-07",
      "latitude": 35.3708,
      "name": "HENDERSON 6.1 SSW, TN US",
      "datacoverage": 1,
      "id": "GHCND:US1TNCS0009",
      "elevationUnit": "METERS",
      "longitude": -88.7069
    },
    {
      "elevation": 171.6,
      "mindate": "2024-04-01",
      "maxdate": "2025-03-05",
      "latitude": 35.41815,
      "name": "HENDERSON 7.0 ESE, TN US",
      "datacoverage": 0.9113,
      "id": "GHCND:US1TNCS0012",
      "elevationUnit": "METERS",
      "longitude": -88.527945
    },
    {
      "elevation": 829.7,
      "mindate": "2008-01-01",
      "maxdate": "2025-03-06",
      "latitude": 36.193535,
      "name": "ROAN MOUNTAIN 7.1 W, TN US",
      "datacoverage": 0.9294,
      "id": "GHCND:US1TNCT0002",
      "elevationUnit": "METERS",
      "longitude": -82.200802
    },
    {
      "elevation": 464.5,
      "mindate": "2011-11-01",
      "maxdate": "2015-12-15",
      "latitude": 36.34651667,
      "name": "ELIZABETHTON 0.6 NNW, TN US",
      "datacoverage": 0.9999,
      "id": "GHCND:US1TNCT0004",
      "elevationUnit": "METERS",
      "longitude": -82.23645
    },
    {
      "elevation": 526.7,
      "mindate": "2012-02-01",
      "maxdate": "2013-04-18",
      "latitude": 36.346743,
      "name": "ELIZABETHTON 2.0 ENE, TN US",
      "datacoverage": 1,
      "id": "GHCND:US1TNCT0005",
      "elevationUnit": "METERS",
      "longitude": -82.197539
    },
    {
      "elevation": 802.8,
      "mindate": "2014-06-01",
      "maxdate": "2017-08-06",
      "latitude": 36.20766667,
      "name": "ROAN MOUNTAIN 6.2 WNW, TN US",
      "datacoverage": 0.9994,
      "id": "GHCND:US1TNCT0009",
      "elevationUnit": "METERS",
      "longitude": -82.1804
    },
    {
      "elevation": 501.7,
      "mindate": "2017-08-20",
      "maxdate": "2025-02-16",
      "latitude": 36.333703,
      "name": "JOHNSON CITY 4.9 E, TN US",
      "datacoverage": 0.5844,
      "id": "GHCND:US1TNCT0012",
      "elevationUnit": "METERS",
      "longitude": -82.280216
    },
    {
      "elevation": 173.1,
      "mindate": "2007-08-01",
      "maxdate": "2025-03-06",
      "latitude": 36.552359,
      "name": "CELINA 0.3 NNE, TN US",
      "datacoverage": 0.9998,
      "id": "GHCND:US1TNCY0002",
      "elevationUnit": "METERS",
      "longitude": -85.500446
    },
    {
      "elevation": 232.6,
      "mindate": "2008-05-01",
      "maxdate": "2025-03-07",
      "latitude": 36.61461,
      "name": "RED BOILING SPRINGS 6.7 NNE, TN US",
      "datacoverage": 0.9998,
      "id": "GHCND:US1TNCY0003",
      "elevationUnit": "METERS",
      "longitude": -85.78709
    },
    {
      "elevation": 173.1,
      "mindate": "1998-06-01",
      "maxdate": "2024-10-31",
      "latitude": 36.5185367,
      "name": "CELINA 2.4 SSW, TN US",
      "datacoverage": 0.2056,
      "id": "GHCND:US1TNCY0004",
      "elevationUnit": "METERS",
      "longitude": -85.525944
    },
    {
      "elevation": 318.8,
      "mindate": "2024-06-27",
      "maxdate": "2025-03-05",
      "latitude": 36.5303577,
      "name": "ALLONS 6.2 N, TN US",
      "datacoverage": 0.7958,
      "id": "GHCND:US1TNCY0007",
      "elevationUnit": "METERS",
      "longitude": -85.3563574
    }
  ]
}
