{
  "metadata": {
    "resultset": {
      "offset": 13100,
      "count": 154115,
      "limit": 100
    }
  },
  "results": [
    {
      "elevation": 262.1,
      "mindate": "1982-09-01",
      "maxdate": "2015-11-01",
      "latitude": 40.4056,
      "name": "DENNISON WATER WORKS, OH US",
      "datacoverage": 0.8747,
      "id": "COOP:332160",
      "elevationUnit": "METERS",
      "longitude": -81.3435
    },
    {
      "elevation": 249.9,
      "mindate": "1961-02-01",
      "maxdate": "1994-11-01",
      "latitude": 40,
      "name": "DILLON LAKE, OH US",
      "datacoverage": 0.0504,
      "id": "COOP:332205",
      "elevationUnit": "METERS",
      "longitude": -82.08333
    },
    {
      "elevation": 298.7,
      "mindate": "1956-12-01",
      "maxdate": "2015-11-01",
      "latitude": 41.6764,
      "name": "DORSET, OH US",
      "datacoverage": 1,
      "id": "COOP:332251",
      "elevationUnit": "METERS",
      "longitude": -80.6663
    },
    {
      "elevation": 283.5,
      "mindate": "1936-06-01",
      "maxdate": "2014-01-01",
      "latitude": 40.5622,
      "name": "DOVER DAM, OH US",
      "datacoverage": 0.9707,
      "id": "COOP:332272",
      "elevationUnit": "METERS",
      "longitude": -81.4092
    },
    {
      "elevation": 192,
      "mindate": "1948-08-11",
      "maxdate": "1975-05-01",
      "latitude": 39.63333,
      "name": "DUFFY DAM 15, OH US",
      "datacoverage": 0.6576,
      "id": "COOP:332305",
      "elevationUnit": "METERS",
      "longitude": -80.88333
    },
    {
      "elevation": 355.1,
      "mindate": "1940-04-01",
      "maxdate": "1948-09-01",
      "latitude": 40.68333,
      "name": "EAST LIVERPOOL WEATHER BUREAU AIRPORT, OH US",
      "datacoverage": 0.9999,
      "id": "COOP:332433",
      "elevationUnit": "METERS",
      "longitude": -80.63333
    },
    {
      "elevation": 305.4,
      "mindate": "1931-01-01",
      "maxdate": "2015-11-01",
      "latitude": 39.7328,
      "name": "EATON, OH US",
      "datacoverage": 0.9873,
      "id": "COOP:332485",
      "elevationUnit": "METERS",
      "longitude": -84.6353
    },
    {
      "elevation": 253,
      "mindate": "1948-08-01",
      "maxdate": "1975-08-01",
      "latitude": 41.45,
      "name": "EDGERTON WATER WORKS, OH US",
      "datacoverage": 0.9479,
      "id": "COOP:332512",
      "elevationUnit": "METERS",
      "longitude": -84.73333
    },
    {
      "elevation": 317,
      "mindate": "1931-01-01",
      "maxdate": "1959-06-01",
      "latitude": 41.0247,
      "name": "ELLSWORTH, OH US",
      "datacoverage": 0.9856,
      "id": "COOP:332580",
      "elevationUnit": "METERS",
      "longitude": -80.854
    },
    {
      "elevation": 222.5,
      "mindate": "1949-04-01",
      "maxdate": "2015-11-01",
      "latitude": 41.3815,
      "name": "ELYRIA 3 E, OH US",
      "datacoverage": 0.9875,
      "id": "COOP:332599",
      "elevationUnit": "METERS",
      "longitude": -82.0558
    },
    {
      "elevation": 249.9,
      "mindate": "1947-08-01",
      "maxdate": "2008-03-01",
      "latitude": 39.55861,
      "name": "ENTERPRISE, OH US",
      "datacoverage": 0.9698,
      "id": "COOP:332626",
      "elevationUnit": "METERS",
      "longitude": -82.48417
    },
    {
      "elevation": 175.3,
      "mindate": "1985-10-01",
      "maxdate": "2015-11-01",
      "latitude": 39.3477,
      "name": "FAIRFIELD, OH US",
      "datacoverage": 0.989,
      "id": "COOP:332651",
      "elevationUnit": "METERS",
      "longitude": -84.5897
    },
    {
      "elevation": 227.1,
      "mindate": "2012-01-01",
      "maxdate": "2014-12-01",
      "latitude": 41.6596,
      "name": "FAYETTE 5 E, OH US",
      "datacoverage": 0.9998,
      "id": "COOP:332725",
      "elevationUnit": "METERS",
      "longitude": -84.2488
    },
    {
      "elevation": 300.5,
      "mindate": "1976-09-01",
      "maxdate": "1999-11-01",
      "latitude": 39.21222,
      "name": "FAYETTEVILLE, OH US",
      "datacoverage": 0.9213,
      "id": "COOP:332727",
      "elevationUnit": "METERS",
      "longitude": -83.87778
    },
    {
      "elevation": 152.4,
      "mindate": "1931-01-01",
      "maxdate": "1974-06-01",
      "latitude": 39.1169,
      "name": "CINCINNATI FERNBANK, OH US",
      "datacoverage": 0.9886,
      "id": "COOP:332766",
      "elevationUnit": "METERS",
      "longitude": -84.6961
    },
    {
      "elevation": 246.5,
      "mindate": "1948-08-01",
      "maxdate": "2015-11-01",
      "latitude": 41.01369,
      "name": "FINDLAY AIRPORT, OH US",
      "datacoverage": 0.9975,
      "id": "COOP:332786",
      "elevationUnit": "METERS",
      "longitude": -83.66814
    },
    {
      "elevation": 234.1,
      "mindate": "1931-01-01",
      "maxdate": "2015-11-01",
      "latitude": 41.0461,
      "name": "FINDLAY WPCC, OH US",
      "datacoverage": 0.9961,
      "id": "COOP:332791",
      "elevationUnit": "METERS",
      "longitude": -83.6622
    },
    {
      "elevation": 285,
      "mindate": "1997-07-01",
      "maxdate": "2015-11-01",
      "latitude": 40.41,
      "name": "FORT RECOVERY, OH US",
      "datacoverage": 0.9366,
      "id": "COOP:332895",
      "elevationUnit": "METERS",
      "longitude": -84.7856
    },
    {
      "elevation": 238,
      "mindate": "1948-08-01",
      "maxdate": "1975-06-01",
      "latitude": 41.15,
      "name": "FOSTORIA WEST END SU, OH US",
      "datacoverage": 0.8162,
      "id": "COOP:332905",
      "elevationUnit": "METERS",
      "longitude": -83.43333
    },
    {
      "elevation": 207,
      "mindate": "1931-01-01",
      "maxdate": "2015-11-01",
      "latitude": 39.5536,
      "name": "FRANKLIN, OH US",
      "datacoverage": 0.9775,
      "id": "COOP:332928",
      "elevationUnit": "METERS",
      "longitude": -84.319
    },
    {
      "elevation": 320,
      "mindate": "1939-08-01",
      "maxdate": "2012-05-01",
      "latitude": 40.41667,
      "name": "FREDERICKTOWN 4 S, OH US",
      "datacoverage": 0.9332,
      "id": "COOP:332956",
      "elevationUnit": "METERS",
      "longitude": -82.53333
    },
    {
      "elevation": 182.9,
      "mindate": "1931-01-01",
      "maxdate": "2015-11-01",
      "latitude": 41.33353,
      "name": "FREMONT, OH US",
      "datacoverage": 0.9559,
      "id": "COOP:332974",
      "elevationUnit": "METERS",
      "longitude": -83.11959
    },
    {
      "elevation": 202.4,
      "mindate": "1996-12-01",
      "maxdate": "2011-12-01",
      "latitude": 41.31194,
      "name": "FREMONT AG STATION, OH US",
      "datacoverage": 1,
      "id": "COOP:332976",
      "elevationUnit": "METERS",
      "longitude": -83.17194
    },
    {
      "elevation": 356.6,
      "mindate": "1948-08-01",
      "maxdate": "2015-11-01",
      "latitude": 40.7231,
      "name": "GALION WATER WORKS, OH US",
      "datacoverage": 0.9716,
      "id": "COOP:333021",
      "elevationUnit": "METERS",
      "longitude": -82.7999
    },
    {
      "elevation": 176.2,
      "mindate": "1931-01-01",
      "maxdate": "2015-11-01",
      "latitude": 38.82075,
      "name": "GALLIPOLIS, OH US",
      "datacoverage": 0.9863,
      "id": "COOP:333029",
      "elevationUnit": "METERS",
      "longitude": -82.18171
    },
    {
      "elevation": 331.9,
      "mindate": "1940-01-01",
      "maxdate": "1971-09-01",
      "latitude": 40.38333,
      "name": "GAMBIER, OH US",
      "datacoverage": 0.8222,
      "id": "COOP:333042",
      "elevationUnit": "METERS",
      "longitude": -82.4
    },
    {
      "elevation": 284.1,
      "mindate": "1971-07-01",
      "maxdate": "1978-06-01",
      "latitude": 41.41667,
      "name": "GARFIELD HEIGHTS, OH US",
      "datacoverage": 0.9284,
      "id": "COOP:333071",
      "elevationUnit": "METERS",
      "longitude": -81.6
    },
    {
      "elevation": 228.9,
      "mindate": "1943-06-01",
      "maxdate": "1959-06-01",
      "latitude": 41.75,
      "name": "GENEVA 3 S, OH US",
      "datacoverage": 0.9949,
      "id": "COOP:333094",
      "elevationUnit": "METERS",
      "longitude": -80.95
    },
    {
      "elevation": 228.9,
      "mindate": "1970-06-01",
      "maxdate": "1983-11-01",
      "latitude": 41.75,
      "name": "GENEVA 3 S, OH US",
      "datacoverage": 0.9506,
      "id": "COOP:333095",
      "elevationUnit": "METERS",
      "longitude": -80.95
    },
    {
      "elevation": 224.9,
      "mindate": "1948-08-01",
      "maxdate": "2015-11-01",
      "latitude": 39.6361,
      "name": "GERMANTOWN DAM, OH US",
      "datacoverage": 0.0644,
      "id": "COOP:333120",
      "elevationUnit": "METERS",
      "longitude": -84.4015
    },
    {
      "elevation": 241.1,
      "mindate": "1931-01-01",
      "maxdate": "1952-12-01",
      "latitude": 39.66667,
      "name": "GERMANTOWN 3 NE, OH US",
      "datacoverage": 0.9886,
      "id": "COOP:333125",
      "elevationUnit": "METERS",
      "longitude": -84.33333
    },
    {
      "elevation": 176.8,
      "mindate": "1953-01-01",
      "maxdate": "1959-08-22",
      "latitude": 41.65,
      "name": "PUT IN BAY, OH US",
      "datacoverage": 0.9627,
      "id": "COOP:333144",
      "elevationUnit": "METERS",
      "longitude": -82.8
    },
    {
      "elevation": 225.9,
      "mindate": "1953-08-01",
      "maxdate": "1967-02-01",
      "latitude": 41.03333,
      "name": "GLANDORF, OH US",
      "datacoverage": 0.9205,
      "id": "COOP:333180",
      "elevationUnit": "METERS",
      "longitude": -84.08333
    },
    {
      "elevation": 261.5,
      "mindate": "1948-09-01",
      "maxdate": "2014-01-01",
      "latitude": 39.3418,
      "name": "GREENFIELD WWTP, OH US",
      "datacoverage": 0.7846,
      "id": "COOP:333356",
      "elevationUnit": "METERS",
      "longitude": -83.3766
    },
    {
      "elevation": 246.9,
      "mindate": "1951-04-01",
      "maxdate": "1951-06-01",
      "latitude": 39.26667,
      "name": "GREENHILLS, OH US",
      "datacoverage": 1,
      "id": "COOP:333364",
      "elevationUnit": "METERS",
      "longitude": -84.51667
    },
    {
      "elevation": 313.9,
      "mindate": "1931-01-01",
      "maxdate": "2015-11-01",
      "latitude": 40.1032,
      "name": "GREENVILLE WATER PLANT, OH US",
      "datacoverage": 0.9951,
      "id": "COOP:333375",
      "elevationUnit": "METERS",
      "longitude": -84.6504
    },
    {
      "elevation": 274.9,
      "mindate": "1948-08-01",
      "maxdate": "1952-02-01",
      "latitude": 40.1,
      "name": "GREENVILLE HIGHWAY DEP, OH US",
      "datacoverage": 0.4524,
      "id": "COOP:333380",
      "elevationUnit": "METERS",
      "longitude": -84.61667
    },
    {
      "elevation": 280.4,
      "mindate": "1946-04-01",
      "maxdate": "2015-11-01",
      "latitude": 40.5518,
      "name": "GREER, OH US",
      "datacoverage": 0.9222,
      "id": "COOP:333393",
      "elevationUnit": "METERS",
      "longitude": -82.2015
    },
    {
      "elevation": 222.5,
      "mindate": "1955-05-22",
      "maxdate": "2015-11-01",
      "latitude": 41.01906,
      "name": "GROVER HILL, OH US",
      "datacoverage": 0.9903,
      "id": "COOP:333421",
      "elevationUnit": "METERS",
      "longitude": -84.46561
    },
    {
      "elevation": 348.1,
      "mindate": "1971-01-01",
      "maxdate": "1974-11-01",
      "latitude": 40.8,
      "name": "GUILFORD DAM, OH US",
      "datacoverage": 0.0208,
      "id": "COOP:333431",
      "elevationUnit": "METERS",
      "longitude": -80.86667
    },
    {
      "elevation": 179.8,
      "mindate": "1931-01-01",
      "maxdate": "1971-09-01",
      "latitude": 39.4,
      "name": "HAMILTON 2, OH US",
      "datacoverage": 0.9489,
      "id": "COOP:333478",
      "elevationUnit": "METERS",
      "longitude": -84.56667
    },
    {
      "elevation": 179.8,
      "mindate": "1971-10-01",
      "maxdate": "1988-03-01",
      "latitude": 39.4,
      "name": "HAMILTON 2, OH US",
      "datacoverage": 0.9898,
      "id": "COOP:333482",
      "elevationUnit": "METERS",
      "longitude": -84.56667
    },
    {
      "elevation": 175.3,
      "mindate": "1931-01-01",
      "maxdate": "1985-09-30",
      "latitude": 39.3477,
      "name": "FAIRFIELD, OH US",
      "datacoverage": 0.9939,
      "id": "COOP:333483",
      "elevationUnit": "METERS",
      "longitude": -84.5897
    },
    {
      "elevation": 189,
      "mindate": "1975-04-01",
      "maxdate": "2015-11-01",
      "latitude": 39.6667,
      "name": "HANNIBAL LOCKS AND DAM, OH US",
      "datacoverage": 0.9959,
      "id": "COOP:333500",
      "elevationUnit": "METERS",
      "longitude": -80.8667
    },
    {
      "elevation": 228.6,
      "mindate": "2008-10-01",
      "maxdate": "2015-11-01",
      "latitude": 41.28743,
      "name": "HICKSVILLE, OH US",
      "datacoverage": 0.9886,
      "id": "COOP:333722",
      "elevationUnit": "METERS",
      "longitude": -84.75967
    },
    {
      "elevation": 152.4,
      "mindate": "1945-08-01",
      "maxdate": "1982-02-01",
      "latitude": 38.78333,
      "name": "HIGGINSPORT, KY US",
      "datacoverage": 0.991,
      "id": "COOP:333730",
      "elevationUnit": "METERS",
      "longitude": -83.96667
    },
    {
      "elevation": 290.5,
      "mindate": "1931-01-01",
      "maxdate": "2015-11-01",
      "latitude": 39.2334,
      "name": "HILLSBORO, OH US",
      "datacoverage": 0.9824,
      "id": "COOP:333758",
      "elevationUnit": "METERS",
      "longitude": -83.6091
    },
    {
      "elevation": 287.1,
      "mindate": "1948-08-01",
      "maxdate": "1964-06-01",
      "latitude": 39.23333,
      "name": "HILLSBORO WATER WORK, OH US",
      "datacoverage": 0.8952,
      "id": "COOP:333763",
      "elevationUnit": "METERS",
      "longitude": -83.61667
    },
    {
      "elevation": 374.9,
      "mindate": "1931-01-01",
      "maxdate": "2015-11-01",
      "latitude": 41.30718,
      "name": "HIRAM, OH US",
      "datacoverage": 0.9932,
      "id": "COOP:333780",
      "elevationUnit": "METERS",
      "longitude": -81.14759
    },
    {
      "elevation": 217,
      "mindate": "1931-01-01",
      "maxdate": "1951-07-01",
      "latitude": 41.25,
      "name": "HOLGATE, OH US",
      "datacoverage": 0.9758,
      "id": "COOP:333801",
      "elevationUnit": "METERS",
      "longitude": -84.15
    },
    {
      "elevation": 213.4,
      "mindate": "1952-06-01",
      "maxdate": "2011-12-01",
      "latitude": 41.21667,
      "name": "HOYTVILLE 2 NE, OH US",
      "datacoverage": 1,
      "id": "COOP:333874",
      "elevationUnit": "METERS",
      "longitude": -83.76667
    },
    {
      "elevation": 302.1,
      "mindate": "1949-01-01",
      "maxdate": "2015-11-01",
      "latitude": 40.4911,
      "name": "LAKEVIEW, OH US",
      "datacoverage": 0.9926,
      "id": "COOP:333915",
      "elevationUnit": "METERS",
      "longitude": -83.92532
    },
    {
      "elevation": 164.9,
      "mindate": "1931-01-01",
      "maxdate": "1982-06-01",
      "latitude": 38.53333,
      "name": "IRONTON, OH US",
      "datacoverage": 0.9741,
      "id": "COOP:333971",
      "elevationUnit": "METERS",
      "longitude": -82.68333
    },
    {
      "elevation": 204.2,
      "mindate": "1982-07-01",
      "maxdate": "1985-12-01",
      "latitude": 38.53333,
      "name": "IRONTON 1 NE, OH US",
      "datacoverage": 0.9987,
      "id": "COOP:333975",
      "elevationUnit": "METERS",
      "longitude": -82.66667
    },
    {
      "elevation": 307.8,
      "mindate": "1941-04-01",
      "maxdate": "1997-11-01",
      "latitude": 40.11667,
      "name": "IRWIN, OH US",
      "datacoverage": 0.9985,
      "id": "COOP:333987",
      "elevationUnit": "METERS",
      "longitude": -83.48333
    },
    {
      "elevation": 257.6,
      "mindate": "1931-01-01",
      "maxdate": "2015-11-01",
      "latitude": 39.07909,
      "name": "JACKSON 3 NW, OH US",
      "datacoverage": 0.9431,
      "id": "COOP:334004",
      "elevationUnit": "METERS",
      "longitude": -82.70651
    },
    {
      "elevation": 214,
      "mindate": "1948-08-05",
      "maxdate": "1960-05-27",
      "latitude": 39.05,
      "name": "JACKSON HIGHWAY DEPARTMENT, OH US",
      "datacoverage": 0.4125,
      "id": "COOP:334009",
      "elevationUnit": "METERS",
      "longitude": -82.65
    },
    {
      "elevation": 318.5,
      "mindate": "1998-06-01",
      "maxdate": "2011-12-01",
      "latitude": 39.6369,
      "name": "JEFFERSONVILLE 1 S, OH US",
      "datacoverage": 0.8158,
      "id": "COOP:334038",
      "elevationUnit": "METERS",
      "longitude": -83.5564
    },
    {
      "elevation": 294.1,
      "mindate": "1931-01-01",
      "maxdate": "1947-09-01",
      "latitude": 41.73333,
      "name": "JEFFERSON, OH US",
      "datacoverage": 0.9504,
      "id": "COOP:334047",
      "elevationUnit": "METERS",
      "longitude": -80.76667
    },
    {
      "elevation": 305.1,
      "mindate": "1948-08-01",
      "maxdate": "1964-07-01",
      "latitude": 40.63333,
      "name": "KENTON OHIO POWER CO, OH US",
      "datacoverage": 0.9742,
      "id": "COOP:334184",
      "elevationUnit": "METERS",
      "longitude": -83.61667
    },
    {
      "elevation": 303.9,
      "mindate": "1931-01-01",
      "maxdate": "2015-11-01",
      "latitude": 40.64851,
      "name": "KENTON, OH US",
      "datacoverage": 0.9686,
      "id": "COOP:334189",
      "elevationUnit": "METERS",
      "longitude": -83.606
    },
    {
      "elevation": 232.3,
      "mindate": "1931-01-01",
      "maxdate": "2015-11-01",
      "latitude": 39.3531,
      "name": "KINGS MILLS, OH US",
      "datacoverage": 0.9794,
      "id": "COOP:334238",
      "elevationUnit": "METERS",
      "longitude": -84.2602
    },
    {
      "elevation": 228,
      "mindate": "1988-05-01",
      "maxdate": "1994-07-01",
      "latitude": 41.61667,
      "name": "KIRTLAND HOLDEN, OH US",
      "datacoverage": 0.9733,
      "id": "COOP:334258",
      "elevationUnit": "METERS",
      "longitude": -81.3
    },
    {
      "elevation": 313.9,
      "mindate": "1994-12-01",
      "maxdate": "2011-12-01",
      "latitude": 41.61667,
      "name": "KIRTLAND HOLDEN 2, OH US",
      "datacoverage": 0.9463,
      "id": "COOP:334260",
      "elevationUnit": "METERS",
      "longitude": -81.3
    },
    {
      "elevation": 287.1,
      "mindate": "1931-01-01",
      "maxdate": "1952-12-01",
      "latitude": 41.11667,
      "name": "LAKE MILTON, OH US",
      "datacoverage": 0.6401,
      "id": "COOP:334340",
      "elevationUnit": "METERS",
      "longitude": -80.98333
    },
    {
      "elevation": 310.9,
      "mindate": "1931-01-01",
      "maxdate": "1983-03-01",
      "latitude": 40.51667,
      "name": "LAKEVIEW 3 NE, OH US",
      "datacoverage": 0.9953,
      "id": "COOP:334363",
      "elevationUnit": "METERS",
      "longitude": -83.88333
    },
    {
      "elevation": 262.1,
      "mindate": "1931-01-01",
      "maxdate": "1951-12-01",
      "latitude": 39.73333,
      "name": "LANCASTER 2 NW, OH US",
      "datacoverage": 0.9842,
      "id": "COOP:334378",
      "elevationUnit": "METERS",
      "longitude": -82.63333
    },
    {
      "elevation": 262.1,
      "mindate": "1949-03-01",
      "maxdate": "1996-12-01",
      "latitude": 39.73333,
      "name": "LANCASTER 2 NW, OH US",
      "datacoverage": 0.9738,
      "id": "COOP:334383",
      "elevationUnit": "METERS",
      "longitude": -82.63333
    },
    {
      "elevation": 307.8,
      "mindate": "1956-07-01",
      "maxdate": "1961-06-01",
      "latitude": 39.68333,
      "name": "LANCASTER, OH US",
      "datacoverage": 0.8168,
      "id": "COOP:334387",
      "elevationUnit": "METERS",
      "longitude": -82.66667
    },
    {
      "elevation": 278,
      "mindate": "1956-07-01",
      "maxdate": "1961-06-01",
      "latitude": 39.71667,
      "name": "LANCASTER 3 W, OH US",
      "datacoverage": 0.8834,
      "id": "COOP:334389",
      "elevationUnit": "METERS",
      "longitude": -82.65
    },
    {
      "elevation": 274.9,
      "mindate": "1956-07-01",
      "maxdate": "1966-01-01",
      "latitude": 39.76667,
      "name": "LANCASTER 5 NW, OH US",
      "datacoverage": 0.0647,
      "id": "COOP:334391",
      "elevationUnit": "METERS",
      "longitude": -82.63333
    },
    {
      "elevation": 287.1,
      "mindate": "1956-09-01",
      "maxdate": "1961-06-01",
      "latitude": 39.73333,
      "name": "LANCASTER 5 WNW, OH US",
      "datacoverage": 0.9318,
      "id": "COOP:334393",
      "elevationUnit": "METERS",
      "longitude": -82.7
    },
    {
      "elevation": 345,
      "mindate": "1956-07-03",
      "maxdate": "1961-08-25",
      "latitude": 39.7,
      "name": "LANCASTER 5 WSW, OH US",
      "datacoverage": 0.0628,
      "id": "COOP:334395",
      "elevationUnit": "METERS",
      "longitude": -82.7
    },
    {
      "elevation": 305.1,
      "mindate": "1956-07-01",
      "maxdate": "1961-06-01",
      "latitude": 39.8,
      "name": "LANCASTER 6 N, OH US",
      "datacoverage": 0.7668,
      "id": "COOP:334397",
      "elevationUnit": "METERS",
      "longitude": -82.61667
    },
    {
      "elevation": 335.9,
      "mindate": "1956-07-01",
      "maxdate": "1961-06-01",
      "latitude": 39.71667,
      "name": "LANCASTER 6 W, OH US",
      "datacoverage": 0.966,
      "id": "COOP:334399",
      "elevationUnit": "METERS",
      "longitude": -82.71667
    },
    {
      "elevation": 331.9,
      "mindate": "1956-07-09",
      "maxdate": "1961-08-25",
      "latitude": 39.73333,
      "name": "LANCASTER 7 WNW, OH US",
      "datacoverage": 0.0659,
      "id": "COOP:334401",
      "elevationUnit": "METERS",
      "longitude": -82.73333
    },
    {
      "elevation": 252.1,
      "mindate": "1965-12-01",
      "maxdate": "2015-11-01",
      "latitude": 39.7156,
      "name": "LANCASTER, OH US",
      "datacoverage": 0.9826,
      "id": "COOP:334403",
      "elevationUnit": "METERS",
      "longitude": -82.6073
    },
    {
      "elevation": 283.5,
      "mindate": "1931-01-01",
      "maxdate": "1991-06-01",
      "latitude": 40.57216,
      "name": "LA RUE, OH US",
      "datacoverage": 0.9216,
      "id": "COOP:334409",
      "elevationUnit": "METERS",
      "longitude": -83.38429
    },
    {
      "elevation": 231.6,
      "mindate": "1951-10-01",
      "maxdate": "2015-11-01",
      "latitude": 39.4706,
      "name": "LAURELVILLE, OH US",
      "datacoverage": 0.9857,
      "id": "COOP:334434",
      "elevationUnit": "METERS",
      "longitude": -82.7344
    },
    {
      "elevation": 208.8,
      "mindate": "1966-11-01",
      "maxdate": "2014-01-01",
      "latitude": 39.3691,
      "name": "LEBANON 4 SE, OH US",
      "datacoverage": 0.0316,
      "id": "COOP:334459",
      "elevationUnit": "METERS",
      "longitude": -84.2398
    },
    {
      "elevation": 223.1,
      "mindate": "1948-08-01",
      "maxdate": "1966-12-01",
      "latitude": 39.43333,
      "name": "LEBANON HIGHWAY DEPARTMENT, OH US",
      "datacoverage": 0.8952,
      "id": "COOP:334461",
      "elevationUnit": "METERS",
      "longitude": -84.2
    },
    {
      "elevation": 298.7,
      "mindate": "1936-06-01",
      "maxdate": "2014-01-01",
      "latitude": 40.4709,
      "name": "LEESVILLE LAKE, OH US",
      "datacoverage": 0.9544,
      "id": "COOP:334473",
      "elevationUnit": "METERS",
      "longitude": -81.1955
    },
    {
      "elevation": 293,
      "mindate": "2012-01-01",
      "maxdate": "2015-11-01",
      "latitude": 40.70806,
      "name": "LIMA ALLEN CO AIRPORT, OH US",
      "datacoverage": 1,
      "id": "COOP:334547",
      "elevationUnit": "METERS",
      "longitude": -84.0214
    },
    {
      "elevation": 259.1,
      "mindate": "1931-01-01",
      "maxdate": "2015-11-01",
      "latitude": 40.7247,
      "name": "LIMA WWTP, OH US",
      "datacoverage": 0.9941,
      "id": "COOP:334551",
      "elevationUnit": "METERS",
      "longitude": -84.1294
    },
    {
      "elevation": 265.2,
      "mindate": "1948-08-01",
      "maxdate": "1989-11-27",
      "latitude": 40.75,
      "name": "LIMA WATER WORKS, OH US",
      "datacoverage": 0.9479,
      "id": "COOP:334556",
      "elevationUnit": "METERS",
      "longitude": -84.08333
    },
    {
      "elevation": 253,
      "mindate": "1931-01-01",
      "maxdate": "1936-06-01",
      "latitude": 39.93333,
      "name": "LINDEN HEIGHTS, OH US",
      "datacoverage": 1,
      "id": "COOP:334581",
      "elevationUnit": "METERS",
      "longitude": -83.35
    },
    {
      "elevation": 301.8,
      "mindate": "1951-12-01",
      "maxdate": "1988-09-01",
      "latitude": 39.78333,
      "name": "LITHOPOLIS 2 S, OH US",
      "datacoverage": 0.9977,
      "id": "COOP:334616",
      "elevationUnit": "METERS",
      "longitude": -82.81667
    },
    {
      "elevation": 220.1,
      "mindate": "1948-08-01",
      "maxdate": "2015-11-01",
      "latitude": 39.5326,
      "name": "LOGAN, OH US",
      "datacoverage": 0.2834,
      "id": "COOP:334672",
      "elevationUnit": "METERS",
      "longitude": -82.3939
    },
    {
      "elevation": 341.4,
      "mindate": "1931-01-01",
      "maxdate": "2015-11-01",
      "latitude": 39.8972,
      "name": "LONDON STATE FISH HATCHERY, OH US",
      "datacoverage": 0.898,
      "id": "COOP:334681",
      "elevationUnit": "METERS",
      "longitude": -83.5096
    },
    {
      "elevation": 335.3,
      "mindate": "1966-04-01",
      "maxdate": "1989-05-01",
      "latitude": 39.88333,
      "name": "LONDON WWTP, OH US",
      "datacoverage": 0.0247,
      "id": "COOP:334686",
      "elevationUnit": "METERS",
      "longitude": -83.43333
    },
    {
      "elevation": 356.6,
      "mindate": "1946-10-01",
      "maxdate": "2011-12-01",
      "latitude": 40.83333,
      "name": "LOUISVILLE, OH US",
      "datacoverage": 0.9464,
      "id": "COOP:334728",
      "elevationUnit": "METERS",
      "longitude": -81.25
    },
    {
      "elevation": 189,
      "mindate": "1931-01-01",
      "maxdate": "1952-06-01",
      "latitude": 39.53333,
      "name": "LOWELL LOCK 3, OH US",
      "datacoverage": 0.973,
      "id": "COOP:334736",
      "elevationUnit": "METERS",
      "longitude": -81.51667
    },
    {
      "elevation": 173.1,
      "mindate": "2015-01-01",
      "maxdate": "2015-11-01",
      "latitude": 38.8845,
      "name": "LUCASVILLE, OH US",
      "datacoverage": 1,
      "id": "COOP:334770",
      "elevationUnit": "METERS",
      "longitude": -82.9955
    },
    {
      "elevation": 235,
      "mindate": "1948-08-01",
      "maxdate": "1975-08-01",
      "latitude": 41.7,
      "name": "LYONS HIGH SCHOOL, OH US",
      "datacoverage": 0.3463,
      "id": "COOP:334789",
      "elevationUnit": "METERS",
      "longitude": -84.06667
    },
    {
      "elevation": 171,
      "mindate": "1951-04-01",
      "maxdate": "1951-11-01",
      "latitude": 39.15,
      "name": "MADISONVILLE, OH US",
      "datacoverage": 0.8732,
      "id": "COOP:334824",
      "elevationUnit": "METERS",
      "longitude": -84.38333
    },
    {
      "elevation": 392.8,
      "mindate": "1948-08-01",
      "maxdate": "2015-11-01",
      "latitude": 40.8204,
      "name": "MANSFIELD LAHM REGIONAL AIRPORT, OH US",
      "datacoverage": 0.9493,
      "id": "COOP:334865",
      "elevationUnit": "METERS",
      "longitude": -82.51769
    },
    {
      "elevation": 411.5,
      "mindate": "1889-02-01",
      "maxdate": "2015-11-01",
      "latitude": 40.76047,
      "name": "MANSFIELD 5 W, OH US",
      "datacoverage": 0.8713,
      "id": "COOP:334874",
      "elevationUnit": "METERS",
      "longitude": -82.61668
    },
    {
      "elevation": 185.9,
      "mindate": "1931-01-01",
      "maxdate": "2013-12-01",
      "latitude": 39.4108,
      "name": "MARIETTA LOCK 1, OH US",
      "datacoverage": 0.9749,
      "id": "COOP:334924",
      "elevationUnit": "METERS",
      "longitude": -81.4536
    },
    {
      "elevation": 185.9,
      "mindate": "1963-03-01",
      "maxdate": "2015-11-01",
      "latitude": 39.4087,
      "name": "MARIETTA WWTP, OH US",
      "datacoverage": 0.9984,
      "id": "COOP:334927",
      "elevationUnit": "METERS",
      "longitude": -81.4329
    },
    {
      "elevation": 253,
      "mindate": "1931-01-01",
      "maxdate": "1963-01-01",
      "latitude": 39.43333,
      "name": "MARIETTA WATER WORKS, OH US",
      "datacoverage": 0.9168,
      "id": "COOP:334929",
      "elevationUnit": "METERS",
      "longitude": -81.46667
    }
  ]
}
