{
  "metadata": {
    "resultset": {
      "offset": 23900,
      "count": 154115,
      "limit": 100
    }
  },
  "results": [
    {
      "mindate": "1926-04-01",
      "maxdate": "1939-06-30",
      "latitude": -30.8,
      "name": "ENGOBLEEN, AS",
      "datacoverage": 0.7489,
      "id": "GHCND:ASN00010185",
      "longitude": 118.2
    },
    {
      "mindate": "1902-01-01",
      "maxdate": "1917-01-31",
      "latitude": -31.55,
      "name": "EUMALGA, AS",
      "datacoverage": 0.8326,
      "id": "GHCND:ASN00010186",
      "longitude": 116.4
    },
    {
      "mindate": "1913-08-01",
      "maxdate": "1923-12-31",
      "latitude": -31.9,
      "name": "GLEN ERIN, AS",
      "datacoverage": 1,
      "id": "GHCND:ASN00010187",
      "longitude": 118.25
    },
    {
      "mindate": "1927-02-01",
      "maxdate": "1944-02-29",
      "latitude": -31.2,
      "name": "GOOMEARIN EAST, AS",
      "datacoverage": 0.8978,
      "id": "GHCND:ASN00010188",
      "longitude": 118.5
    },
    {
      "mindate": "1912-02-01",
      "maxdate": "1919-06-30",
      "latitude": -31.1,
      "name": "GREENS FARM, AS",
      "datacoverage": 0.9995,
      "id": "GHCND:ASN00010189",
      "longitude": 117.5
    },
    {
      "mindate": "1913-08-01",
      "maxdate": "1936-02-29",
      "latitude": -31.4,
      "name": "ECCLESTON, AS",
      "datacoverage": 0.7676,
      "id": "GHCND:ASN00010190",
      "longitude": 117.8
    },
    {
      "mindate": "1911-05-01",
      "maxdate": "1945-09-30",
      "latitude": -30,
      "name": "JIBBERDING, AS",
      "datacoverage": 0.9952,
      "id": "GHCND:ASN00010191",
      "longitude": 116.85
    },
    {
      "elevation": 435,
      "mindate": "1750-03-25",
      "maxdate": "2025-02-20",
      "latitude": -30.5539,
      "name": "JOURERDINE, AS",
      "datacoverage": 0.81,
      "id": "GHCND:ASN00010192",
      "elevationUnit": "METERS",
      "longitude": 118.2828
    },
    {
      "mindate": "1913-07-01",
      "maxdate": "1919-03-31",
      "latitude": -31.4019,
      "name": "KAILOA, AS",
      "datacoverage": 0.9995,
      "id": "GHCND:ASN00010193",
      "longitude": 117.2717
    },
    {
      "mindate": "1924-08-01",
      "maxdate": "1930-01-31",
      "latitude": -31.8,
      "name": "KANIMBLA, AS",
      "datacoverage": 1,
      "id": "GHCND:ASN00010194",
      "longitude": 117
    },
    {
      "elevation": 320,
      "mindate": "1928-06-01",
      "maxdate": "2021-09-09",
      "latitude": -29.2392,
      "name": "KARARA, AS",
      "datacoverage": 0.454,
      "id": "GHCND:ASN00010195",
      "elevationUnit": "METERS",
      "longitude": 116.7122
    },
    {
      "mindate": "1907-01-01",
      "maxdate": "1936-04-30",
      "latitude": -31.1,
      "name": "KOOMBERKINE, AS",
      "datacoverage": 0.9778,
      "id": "GHCND:ASN00010196",
      "longitude": 117.0167
    },
    {
      "mindate": "1910-10-01",
      "maxdate": "1921-05-31",
      "latitude": -31.1,
      "name": "KARINIA, AS",
      "datacoverage": 0.9926,
      "id": "GHCND:ASN00010197",
      "longitude": 117.95
    },
    {
      "mindate": "1907-08-01",
      "maxdate": "1937-07-31",
      "latitude": -31.8,
      "name": "QUAILING, AS",
      "datacoverage": 0.9861,
      "id": "GHCND:ASN00010198",
      "longitude": 117.8
    },
    {
      "mindate": "1929-07-01",
      "maxdate": "1938-12-31",
      "latitude": -31.9,
      "name": "KWOLYIN, AS",
      "datacoverage": 0.9993,
      "id": "GHCND:ASN00010199",
      "longitude": 117.7
    },
    {
      "mindate": "1911-02-01",
      "maxdate": "1940-01-31",
      "latitude": -31.1,
      "name": "SUNNYSIDE, AS",
      "datacoverage": 0.7759,
      "id": "GHCND:ASN00010200",
      "longitude": 118.25
    },
    {
      "mindate": "1930-01-01",
      "maxdate": "1937-12-31",
      "latitude": -30.4,
      "name": "LAKE GRADY, AS",
      "datacoverage": 0.9992,
      "id": "GHCND:ASN00010201",
      "longitude": 117.4
    },
    {
      "mindate": "1921-10-01",
      "maxdate": "1935-12-31",
      "latitude": -30.7,
      "name": "KOONDA, AS",
      "datacoverage": 0.7251,
      "id": "GHCND:ASN00010202",
      "longitude": 117.25
    },
    {
      "mindate": "1911-06-01",
      "maxdate": "1925-01-31",
      "latitude": -31.3,
      "name": "SPRINGDALE, AS",
      "datacoverage": 0.8993,
      "id": "GHCND:ASN00010203",
      "longitude": 117.8
    },
    {
      "mindate": "1919-12-01",
      "maxdate": "1938-12-31",
      "latitude": -31.1,
      "name": "LONGWOOD FARM, AS",
      "datacoverage": 0.9369,
      "id": "GHCND:ASN00010204",
      "longitude": 118.3
    },
    {
      "mindate": "1911-08-01",
      "maxdate": "1925-05-31",
      "latitude": -31.9,
      "name": "LOTHIAN, AS",
      "datacoverage": 0.9941,
      "id": "GHCND:ASN00010205",
      "longitude": 117.7
    },
    {
      "mindate": "1915-06-01",
      "maxdate": "1938-12-31",
      "latitude": -31.9,
      "name": "LOVELL HILL, AS",
      "datacoverage": 0.9645,
      "id": "GHCND:ASN00010206",
      "longitude": 117.9833
    },
    {
      "mindate": "1912-11-01",
      "maxdate": "1918-06-30",
      "latitude": -31.2,
      "name": "MAITLAND, AS",
      "datacoverage": 0.9995,
      "id": "GHCND:ASN00010207",
      "longitude": 118.4
    },
    {
      "mindate": "1911-09-01",
      "maxdate": "1993-07-31",
      "latitude": -30.8,
      "name": "MADINGA, AS",
      "datacoverage": 0.8993,
      "id": "GHCND:ASN00010208",
      "longitude": 117.8
    },
    {
      "mindate": "1912-11-01",
      "maxdate": "1933-10-31",
      "latitude": -31.5,
      "name": "MINDABOOKA, AS",
      "datacoverage": 0.9921,
      "id": "GHCND:ASN00010209",
      "longitude": 118.0167
    },
    {
      "mindate": "1927-01-01",
      "maxdate": "1936-04-30",
      "latitude": -31.1,
      "name": "MINDETHANA, AS",
      "datacoverage": 0.9993,
      "id": "GHCND:ASN00010210",
      "longitude": 118.4
    },
    {
      "mindate": "1908-09-01",
      "maxdate": "1942-02-28",
      "latitude": -31,
      "name": "MININGBROOK, AS",
      "datacoverage": 0.9355,
      "id": "GHCND:ASN00010211",
      "longitude": 116.7
    },
    {
      "mindate": "1913-02-01",
      "maxdate": "1925-02-28",
      "latitude": -31.25,
      "name": "MINNIBERRIE, AS",
      "datacoverage": 0.9246,
      "id": "GHCND:ASN00010212",
      "longitude": 117.9
    },
    {
      "mindate": "1901-01-01",
      "maxdate": "1926-04-30",
      "latitude": -31.4,
      "name": "MOMBERKINE, AS",
      "datacoverage": 0.5528,
      "id": "GHCND:ASN00010213",
      "longitude": 116.7
    },
    {
      "mindate": "1919-12-01",
      "maxdate": "1934-11-30",
      "latitude": -31.5,
      "name": "MYOLA, AS",
      "datacoverage": 0.8993,
      "id": "GHCND:ASN00010214",
      "longitude": 117.75
    },
    {
      "mindate": "1924-05-01",
      "maxdate": "1943-09-30",
      "latitude": -31.6,
      "name": "MOWBRAY, AS",
      "datacoverage": 1,
      "id": "GHCND:ASN00010215",
      "longitude": 117.8
    },
    {
      "mindate": "1922-08-01",
      "maxdate": "1932-10-31",
      "latitude": -30.75,
      "name": "MUNGAN, AS",
      "datacoverage": 0.9993,
      "id": "GHCND:ASN00010216",
      "longitude": 117.75
    },
    {
      "mindate": "1912-08-01",
      "maxdate": "1944-09-30",
      "latitude": -31.0333,
      "name": "NEWLANDS, AS",
      "datacoverage": 0.8886,
      "id": "GHCND:ASN00010217",
      "longitude": 117.5
    },
    {
      "mindate": "1910-09-01",
      "maxdate": "1931-06-30",
      "latitude": -31.0333,
      "name": "WALLAMBIN SOUTH, AS",
      "datacoverage": 0.7801,
      "id": "GHCND:ASN00010218",
      "longitude": 117.4167
    },
    {
      "mindate": "1915-11-01",
      "maxdate": "1931-08-31",
      "latitude": -31,
      "name": "NITTYMARRA HILLS, AS",
      "datacoverage": 0.8842,
      "id": "GHCND:ASN00010219",
      "longitude": 116.6
    },
    {
      "mindate": "1923-03-01",
      "maxdate": "1943-09-30",
      "latitude": -31.4,
      "name": "QUELAGTTING, AS",
      "datacoverage": 0.9993,
      "id": "GHCND:ASN00010220",
      "longitude": 117.1
    },
    {
      "mindate": "1929-07-01",
      "maxdate": "1938-02-28",
      "latitude": -30.4,
      "name": "RPF 69 MILE, AS",
      "datacoverage": 0.8271,
      "id": "GHCND:ASN00010221",
      "longitude": 118.5
    },
    {
      "mindate": "1925-02-01",
      "maxdate": "1934-12-31",
      "latitude": -30.75,
      "name": "RIBBLETON, AS",
      "datacoverage": 1,
      "id": "GHCND:ASN00010222",
      "longitude": 117.9
    },
    {
      "mindate": "1927-11-01",
      "maxdate": "1944-09-30",
      "latitude": -30.75,
      "name": "RONALDSTON, AS",
      "datacoverage": 1,
      "id": "GHCND:ASN00010223",
      "longitude": 118.3
    },
    {
      "mindate": "1921-10-01",
      "maxdate": "1934-03-31",
      "latitude": -31.6,
      "name": "SOUTHERN BROOK, AS",
      "datacoverage": 0.9993,
      "id": "GHCND:ASN00010224",
      "longitude": 116.8
    },
    {
      "mindate": "1913-04-01",
      "maxdate": "1918-12-31",
      "latitude": -31.2,
      "name": "TAMMATON, AS",
      "datacoverage": 0.9419,
      "id": "GHCND:ASN00010226",
      "longitude": 116.9
    },
    {
      "mindate": "1909-02-01",
      "maxdate": "1936-02-29",
      "latitude": -31.4,
      "name": "TOONGA, AS",
      "datacoverage": 0.7756,
      "id": "GHCND:ASN00010227",
      "longitude": 117.5
    },
    {
      "mindate": "1912-02-01",
      "maxdate": "1928-12-31",
      "latitude": -31.35,
      "name": "UCARTY, AS",
      "datacoverage": 0.6603,
      "id": "GHCND:ASN00010228",
      "longitude": 117.1
    },
    {
      "mindate": "1909-11-01",
      "maxdate": "1926-06-30",
      "latitude": -30.9,
      "name": "WADDOURING, AS",
      "datacoverage": 0.9993,
      "id": "GHCND:ASN00010229",
      "longitude": 117.9
    },
    {
      "mindate": "1928-10-01",
      "maxdate": "2025-02-27",
      "latitude": -31.65,
      "name": "WAEEL, AS",
      "datacoverage": 0.2338,
      "id": "GHCND:ASN00010230",
      "longitude": 117.1
    },
    {
      "mindate": "1907-06-01",
      "maxdate": "1946-12-31",
      "latitude": -31.2,
      "name": "WALGORMOURING, AS",
      "datacoverage": 0.9157,
      "id": "GHCND:ASN00010231",
      "longitude": 116.9
    },
    {
      "mindate": "1929-01-01",
      "maxdate": "1940-06-30",
      "latitude": -30.5,
      "name": "WEERONA, AS",
      "datacoverage": 0.8191,
      "id": "GHCND:ASN00010232",
      "longitude": 118.35
    },
    {
      "mindate": "1929-11-01",
      "maxdate": "1937-06-30",
      "latitude": -30.55,
      "name": "WELBUNGIN NORTH, AS",
      "datacoverage": 0.9896,
      "id": "GHCND:ASN00010233",
      "longitude": 118
    },
    {
      "mindate": "1900-02-01",
      "maxdate": "1925-05-31",
      "latitude": -31.9,
      "name": "WHITEHAVEN, AS",
      "datacoverage": 0.7851,
      "id": "GHCND:ASN00010234",
      "longitude": 117.4
    },
    {
      "mindate": "1907-07-01",
      "maxdate": "1938-12-31",
      "latitude": -30.8,
      "name": "WILGOYNE, AS",
      "datacoverage": 0.9761,
      "id": "GHCND:ASN00010235",
      "longitude": 118.45
    },
    {
      "mindate": "1921-02-01",
      "maxdate": "1926-07-31",
      "latitude": -31.15,
      "name": "WYENING, AS",
      "datacoverage": 1,
      "id": "GHCND:ASN00010236",
      "longitude": 116.5
    },
    {
      "mindate": "1925-07-01",
      "maxdate": "1937-03-31",
      "latitude": -31.3,
      "name": "KORRELOCKING SOUTH, AS",
      "datacoverage": 0.8439,
      "id": "GHCND:ASN00010237",
      "longitude": 117.4833
    },
    {
      "mindate": "1902-11-01",
      "maxdate": "1910-10-31",
      "latitude": -31,
      "name": "YARRIGIN, AS",
      "datacoverage": 0.9986,
      "id": "GHCND:ASN00010239",
      "longitude": 117.95
    },
    {
      "mindate": "1904-01-01",
      "maxdate": "1934-01-31",
      "latitude": -31.8,
      "name": "YENELIN, AS",
      "datacoverage": 0.863,
      "id": "GHCND:ASN00010240",
      "longitude": 117.2
    },
    {
      "mindate": "1911-04-01",
      "maxdate": "1916-04-30",
      "latitude": -31.85,
      "name": "YOOLELLA, AS",
      "datacoverage": 0.9993,
      "id": "GHCND:ASN00010241",
      "longitude": 117.25
    },
    {
      "mindate": "1911-09-01",
      "maxdate": "1927-02-28",
      "latitude": -31.9,
      "name": "YOTING, AS",
      "datacoverage": 0.9411,
      "id": "GHCND:ASN00010242",
      "longitude": 117.6
    },
    {
      "elevation": 280,
      "mindate": "1946-01-01",
      "maxdate": "2020-07-26",
      "latitude": -31.4972,
      "name": "FAIRFIELDS, AS",
      "datacoverage": 0.9279,
      "id": "GHCND:ASN00010243",
      "elevationUnit": "METERS",
      "longitude": 117.5894
    },
    {
      "elevation": 330,
      "mindate": "1964-05-01",
      "maxdate": "2019-06-07",
      "latitude": -31.7603,
      "name": "BAKERS HILL CSIRO, AS",
      "datacoverage": 0.8571,
      "id": "GHCND:ASN00010244",
      "elevationUnit": "METERS",
      "longitude": 116.4781
    },
    {
      "mindate": "1891-11-01",
      "maxdate": "1895-03-31",
      "latitude": -31.6,
      "name": "COORINGA, AS",
      "datacoverage": 0.0986,
      "id": "GHCND:ASN00010246",
      "longitude": 116.4697
    },
    {
      "elevation": 231,
      "mindate": "1964-11-01",
      "maxdate": "1967-12-31",
      "latitude": -31.7167,
      "name": "BLUE VALLEY, AS",
      "datacoverage": 1,
      "id": "GHCND:ASN00010247",
      "elevationUnit": "METERS",
      "longitude": 116.5333
    },
    {
      "elevation": 303,
      "mindate": "1930-01-01",
      "maxdate": "1987-08-31",
      "latitude": -31.4931,
      "name": "MERREDIN PUMP STATION NUMBER 4, AS",
      "datacoverage": 0.8744,
      "id": "GHCND:ASN00010248",
      "elevationUnit": "METERS",
      "longitude": 118.2456
    },
    {
      "elevation": 305,
      "mindate": "1930-01-01",
      "maxdate": "2018-01-31",
      "latitude": -31.135,
      "name": "REDWING, AS",
      "datacoverage": 1,
      "id": "GHCND:ASN00010250",
      "elevationUnit": "METERS",
      "longitude": 116.9242
    },
    {
      "elevation": 310,
      "mindate": "1971-01-01",
      "maxdate": "2017-07-31",
      "latitude": -31.2867,
      "name": "DANBERRIN, AS",
      "datacoverage": 0.9136,
      "id": "GHCND:ASN00010251",
      "elevationUnit": "METERS",
      "longitude": 118.0592
    },
    {
      "elevation": 335,
      "mindate": "1967-01-01",
      "maxdate": "1976-12-31",
      "latitude": -31.3333,
      "name": "KANBANAH, AS",
      "datacoverage": 0.9999,
      "id": "GHCND:ASN00010255",
      "elevationUnit": "METERS",
      "longitude": 117.1533
    },
    {
      "mindate": "1968-07-01",
      "maxdate": "1970-05-31",
      "latitude": -30.8333,
      "name": "MANMANNING, AS",
      "datacoverage": 0.8729,
      "id": "GHCND:ASN00010256",
      "longitude": 117.1
    },
    {
      "elevation": 340,
      "mindate": "1959-01-01",
      "maxdate": "2019-06-24",
      "latitude": -31.5094,
      "name": "SPRING VALLEY, AS",
      "datacoverage": 0.9722,
      "id": "GHCND:ASN00010257",
      "elevationUnit": "METERS",
      "longitude": 117.7681
    },
    {
      "elevation": 305,
      "mindate": "1968-05-01",
      "maxdate": "1973-08-31",
      "latitude": -30.7833,
      "name": "ABERVON, AS",
      "datacoverage": 0.9702,
      "id": "GHCND:ASN00010258",
      "elevationUnit": "METERS",
      "longitude": 117.9833
    },
    {
      "elevation": 310,
      "mindate": "1968-06-01",
      "maxdate": "2007-12-31",
      "latitude": -31.3236,
      "name": "BIRAHLEE, AS",
      "datacoverage": 1,
      "id": "GHCND:ASN00010259",
      "elevationUnit": "METERS",
      "longitude": 116.37
    },
    {
      "elevation": 340,
      "mindate": "1921-11-01",
      "maxdate": "2007-09-25",
      "latitude": -29.6983,
      "name": "BIMBIJY, AS",
      "datacoverage": 0.0883,
      "id": "GHCND:ASN00010260",
      "elevationUnit": "METERS",
      "longitude": 118.0342
    },
    {
      "elevation": 310,
      "mindate": "1968-09-01",
      "maxdate": "1973-05-31",
      "latitude": -31.7183,
      "name": "CLACKLINE, AS",
      "datacoverage": 1,
      "id": "GHCND:ASN00010262",
      "elevationUnit": "METERS",
      "longitude": 116.5161
    },
    {
      "mindate": "1914-11-01",
      "maxdate": "1918-10-31",
      "latitude": -31.7833,
      "name": "CARILEE, AS",
      "datacoverage": 0.9991,
      "id": "GHCND:ASN00010263",
      "longitude": 118
    },
    {
      "elevation": 390,
      "mindate": "1969-11-01",
      "maxdate": "2021-08-31",
      "latitude": -30.1547,
      "name": "KENANDRA, AS",
      "datacoverage": 0.9662,
      "id": "GHCND:ASN00010264",
      "elevationUnit": "METERS",
      "longitude": 117.8214
    },
    {
      "mindate": "1930-02-01",
      "maxdate": "1932-10-31",
      "latitude": -30.6167,
      "name": "MILL HILL, AS",
      "datacoverage": 1,
      "id": "GHCND:ASN00010265",
      "longitude": 117.8333
    },
    {
      "elevation": 304,
      "mindate": "1968-08-01",
      "maxdate": "1997-08-31",
      "latitude": -31.2708,
      "name": "BERRING, AS",
      "datacoverage": 0.9993,
      "id": "GHCND:ASN00010269",
      "elevationUnit": "METERS",
      "longitude": 116.9231
    },
    {
      "elevation": 360,
      "mindate": "1970-05-01",
      "maxdate": "1972-09-18",
      "latitude": -29.5833,
      "name": "MOUNT GIBSON, AS",
      "datacoverage": 0.9986,
      "id": "GHCND:ASN00010270",
      "elevationUnit": "METERS",
      "longitude": 117.15
    },
    {
      "mindate": "1909-06-01",
      "maxdate": "1917-07-31",
      "latitude": -31.1,
      "name": "PEMBROKE, AS",
      "datacoverage": 0.551,
      "id": "GHCND:ASN00010271",
      "longitude": 117.3667
    },
    {
      "mindate": "1910-06-01",
      "maxdate": "1911-12-31",
      "latitude": -31.55,
      "name": "RPF 7 MILE, AS",
      "datacoverage": 0.8946,
      "id": "GHCND:ASN00010272",
      "longitude": 117.2667
    },
    {
      "mindate": "1910-06-01",
      "maxdate": "1912-12-31",
      "latitude": -29.7333,
      "name": "RPF 141, AS",
      "datacoverage": 0.872,
      "id": "GHCND:ASN00010273",
      "longitude": 116.6667
    },
    {
      "mindate": "1911-05-01",
      "maxdate": "1916-12-31",
      "latitude": -31.2167,
      "name": "TALGOMINE DOWNS, AS",
      "datacoverage": 1,
      "id": "GHCND:ASN00010274",
      "longitude": 118.35
    },
    {
      "mindate": "1907-01-01",
      "maxdate": "1910-08-31",
      "latitude": -31,
      "name": "UBERIN, AS",
      "datacoverage": 1,
      "id": "GHCND:ASN00010275",
      "longitude": 117
    },
    {
      "mindate": "1925-02-01",
      "maxdate": "1928-02-29",
      "latitude": -31.6,
      "name": "KORBEL, AS",
      "datacoverage": 0.9478,
      "id": "GHCND:ASN00010276",
      "longitude": 118.1167
    },
    {
      "mindate": "1914-11-01",
      "maxdate": "1916-05-31",
      "latitude": -31.6,
      "name": "YALKYN, AS",
      "datacoverage": 0.9481,
      "id": "GHCND:ASN00010277",
      "longitude": 117.9167
    },
    {
      "mindate": "1923-06-01",
      "maxdate": "1925-08-31",
      "latitude": -29.5,
      "name": "WHITE WELLS, AS",
      "datacoverage": 1,
      "id": "GHCND:ASN00010278",
      "longitude": 116.95
    },
    {
      "mindate": "1930-10-01",
      "maxdate": "1936-08-31",
      "latitude": -31.3667,
      "name": "WYDON, AS",
      "datacoverage": 0.9861,
      "id": "GHCND:ASN00010280",
      "longitude": 118.1333
    },
    {
      "mindate": "1905-03-01",
      "maxdate": "1908-05-31",
      "latitude": -31.7667,
      "name": "CRAIGLANDS, AS",
      "datacoverage": 0.4868,
      "id": "GHCND:ASN00010281",
      "longitude": 116.3
    },
    {
      "mindate": "1912-01-01",
      "maxdate": "1918-12-31",
      "latitude": -31.1,
      "name": "STRATHMORE, AS",
      "datacoverage": 0.9642,
      "id": "GHCND:ASN00010282",
      "longitude": 117.2
    },
    {
      "elevation": 240,
      "mindate": "1915-10-01",
      "maxdate": "2017-08-14",
      "latitude": -31.9339,
      "name": "SHACKLETON POST OFFICE, AS",
      "datacoverage": 0.7332,
      "id": "GHCND:ASN00010283",
      "elevationUnit": "METERS",
      "longitude": 117.835
    },
    {
      "mindate": "1935-01-01",
      "maxdate": "1937-09-30",
      "latitude": -31.2333,
      "name": "TOONJA, AS",
      "datacoverage": 0.9986,
      "id": "GHCND:ASN00010284",
      "longitude": 117.5
    },
    {
      "elevation": 340,
      "mindate": "1975-06-01",
      "maxdate": "1980-02-29",
      "latitude": -30.9,
      "name": "CROMLECH FARM, AS",
      "datacoverage": 1,
      "id": "GHCND:ASN00010285",
      "elevationUnit": "METERS",
      "longitude": 117.9822
    },
    {
      "elevation": 216.7,
      "mindate": "1996-10-01",
      "maxdate": "2025-03-06",
      "latitude": -31.6219,
      "name": "CUNDERDIN AIRFIELD, AS",
      "datacoverage": 1,
      "id": "GHCND:ASN00010286",
      "elevationUnit": "METERS",
      "longitude": 117.2217
    },
    {
      "elevation": 310,
      "mindate": "1975-10-01",
      "maxdate": "2004-04-30",
      "latitude": -31.5261,
      "name": "SHAW, AS",
      "datacoverage": 1,
      "id": "GHCND:ASN00010287",
      "elevationUnit": "METERS",
      "longitude": 117.5631
    },
    {
      "elevation": 280,
      "mindate": "1976-06-01",
      "maxdate": "1985-08-26",
      "latitude": -31.7839,
      "name": "COOLBEENIE FARM, AS",
      "datacoverage": 0.9995,
      "id": "GHCND:ASN00010288",
      "elevationUnit": "METERS",
      "longitude": 116.395
    },
    {
      "elevation": 300,
      "mindate": "1976-07-01",
      "maxdate": "2019-12-31",
      "latitude": -31.7364,
      "name": "GLENAVON, AS",
      "datacoverage": 0.9835,
      "id": "GHCND:ASN00010289",
      "elevationUnit": "METERS",
      "longitude": 117.4317
    },
    {
      "elevation": 300,
      "mindate": "1983-01-01",
      "maxdate": "1984-09-30",
      "latitude": -30.4025,
      "name": "DYARD, AS",
      "datacoverage": 1,
      "id": "GHCND:ASN00010290",
      "elevationUnit": "METERS",
      "longitude": 117.5367
    },
    {
      "elevation": 370,
      "mindate": "1964-08-01",
      "maxdate": "1999-11-30",
      "latitude": -30.6756,
      "name": "HOLMFIELD, AS",
      "datacoverage": 0.8562,
      "id": "GHCND:ASN00010291",
      "elevationUnit": "METERS",
      "longitude": 117.6044
    },
    {
      "elevation": 190,
      "mindate": "1918-02-01",
      "maxdate": "2000-09-30",
      "latitude": -31.4106,
      "name": "JENNACUBBINE, AS",
      "datacoverage": 0.7745,
      "id": "GHCND:ASN00010292",
      "elevationUnit": "METERS",
      "longitude": 116.7175
    },
    {
      "mindate": "1930-08-01",
      "maxdate": "1937-02-28",
      "latitude": -31.8,
      "name": "KOOLYARLEE, AS",
      "datacoverage": 1,
      "id": "GHCND:ASN00010293",
      "longitude": 118.6
    },
    {
      "elevation": 244,
      "mindate": "1968-07-01",
      "maxdate": "2023-12-20",
      "latitude": -31.5736,
      "name": "COODERNUPPIN, AS",
      "datacoverage": 0.9789,
      "id": "GHCND:ASN00010294",
      "elevationUnit": "METERS",
      "longitude": 117.5097
    },
    {
      "elevation": 295,
      "mindate": "1750-03-25",
      "maxdate": "2024-11-09",
      "latitude": -31.9067,
      "name": "BALKULING NORTH, AS",
      "datacoverage": 0.9262,
      "id": "GHCND:ASN00010295",
      "elevationUnit": "METERS",
      "longitude": 117.2336
    },
    {
      "mindate": "1922-12-01",
      "maxdate": "1929-02-28",
      "latitude": -31.6833,
      "name": "CHINGAH, AS",
      "datacoverage": 0.8403,
      "id": "GHCND:ASN00010296",
      "longitude": 118.3833
    }
  ]
}
