{
  "metadata": {
    "resultset": {
      "offset": 127000,
      "count": 154115,
      "limit": 100
    }
  },
  "results": [
    {
      "elevation": 24.4,
      "mindate": "1950-09-01",
      "maxdate": "2010-12-31",
      "latitude": 31.65,
      "name": "JESUP 4 NE, GA US",
      "datacoverage": 1,
      "id": "GHCND:USC00094674",
      "elevationUnit": "METERS",
      "longitude": -81.83333
    },
    {
      "elevation": 30.5,
      "mindate": "1956-01-01",
      "maxdate": "2016-03-31",
      "latitude": 31.5075,
      "name": "JESUP 8 S, GA US",
      "datacoverage": 1,
      "id": "GHCND:USC00094676",
      "elevationUnit": "METERS",
      "longitude": -81.8628
    },
    {
      "elevation": 399.3,
      "mindate": "1948-08-01",
      "maxdate": "2016-03-01",
      "latitude": 34.55,
      "name": "JOHNTOWN, GA US",
      "datacoverage": 0.9411,
      "id": "GHCND:USC00094688",
      "elevationUnit": "METERS",
      "longitude": -84.25
    },
    {
      "elevation": 283.5,
      "mindate": "1940-06-01",
      "maxdate": "2025-03-07",
      "latitude": 33.5312,
      "name": "JONESBORO, GA US",
      "datacoverage": 1,
      "id": "GHCND:USC00094700",
      "elevationUnit": "METERS",
      "longitude": -84.3545
    },
    {
      "elevation": 137.2,
      "mindate": "1958-01-01",
      "maxdate": "2017-02-18",
      "latitude": 33.1139,
      "name": "JULIETTE, GA US",
      "datacoverage": 1,
      "id": "GHCND:USC00094728",
      "elevationUnit": "METERS",
      "longitude": -83.7881
    },
    {
      "elevation": 262.1,
      "mindate": "1952-08-01",
      "maxdate": "1981-12-31",
      "latitude": 34.78333,
      "name": "KENSINGTON, GA US",
      "datacoverage": 0.9914,
      "id": "GHCND:USC00094802",
      "elevationUnit": "METERS",
      "longitude": -85.36667
    },
    {
      "elevation": 214,
      "mindate": "1947-02-01",
      "maxdate": "2004-04-30",
      "latitude": 34.23333,
      "name": "KINGSTON, GA US",
      "datacoverage": 0.9418,
      "id": "GHCND:USC00094854",
      "elevationUnit": "METERS",
      "longitude": -84.94528
    },
    {
      "elevation": 94.8,
      "mindate": "2004-08-01",
      "maxdate": "2025-02-13",
      "latitude": 32.7127,
      "name": "KITE, GA US",
      "datacoverage": 1,
      "id": "GHCND:USC00094862",
      "elevationUnit": "METERS",
      "longitude": -82.5415
    },
    {
      "elevation": 243.5,
      "mindate": "1892-04-01",
      "maxdate": "2024-05-31",
      "latitude": 34.853,
      "name": "CHICKAMAUGA 2 SW, GA US",
      "datacoverage": 1,
      "id": "GHCND:USC00094941",
      "elevationUnit": "METERS",
      "longitude": -85.3142
    },
    {
      "elevation": 222.5,
      "mindate": "1887-03-01",
      "maxdate": "2016-01-01",
      "latitude": 33.0537,
      "name": "LA GRANGE, GA US",
      "datacoverage": 1,
      "id": "GHCND:USC00094949",
      "elevationUnit": "METERS",
      "longitude": -85.0318
    },
    {
      "mindate": "1948-08-01",
      "maxdate": "1951-05-31",
      "latitude": 33.03333,
      "name": "LA GRANGE 5 W, GA US",
      "datacoverage": 0.9714,
      "id": "GHCND:USC00094954",
      "longitude": -85.1
    },
    {
      "elevation": 57.9,
      "mindate": "2001-07-01",
      "maxdate": "2005-03-01",
      "latitude": 31.03917,
      "name": "LAKELAND, GA US",
      "datacoverage": 1,
      "id": "GHCND:USC00094971",
      "elevationUnit": "METERS",
      "longitude": -83.07583
    },
    {
      "elevation": 76.2,
      "mindate": "1940-10-01",
      "maxdate": "1943-12-31",
      "latitude": 32.35,
      "name": "LAWSON FIELD, AL US",
      "datacoverage": 0.9231,
      "id": "GHCND:USC00094992",
      "elevationUnit": "METERS",
      "longitude": -85
    },
    {
      "elevation": 79.2,
      "mindate": "2001-07-01",
      "maxdate": "2018-03-28",
      "latitude": 31.7633,
      "name": "LEESBURG 2, GA US",
      "datacoverage": 1,
      "id": "GHCND:USC00095061",
      "elevationUnit": "METERS",
      "longitude": -84.1869
    },
    {
      "elevation": 164.6,
      "mindate": "1894-01-01",
      "maxdate": "1899-07-31",
      "latitude": 33.816667,
      "name": "LEVERETT, GA US",
      "datacoverage": 0.5675,
      "id": "GHCND:USC00095110",
      "elevationUnit": "METERS",
      "longitude": -82.383333
    },
    {
      "elevation": 221.3,
      "mindate": "1952-01-01",
      "maxdate": "2019-01-07",
      "latitude": 33.8705,
      "name": "LEXINGTON, GA US",
      "datacoverage": 1,
      "id": "GHCND:USC00095165",
      "elevationUnit": "METERS",
      "longitude": -83.1135
    },
    {
      "elevation": 256,
      "mindate": "1949-02-01",
      "maxdate": "1951-09-23",
      "latitude": 33.93333,
      "name": "LIME BRANCH, GA US",
      "datacoverage": 1,
      "id": "GHCND:USC00095192",
      "elevationUnit": "METERS",
      "longitude": -85.26667
    },
    {
      "elevation": 138.4,
      "mindate": "1892-04-01",
      "maxdate": "2025-03-05",
      "latitude": 33.77637,
      "name": "LINCOLNTON, GA US",
      "datacoverage": 1,
      "id": "GHCND:USC00095204",
      "elevationUnit": "METERS",
      "longitude": -82.47137
    },
    {
      "elevation": 145.1,
      "mindate": "2019-03-01",
      "maxdate": "2025-03-06",
      "latitude": 33.72433,
      "name": "LINCOLNTON 4.4S, GA US",
      "datacoverage": 0.9998,
      "id": "GHCND:USC00095205",
      "elevationUnit": "METERS",
      "longitude": -82.4674
    },
    {
      "mindate": "1906-08-01",
      "maxdate": "1950-11-23",
      "latitude": 33.95,
      "name": "LISBON, GA US",
      "datacoverage": 0.5319,
      "id": "GHCND:USC00095231",
      "longitude": -82.58333
    },
    {
      "elevation": 680,
      "mindate": "1949-01-01",
      "maxdate": "1962-03-31",
      "latitude": 34.93333,
      "name": "LITTLE HIGHTOWER, GA US",
      "datacoverage": 0.9993,
      "id": "GHCND:USC00095242",
      "elevationUnit": "METERS",
      "longitude": -83.63333
    },
    {
      "elevation": 396.2,
      "mindate": "1900-03-01",
      "maxdate": "1919-12-31",
      "latitude": 33.933333,
      "name": "LOST MOUNTAIN, GA US",
      "datacoverage": 0.9999,
      "id": "GHCND:USC00095290",
      "elevationUnit": "METERS",
      "longitude": -84.7
    },
    {
      "elevation": 98.1,
      "mindate": "1893-01-01",
      "maxdate": "2024-09-10",
      "latitude": 33.0125,
      "name": "LOUISVILLE 1 E, GA US",
      "datacoverage": 1,
      "id": "GHCND:USC00095314",
      "elevationUnit": "METERS",
      "longitude": -82.3914
    },
    {
      "elevation": 21.3,
      "mindate": "1998-02-01",
      "maxdate": "2025-03-06",
      "latitude": 31.71305,
      "name": "LUDOWICI, GA US",
      "datacoverage": 0.8936,
      "id": "GHCND:USC00095331",
      "elevationUnit": "METERS",
      "longitude": -81.74528
    },
    {
      "elevation": 36.6,
      "mindate": "1909-07-01",
      "maxdate": "1994-12-31",
      "latitude": 31.92972,
      "name": "LUMBER CITY, GA US",
      "datacoverage": 0.9054,
      "id": "GHCND:USC00095386",
      "elevationUnit": "METERS",
      "longitude": -82.67917
    },
    {
      "elevation": 147.8,
      "mindate": "1892-03-01",
      "maxdate": "2010-12-31",
      "latitude": 32.0306,
      "name": "LUMPKIN 2 SE, GA US",
      "datacoverage": 1,
      "id": "GHCND:USC00095394",
      "elevationUnit": "METERS",
      "longitude": -84.7754
    },
    {
      "elevation": 65.2,
      "mindate": "1999-08-01",
      "maxdate": "2014-10-01",
      "latitude": 32.2024,
      "name": "LYONS, GA US",
      "datacoverage": 1,
      "id": "GHCND:USC00095401",
      "elevationUnit": "METERS",
      "longitude": -82.3305
    },
    {
      "elevation": 298.7,
      "mindate": "1993-11-01",
      "maxdate": "2014-03-01",
      "latitude": 33.8533,
      "name": "MABLETON 1 N, GA US",
      "datacoverage": 1,
      "id": "GHCND:USC00095404",
      "elevationUnit": "METERS",
      "longitude": -84.5783
    },
    {
      "elevation": 82.3,
      "mindate": "1892-04-01",
      "maxdate": "1984-12-31",
      "latitude": 32.83861,
      "name": "MACON, GA US",
      "datacoverage": 0.9084,
      "id": "GHCND:USC00095438",
      "elevationUnit": "METERS",
      "longitude": -83.62028
    },
    {
      "elevation": 83.8,
      "mindate": "2021-01-01",
      "maxdate": "2021-01-27",
      "latitude": 32.8269,
      "name": "MACON DARDC, GA US",
      "datacoverage": 0.9819,
      "id": "GHCND:USC00095440",
      "elevationUnit": "METERS",
      "longitude": -83.6091
    },
    {
      "elevation": 114,
      "mindate": "1930-01-01",
      "maxdate": "1954-02-28",
      "latitude": 32.83333,
      "name": "MACON WEATHER BUREAU CITY, GA US",
      "datacoverage": 0.983,
      "id": "GHCND:USC00095447",
      "elevationUnit": "METERS",
      "longitude": -83.63333
    },
    {
      "elevation": 47.2,
      "mindate": "2004-03-01",
      "maxdate": "2004-11-30",
      "latitude": 31.74167,
      "name": "MADRAY SPRINGS 2 WNW, GA US",
      "datacoverage": 1,
      "id": "GHCND:USC00095480",
      "elevationUnit": "METERS",
      "longitude": -82.0025
    },
    {
      "elevation": 46.9,
      "mindate": "2008-05-01",
      "maxdate": "2016-08-13",
      "latitude": 31.0833,
      "name": "MANOR, GA US",
      "datacoverage": 0.9998,
      "id": "GHCND:USC00095492",
      "elevationUnit": "METERS",
      "longitude": -82.5652
    },
    {
      "elevation": 342.9,
      "mindate": "1891-10-01",
      "maxdate": "1928-03-31",
      "latitude": 33.95,
      "name": "MARIETTA, GA US",
      "datacoverage": 0.3881,
      "id": "GHCND:USC00095525",
      "elevationUnit": "METERS",
      "longitude": -84.55
    },
    {
      "elevation": 54.9,
      "mindate": "1957-01-01",
      "maxdate": "2010-12-31",
      "latitude": 32.45667,
      "name": "MARSHALLVILLE, GA US",
      "datacoverage": 1,
      "id": "GHCND:USC00095550",
      "elevationUnit": "METERS",
      "longitude": -83.94
    },
    {
      "elevation": 107,
      "mindate": "1892-04-01",
      "maxdate": "1936-11-30",
      "latitude": 32.36667,
      "name": "MARSHALLVILLE 6 S, GA US",
      "datacoverage": 0.9422,
      "id": "GHCND:USC00095555",
      "elevationUnit": "METERS",
      "longitude": -83.93333
    },
    {
      "elevation": 91.4,
      "mindate": "1898-05-01",
      "maxdate": "1910-11-30",
      "latitude": 31.116667,
      "name": "MAUZY, GA US",
      "datacoverage": 0.9868,
      "id": "GHCND:USC00095585",
      "elevationUnit": "METERS",
      "longitude": -83.766667
    },
    {
      "mindate": "1948-08-01",
      "maxdate": "1949-03-31",
      "latitude": 34.2,
      "name": "MAYOS BAR LOCK AND DAM, GA US",
      "datacoverage": 0.7572,
      "id": "GHCND:USC00095627",
      "longitude": -85.26667
    },
    {
      "elevation": 277.4,
      "mindate": "1941-05-01",
      "maxdate": "1998-08-31",
      "latitude": 34.26472,
      "name": "MAYSVILLE, GA US",
      "datacoverage": 0.9941,
      "id": "GHCND:USC00095633",
      "elevationUnit": "METERS",
      "longitude": -83.55806
    },
    {
      "elevation": 215.8,
      "mindate": "1998-06-17",
      "maxdate": "2025-03-07",
      "latitude": 33.47686,
      "name": "MCDONOUGH 5 ENE, GA US",
      "datacoverage": 1,
      "id": "GHCND:USC00095666",
      "elevationUnit": "METERS",
      "longitude": -84.03358
    },
    {
      "elevation": 78.9,
      "mindate": "1958-10-01",
      "maxdate": "1965-04-30",
      "latitude": 32.85,
      "name": "MC INTYRE 1 WNW, GA US",
      "datacoverage": 0.9993,
      "id": "GHCND:USC00095696",
      "elevationUnit": "METERS",
      "longitude": -83.21667
    },
    {
      "elevation": 76.2,
      "mindate": "1937-02-01",
      "maxdate": "1938-04-30",
      "latitude": 32.066667,
      "name": "MCRAE, GA US",
      "datacoverage": 1,
      "id": "GHCND:USC00095740",
      "elevationUnit": "METERS",
      "longitude": -82.9
    },
    {
      "mindate": "1930-07-01",
      "maxdate": "1934-02-28",
      "latitude": 32.15,
      "name": "MELDRIM, GA US",
      "datacoverage": 1,
      "id": "GHCND:USC00095780",
      "longitude": -81.4
    },
    {
      "elevation": 54.9,
      "mindate": "1955-10-01",
      "maxdate": "2025-03-07",
      "latitude": 32.40027,
      "name": "METTER, GA US",
      "datacoverage": 1,
      "id": "GHCND:USC00095811",
      "elevationUnit": "METERS",
      "longitude": -82.04772
    },
    {
      "elevation": 53.3,
      "mindate": "1930-07-01",
      "maxdate": "2010-12-31",
      "latitude": 32.80889,
      "name": "MIDVILLE, GA US",
      "datacoverage": 1,
      "id": "GHCND:USC00095858",
      "elevationUnit": "METERS",
      "longitude": -82.23722
    },
    {
      "elevation": 85.3,
      "mindate": "1957-01-01",
      "maxdate": "2025-02-08",
      "latitude": 32.8753,
      "name": "MIDVILLE EXPERIMENTAL STATION, GA US",
      "datacoverage": 1,
      "id": "GHCND:USC00095863",
      "elevationUnit": "METERS",
      "longitude": -82.2156
    },
    {
      "elevation": 112.2,
      "mindate": "1891-10-01",
      "maxdate": "2017-08-31",
      "latitude": 33.0831,
      "name": "MILLEDGEVILLE, GA US",
      "datacoverage": 1,
      "id": "GHCND:USC00095874",
      "elevationUnit": "METERS",
      "longitude": -83.2498
    },
    {
      "elevation": 59.4,
      "mindate": "1891-11-01",
      "maxdate": "2010-12-31",
      "latitude": 32.87028,
      "name": "MILLEN 4 N, GA US",
      "datacoverage": 1,
      "id": "GHCND:USC00095882",
      "elevationUnit": "METERS",
      "longitude": -81.96722
    },
    {
      "elevation": 30.5,
      "mindate": "1956-02-01",
      "maxdate": "1986-05-31",
      "latitude": 32.93333,
      "name": "MILLHAVEN WADE 2 SE, SC US",
      "datacoverage": 0.9919,
      "id": "GHCND:USC00095896",
      "elevationUnit": "METERS",
      "longitude": -81.5
    },
    {
      "elevation": 47.5,
      "mindate": "2001-04-01",
      "maxdate": "2001-11-30",
      "latitude": 31.27417,
      "name": "MILLWOOD 3 E, GA US",
      "datacoverage": 1,
      "id": "GHCND:USC00095909",
      "elevationUnit": "METERS",
      "longitude": -82.60472
    },
    {
      "elevation": 478.8,
      "mindate": "1911-05-01",
      "maxdate": "1914-02-28",
      "latitude": 34.916667,
      "name": "MINERAL BLUFF, GA US",
      "datacoverage": 0.6764,
      "id": "GHCND:USC00095915",
      "elevationUnit": "METERS",
      "longitude": -84.283333
    },
    {
      "elevation": 528.2,
      "mindate": "2002-01-01",
      "maxdate": "2009-11-01",
      "latitude": 34.95278,
      "name": "MINERAL BLUFF, GA US",
      "datacoverage": 0.9686,
      "id": "GHCND:USC00095917",
      "elevationUnit": "METERS",
      "longitude": -84.32139
    },
    {
      "elevation": 267.9,
      "mindate": "1956-01-01",
      "maxdate": "1978-09-30",
      "latitude": 33.78333,
      "name": "MONROE, GA US",
      "datacoverage": 0.8314,
      "id": "GHCND:USC00095971",
      "elevationUnit": "METERS",
      "longitude": -83.71667
    },
    {
      "elevation": 277.4,
      "mindate": "2021-01-01",
      "maxdate": "2021-06-01",
      "latitude": 33.8019,
      "name": "MONROE DARDC, GA US",
      "datacoverage": 1,
      "id": "GHCND:USC00095974",
      "elevationUnit": "METERS",
      "longitude": -83.7156
    },
    {
      "elevation": 91.1,
      "mindate": "1904-10-01",
      "maxdate": "2023-11-10",
      "latitude": 32.3176,
      "name": "MONTEZUMA 2 NW, GA US",
      "datacoverage": 1,
      "id": "GHCND:USC00095979",
      "elevationUnit": "METERS",
      "longitude": -84.065
    },
    {
      "elevation": 157.9,
      "mindate": "1891-11-01",
      "maxdate": "2025-02-16",
      "latitude": 33.3329,
      "name": "MONTICELLO, GA US",
      "datacoverage": 1,
      "id": "GHCND:USC00095988",
      "elevationUnit": "METERS",
      "longitude": -83.6975
    },
    {
      "elevation": 161.5,
      "mindate": "1956-05-01",
      "maxdate": "1960-01-31",
      "latitude": 33.31667,
      "name": "MONTICELLO 2 NW, GA US",
      "datacoverage": 1,
      "id": "GHCND:USC00095989",
      "elevationUnit": "METERS",
      "longitude": -83.68333
    },
    {
      "elevation": 82.3,
      "mindate": "1892-04-01",
      "maxdate": "1986-03-31",
      "latitude": 31.53333,
      "name": "MORGAN 1 W, GA US",
      "datacoverage": 0.4619,
      "id": "GHCND:USC00096038",
      "elevationUnit": "METERS",
      "longitude": -84.61667
    },
    {
      "elevation": 83.2,
      "mindate": "1959-05-01",
      "maxdate": "2011-03-01",
      "latitude": 31.60611,
      "name": "MORGAN 5 NW, GA US",
      "datacoverage": 1,
      "id": "GHCND:USC00096043",
      "elevationUnit": "METERS",
      "longitude": -84.64528
    },
    {
      "elevation": 622.7,
      "mindate": "2017-01-03",
      "maxdate": "2018-03-31",
      "latitude": 34.8474,
      "name": "MORGANTON 1 SSE, GA US",
      "datacoverage": 0.8177,
      "id": "GHCND:USC00096044",
      "elevationUnit": "METERS",
      "longitude": -84.2349
    },
    {
      "elevation": 103.6,
      "mindate": "1926-04-01",
      "maxdate": "2025-03-05",
      "latitude": 31.17286,
      "name": "MOULTRIE 2 ESE, GA US",
      "datacoverage": 1,
      "id": "GHCND:USC00096087",
      "elevationUnit": "METERS",
      "longitude": -83.74794
    },
    {
      "elevation": 1055.8,
      "mindate": "2002-09-01",
      "maxdate": "2025-03-07",
      "latitude": 34.90467,
      "name": "MOUNTAIN CITY 2 SW, GA US",
      "datacoverage": 1,
      "id": "GHCND:USC00096093",
      "elevationUnit": "METERS",
      "longitude": -83.41287
    },
    {
      "elevation": 69.8,
      "mindate": "1892-12-01",
      "maxdate": "2024-09-26",
      "latitude": 32.1738,
      "name": "MOUNT VERNON, GA US",
      "datacoverage": 0.5593,
      "id": "GHCND:USC00096126",
      "elevationUnit": "METERS",
      "longitude": -82.5956
    },
    {
      "elevation": 152.7,
      "mindate": "1997-01-01",
      "maxdate": "2025-03-02",
      "latitude": 32.6089,
      "name": "MULBERRY GROVE, GA US",
      "datacoverage": 1,
      "id": "GHCND:USC00096148",
      "elevationUnit": "METERS",
      "longitude": -85.0756
    },
    {
      "elevation": 20.7,
      "mindate": "1956-01-01",
      "maxdate": "2025-03-07",
      "latitude": 31.2738,
      "name": "NAHUNTA 6 NE, GA US",
      "datacoverage": 1,
      "id": "GHCND:USC00096219",
      "elevationUnit": "METERS",
      "longitude": -81.9197
    },
    {
      "elevation": 21,
      "mindate": "1974-01-01",
      "maxdate": "1974-04-30",
      "latitude": 31.15,
      "name": "NAHUNTA 3 S, GA US",
      "datacoverage": 1,
      "id": "GHCND:USC00096222",
      "elevationUnit": "METERS",
      "longitude": -81.98333
    },
    {
      "elevation": 72.5,
      "mindate": "1956-01-01",
      "maxdate": "1987-08-31",
      "latitude": 31.13333,
      "name": "NASHVILLE 5 SSE, GA US",
      "datacoverage": 0.9648,
      "id": "GHCND:USC00096237",
      "elevationUnit": "METERS",
      "longitude": -83.21667
    },
    {
      "elevation": 77.7,
      "mindate": "1987-12-01",
      "maxdate": "2013-05-01",
      "latitude": 31.2644,
      "name": "NASHVILLE 4 N, GA US",
      "datacoverage": 1,
      "id": "GHCND:USC00096244",
      "elevationUnit": "METERS",
      "longitude": -83.2391
    },
    {
      "elevation": 58.5,
      "mindate": "1900-01-01",
      "maxdate": "1904-01-31",
      "latitude": 30.9,
      "name": "NAYLOR, GA US",
      "datacoverage": 0.999,
      "id": "GHCND:USC00096255",
      "elevationUnit": "METERS",
      "longitude": -83.083333
    },
    {
      "elevation": 41.1,
      "mindate": "2001-08-01",
      "maxdate": "2003-10-31",
      "latitude": 30.67111,
      "name": "NEEDMORE 2 W, GA US",
      "datacoverage": 0.9257,
      "id": "GHCND:USC00096259",
      "elevationUnit": "METERS",
      "longitude": -82.75139
    },
    {
      "elevation": 1007.1,
      "mindate": "1948-08-01",
      "maxdate": "1962-03-31",
      "latitude": 34.73333,
      "name": "NEEL GAP, GA US",
      "datacoverage": 1,
      "id": "GHCND:USC00096266",
      "elevationUnit": "METERS",
      "longitude": -83.91667
    },
    {
      "elevation": 63.7,
      "mindate": "1956-09-01",
      "maxdate": "2003-02-28",
      "latitude": 32.5953,
      "name": "NEWINGTON, GA US",
      "datacoverage": 0.7886,
      "id": "GHCND:USC00096323",
      "elevationUnit": "METERS",
      "longitude": -81.4997
    },
    {
      "elevation": 242.3,
      "mindate": "1891-10-01",
      "maxdate": "2023-10-31",
      "latitude": 33.3996,
      "name": "NEWNAN 7 WNW, GA US",
      "datacoverage": 1,
      "id": "GHCND:USC00096335",
      "elevationUnit": "METERS",
      "longitude": -84.915
    },
    {
      "elevation": 268.5,
      "mindate": "2003-05-01",
      "maxdate": "2004-12-31",
      "latitude": 33.39694,
      "name": "NEWNAN 6 W, GA US",
      "datacoverage": 0.9963,
      "id": "GHCND:USC00096340",
      "elevationUnit": "METERS",
      "longitude": -84.87472
    },
    {
      "elevation": 51.8,
      "mindate": "2001-03-01",
      "maxdate": "2009-07-01",
      "latitude": 31.28972,
      "name": "NEWTON 5 W, GA US",
      "datacoverage": 0.9898,
      "id": "GHCND:USC00096356",
      "elevationUnit": "METERS",
      "longitude": -84.41583
    },
    {
      "elevation": 61,
      "mindate": "1948-08-01",
      "maxdate": "1951-09-30",
      "latitude": 31.38333,
      "name": "NEWTON EXPERIMENTAL STATION PTNY, GA US",
      "datacoverage": 1,
      "id": "GHCND:USC00096359",
      "elevationUnit": "METERS",
      "longitude": -84.61667
    },
    {
      "elevation": 390.1,
      "mindate": "1959-01-01",
      "maxdate": "1962-03-31",
      "latitude": 34.81667,
      "name": "NICKAJACK GAP, GA US",
      "datacoverage": 0.9986,
      "id": "GHCND:USC00096375",
      "elevationUnit": "METERS",
      "longitude": -85.13333
    },
    {
      "elevation": 604.1,
      "mindate": "1949-01-01",
      "maxdate": "1962-03-31",
      "latitude": 34.7,
      "name": "NOONTOOTLA CREEK, GA US",
      "datacoverage": 1,
      "id": "GHCND:USC00096399",
      "elevationUnit": "METERS",
      "longitude": -84.23333
    },
    {
      "elevation": 306.3,
      "mindate": "1910-05-01",
      "maxdate": "2010-12-31",
      "latitude": 33.9482,
      "name": "NORCROSS, GA US",
      "datacoverage": 1,
      "id": "GHCND:USC00096407",
      "elevationUnit": "METERS",
      "longitude": -84.222
    },
    {
      "elevation": 531,
      "mindate": "1949-01-01",
      "maxdate": "1956-06-20",
      "latitude": 34.96667,
      "name": "NOTTELY DAM, GA US",
      "datacoverage": 1,
      "id": "GHCND:USC00096471",
      "elevationUnit": "METERS",
      "longitude": -84.08333
    },
    {
      "elevation": 246.9,
      "mindate": "1899-01-01",
      "maxdate": "1910-04-30",
      "latitude": 33.816667,
      "name": "OAKDALE, GA US",
      "datacoverage": 0.9545,
      "id": "GHCND:USC00096600",
      "elevationUnit": "METERS",
      "longitude": -84.483333
    },
    {
      "elevation": 224,
      "mindate": "1937-06-01",
      "maxdate": "1941-10-16",
      "latitude": 34.566667,
      "name": "OAKMAN, GA US",
      "datacoverage": 0.9806,
      "id": "GHCND:USC00096625",
      "elevationUnit": "METERS",
      "longitude": -84.716667
    },
    {
      "elevation": 30.5,
      "mindate": "2002-04-01",
      "maxdate": "2011-02-11",
      "latitude": 31.59528,
      "name": "OCILLA WTP, GA US",
      "datacoverage": 1,
      "id": "GHCND:USC00096650",
      "elevationUnit": "METERS",
      "longitude": -83.24722
    },
    {
      "elevation": 32,
      "mindate": "1956-12-01",
      "maxdate": "2016-02-05",
      "latitude": 31.3781,
      "name": "PATTERSON, GA US",
      "datacoverage": 1,
      "id": "GHCND:USC00096838",
      "elevationUnit": "METERS",
      "longitude": -82.1292
    },
    {
      "elevation": 273.1,
      "mindate": "2003-02-01",
      "maxdate": "2003-07-31",
      "latitude": 33.41389,
      "name": "PEACHTREE CITY 2 N, GA US",
      "datacoverage": 1,
      "id": "GHCND:USC00096850",
      "elevationUnit": "METERS",
      "longitude": -84.59583
    },
    {
      "elevation": 62.5,
      "mindate": "1948-08-01",
      "maxdate": "1951-09-30",
      "latitude": 31.2928,
      "name": "PEARSON, GA US",
      "datacoverage": 0.9479,
      "id": "GHCND:USC00096879",
      "elevationUnit": "METERS",
      "longitude": -82.8422
    },
    {
      "elevation": 108.2,
      "mindate": "1898-11-01",
      "maxdate": "1903-04-30",
      "latitude": 31.116667,
      "name": "PELHAM, GA US",
      "datacoverage": 0.3895,
      "id": "GHCND:USC00096905",
      "elevationUnit": "METERS",
      "longitude": -84.15
    },
    {
      "elevation": 246.9,
      "mindate": "1947-10-01",
      "maxdate": "1955-01-31",
      "latitude": 32.78333,
      "name": "PINE MOUNTAIN VALLEY, GA US",
      "datacoverage": 0.9995,
      "id": "GHCND:USC00097046",
      "elevationUnit": "METERS",
      "longitude": -84.85
    },
    {
      "mindate": "1943-01-01",
      "maxdate": "1948-07-12",
      "latitude": 31.933333,
      "name": "PINEY BLUFF, GA US",
      "datacoverage": 0.9993,
      "id": "GHCND:USC00097055",
      "longitude": -82.333333
    },
    {
      "elevation": 45.7,
      "mindate": "1891-11-01",
      "maxdate": "1901-04-30",
      "latitude": 30.683333,
      "name": "PISCOLA, GA US",
      "datacoverage": 1,
      "id": "GHCND:USC00097070",
      "elevationUnit": "METERS",
      "longitude": -83.666667
    },
    {
      "elevation": 152.4,
      "mindate": "1956-01-01",
      "maxdate": "2025-02-20",
      "latitude": 32.0467,
      "name": "PLAINS SW GA EXPERIMENTAL STATION, GA US",
      "datacoverage": 1,
      "id": "GHCND:USC00097087",
      "elevationUnit": "METERS",
      "longitude": -84.3711
    },
    {
      "elevation": 304.8,
      "mindate": "1891-11-01",
      "maxdate": "1924-03-31",
      "latitude": 34,
      "name": "POINT PETER, GA US",
      "datacoverage": 0.9693,
      "id": "GHCND:USC00097130",
      "elevationUnit": "METERS",
      "longitude": -83.016667
    },
    {
      "elevation": 111.3,
      "mindate": "1891-10-01",
      "maxdate": "1916-12-31",
      "latitude": 31.516667,
      "name": "POULAN, GA US",
      "datacoverage": 0.9703,
      "id": "GHCND:USC00097165",
      "elevationUnit": "METERS",
      "longitude": -83.783333
    },
    {
      "elevation": 91.4,
      "mindate": "2000-03-01",
      "maxdate": "2025-03-07",
      "latitude": 31.6953,
      "name": "PRIDGEN, GA US",
      "datacoverage": 1,
      "id": "GHCND:USC00097171",
      "elevationUnit": "METERS",
      "longitude": -82.9239
    },
    {
      "elevation": 123.4,
      "mindate": "1956-02-01",
      "maxdate": "2012-10-16",
      "latitude": 32.0547,
      "name": "PRESTON, GA US",
      "datacoverage": 1,
      "id": "GHCND:USC00097201",
      "elevationUnit": "METERS",
      "longitude": -84.5239
    },
    {
      "elevation": 182.9,
      "mindate": "1898-12-01",
      "maxdate": "1917-11-30",
      "latitude": 32.266667,
      "name": "PUTNAM, GA US",
      "datacoverage": 0.9431,
      "id": "GHCND:USC00097240",
      "elevationUnit": "METERS",
      "longitude": -84.416667
    },
    {
      "elevation": 56.4,
      "mindate": "1891-11-01",
      "maxdate": "2010-12-31",
      "latitude": 30.78361,
      "name": "QUITMAN 2 NW, GA US",
      "datacoverage": 1,
      "id": "GHCND:USC00097276",
      "elevationUnit": "METERS",
      "longitude": -83.56917
    },
    {
      "elevation": 233.2,
      "mindate": "1911-01-01",
      "maxdate": "1922-02-28",
      "latitude": 34.7,
      "name": "RAMHURST, GA US",
      "datacoverage": 1,
      "id": "GHCND:USC00097350",
      "elevationUnit": "METERS",
      "longitude": -84.733333
    },
    {
      "elevation": 198.1,
      "mindate": "1891-01-01",
      "maxdate": "2010-12-31",
      "latitude": 34.59111,
      "name": "RESACA, GA US",
      "datacoverage": 1,
      "id": "GHCND:USC00097430",
      "elevationUnit": "METERS",
      "longitude": -84.95889
    },
    {
      "elevation": 63.1,
      "mindate": "1941-02-14",
      "maxdate": "1942-10-31",
      "latitude": 32.086861,
      "name": "REIDSVILLE, GA US",
      "datacoverage": 0.9956,
      "id": "GHCND:USC00097439",
      "elevationUnit": "METERS",
      "longitude": -82.117898
    }
  ]
}
