{
  "metadata": {
    "resultset": {
      "offset": 21600,
      "count": 154115,
      "limit": 100
    }
  },
  "results": [
    {
      "elevation": 45.7,
      "mindate": "1984-01-01",
      "maxdate": "1984-09-01",
      "latitude": 15.18333,
      "name": "KAGMAN COMM CENTER, US",
      "datacoverage": 0.9998,
      "id": "COOP:914379",
      "elevationUnit": "METERS",
      "longitude": 145.71667
    },
    {
      "elevation": 2.1,
      "mindate": "1954-05-01",
      "maxdate": "2015-11-01",
      "latitude": 5.3544,
      "name": "KOSRAE INTERNATIONAL AIRPORT, FM",
      "datacoverage": 0.7902,
      "id": "COOP:914395",
      "elevationUnit": "METERS",
      "longitude": 162.9533
    },
    {
      "elevation": 42.4,
      "mindate": "1967-08-01",
      "maxdate": "1978-05-01",
      "latitude": -14.33333,
      "name": "MALAELOA, US",
      "datacoverage": 1,
      "id": "COOP:914397",
      "elevationUnit": "METERS",
      "longitude": -170.76667
    },
    {
      "elevation": 2.1,
      "mindate": "1990-08-01",
      "maxdate": "2015-11-01",
      "latitude": 7.1361,
      "name": "LAURA, RM",
      "datacoverage": 0.5822,
      "id": "COOP:914399",
      "elevationUnit": "METERS",
      "longitude": 171.0411
    },
    {
      "elevation": 3,
      "mindate": "1952-01-01",
      "maxdate": "1978-12-01",
      "latitude": 23.86903,
      "name": "FRENCH FRIGATE SHOALS, US",
      "datacoverage": 0.9567,
      "id": "COOP:914401",
      "elevationUnit": "METERS",
      "longitude": -166.28625
    },
    {
      "elevation": 3,
      "mindate": "1961-12-01",
      "maxdate": "1964-05-01",
      "latitude": 9.81667,
      "name": "LIKIEP",
      "datacoverage": 0.9335,
      "id": "COOP:914405",
      "elevationUnit": "METERS",
      "longitude": 169.3
    },
    {
      "elevation": 1.5,
      "mindate": "1986-08-01",
      "maxdate": "2015-11-01",
      "latitude": 5.51667,
      "name": "LUKUNOCH",
      "datacoverage": 0.7301,
      "id": "COOP:914419",
      "elevationUnit": "METERS",
      "longitude": 153.81667
    },
    {
      "elevation": 6.1,
      "mindate": "1969-07-01",
      "maxdate": "1975-10-01",
      "latitude": -14.233119,
      "name": "LUMA VILLAGE",
      "datacoverage": 0.9997,
      "id": "COOP:914424",
      "elevationUnit": "METERS",
      "longitude": -169.515953
    },
    {
      "elevation": 10.1,
      "mindate": "1987-06-01",
      "maxdate": "2015-10-01",
      "latitude": 9.4833,
      "name": "LUWEECH, FM",
      "datacoverage": 0.953,
      "id": "COOP:914429",
      "elevationUnit": "METERS",
      "longitude": 138.0833
    },
    {
      "elevation": 14.9,
      "mindate": "1991-06-01",
      "maxdate": "2015-11-01",
      "latitude": 9.6,
      "name": "MAAP, FM",
      "datacoverage": 0.9387,
      "id": "COOP:914446",
      "elevationUnit": "METERS",
      "longitude": 138.1833
    },
    {
      "elevation": 3,
      "mindate": "1954-05-01",
      "maxdate": "2015-11-01",
      "latitude": 7.06497,
      "name": "MAJURO WBAS AIRPORT, RM",
      "datacoverage": 0.9986,
      "id": "COOP:914460",
      "elevationUnit": "METERS",
      "longitude": 171.27203
    },
    {
      "elevation": 75.9,
      "mindate": "1955-10-01",
      "maxdate": "1955-12-01",
      "latitude": 7.33333,
      "name": "MALAKAL RES, PS",
      "datacoverage": 0.9925,
      "id": "COOP:914465",
      "elevationUnit": "METERS",
      "longitude": 134.45
    },
    {
      "elevation": 65.8,
      "mindate": "1970-07-01",
      "maxdate": "2012-12-01",
      "latitude": 13.45047,
      "name": "MANGILAO, US",
      "datacoverage": 0.9783,
      "id": "COOP:914468",
      "elevationUnit": "METERS",
      "longitude": 144.80094
    },
    {
      "elevation": 24.1,
      "mindate": "1952-01-01",
      "maxdate": "1968-12-01",
      "latitude": 24.2883,
      "name": "MARCUS ISLAND WEATHER BUREAU, JA",
      "datacoverage": 0.7401,
      "id": "COOP:914475",
      "elevationUnit": "METERS",
      "longitude": 153.9833
    },
    {
      "elevation": 3,
      "mindate": "1990-04-01",
      "maxdate": "2015-11-01",
      "latitude": 7.33333,
      "name": "MARICULTURE CENTER, PS",
      "datacoverage": 0.6785,
      "id": "COOP:914478",
      "elevationUnit": "METERS",
      "longitude": 134.45
    },
    {
      "elevation": 9.1,
      "mindate": "1967-03-01",
      "maxdate": "2015-11-01",
      "latitude": 6.84556,
      "name": "METALANIM, FM",
      "datacoverage": 0.8033,
      "id": "COOP:914482",
      "elevationUnit": "METERS",
      "longitude": 158.30639
    },
    {
      "elevation": 3,
      "mindate": "1985-12-01",
      "maxdate": "2015-11-01",
      "latitude": 6.0833,
      "name": "MILI, RM",
      "datacoverage": 0.6528,
      "id": "COOP:914487",
      "elevationUnit": "METERS",
      "longitude": 171.7333
    },
    {
      "elevation": 13.7,
      "mindate": "1966-02-01",
      "maxdate": "1977-09-01",
      "latitude": 6.688417,
      "name": "MOKIL ATOLL, FM",
      "datacoverage": 0.3572,
      "id": "COOP:914489",
      "elevationUnit": "METERS",
      "longitude": 159.76475
    },
    {
      "elevation": 3,
      "mindate": "1952-05-01",
      "maxdate": "1991-08-01",
      "latitude": 28.21667,
      "name": "MIDWAY SAND ISLAND",
      "datacoverage": 0.7818,
      "id": "COOP:914490",
      "elevationUnit": "METERS",
      "longitude": -177.35
    },
    {
      "elevation": 31.1,
      "mindate": "1983-05-01",
      "maxdate": "2015-11-01",
      "latitude": 7.45,
      "name": "NEKKEN FORESTRY, PS",
      "datacoverage": 0.7493,
      "id": "COOP:914519",
      "elevationUnit": "METERS",
      "longitude": 134.5
    },
    {
      "elevation": 0,
      "mindate": "1952-05-01",
      "maxdate": "1972-05-01",
      "latitude": 26.2,
      "name": "NAHA AFB OKINAWA, JA",
      "datacoverage": 0.9418,
      "id": "COOP:914540",
      "elevationUnit": "METERS",
      "longitude": 127.65
    },
    {
      "elevation": 1.5,
      "mindate": "1951-10-01",
      "maxdate": "1955-12-01",
      "latitude": 7.46666,
      "name": "CHUUK WEATHER SERVICE OFFICE AIRPORT, FM",
      "datacoverage": 0.9996,
      "id": "COOP:914551",
      "elevationUnit": "METERS",
      "longitude": 151.85
    },
    {
      "elevation": 3,
      "mindate": "1955-07-01",
      "maxdate": "1979-10-01",
      "latitude": 7.63333,
      "name": "NGASANG BABELTHUAP",
      "datacoverage": 0.8971,
      "id": "COOP:914580",
      "elevationUnit": "METERS",
      "longitude": 134.65
    },
    {
      "elevation": 10.7,
      "mindate": "1993-11-01",
      "maxdate": "2015-10-01",
      "latitude": 9.5667,
      "name": "NORTH FANIF, FM",
      "datacoverage": 0.9395,
      "id": "COOP:914585",
      "elevationUnit": "METERS",
      "longitude": 138.1167
    },
    {
      "elevation": 2.4,
      "mindate": "1985-12-01",
      "maxdate": "2015-11-01",
      "latitude": 3.85,
      "name": "NUKUORO, FM",
      "datacoverage": 0.9278,
      "id": "COOP:914590",
      "elevationUnit": "METERS",
      "longitude": 155.0167
    },
    {
      "elevation": 42.4,
      "mindate": "1978-11-01",
      "maxdate": "2014-01-01",
      "latitude": -14.33333,
      "name": "MALAELOA, US",
      "datacoverage": 0.9479,
      "id": "COOP:914594",
      "elevationUnit": "METERS",
      "longitude": -170.76667
    },
    {
      "elevation": 3,
      "mindate": "1955-06-01",
      "maxdate": "1957-09-01",
      "latitude": -14.170658,
      "name": "OFU, US",
      "datacoverage": 0.9278,
      "id": "COOP:914650",
      "elevationUnit": "METERS",
      "longitude": -169.678928
    },
    {
      "elevation": 24.1,
      "mindate": "1956-01-01",
      "maxdate": "1966-12-01",
      "latitude": 6.93333,
      "name": "OA, FM",
      "datacoverage": 0.856,
      "id": "COOP:914665",
      "elevationUnit": "METERS",
      "longitude": 158.31667
    },
    {
      "elevation": 3,
      "mindate": "1978-07-01",
      "maxdate": "2014-01-01",
      "latitude": 13.4619,
      "name": "PITI, US",
      "datacoverage": 0.0323,
      "id": "COOP:914670",
      "elevationUnit": "METERS",
      "longitude": 144.6894
    },
    {
      "elevation": 3.7,
      "mindate": "1966-01-01",
      "maxdate": "2015-11-01",
      "latitude": -14.33056,
      "name": "PAGO PAGO WEATHER SERVICE OFFICE AIRPORT, US",
      "datacoverage": 0.9984,
      "id": "COOP:914690",
      "elevationUnit": "METERS",
      "longitude": -170.71361
    },
    {
      "elevation": 3,
      "mindate": "1949-10-01",
      "maxdate": "1957-04-01",
      "latitude": 5.88333,
      "name": "PALMYRA",
      "datacoverage": 0.3188,
      "id": "COOP:914701",
      "elevationUnit": "METERS",
      "longitude": -162.08333
    },
    {
      "elevation": 45.7,
      "mindate": "1981-09-01",
      "maxdate": "2014-12-01",
      "latitude": 6.90528,
      "name": "PAIES KITTI, FM",
      "datacoverage": 0.7025,
      "id": "COOP:914705",
      "elevationUnit": "METERS",
      "longitude": 158.15861
    },
    {
      "elevation": 85.3,
      "mindate": "1991-09-01",
      "maxdate": "2015-11-01",
      "latitude": 6.92694,
      "name": "PALIKIR, FM",
      "datacoverage": 0.9313,
      "id": "COOP:914710",
      "elevationUnit": "METERS",
      "longitude": 158.15722
    },
    {
      "elevation": 3,
      "mindate": "1991-06-01",
      "maxdate": "2015-11-01",
      "latitude": 7.03333,
      "name": "PELELIU, PS",
      "datacoverage": 0.6836,
      "id": "COOP:914712",
      "elevationUnit": "METERS",
      "longitude": 134.26667
    },
    {
      "elevation": 2.4,
      "mindate": "1985-12-01",
      "maxdate": "2015-11-01",
      "latitude": 6.2167,
      "name": "PINGELAP, FM",
      "datacoverage": 0.9167,
      "id": "COOP:914720",
      "elevationUnit": "METERS",
      "longitude": 160.7
    },
    {
      "elevation": 3,
      "mindate": "2004-12-01",
      "maxdate": "2015-10-01",
      "latitude": 13.3522,
      "name": "PIRATES COVE, US",
      "datacoverage": 0.9085,
      "id": "COOP:914727",
      "elevationUnit": "METERS",
      "longitude": 144.7669
    },
    {
      "elevation": 9.1,
      "mindate": "1980-04-01",
      "maxdate": "2014-01-01",
      "latitude": 6.9569,
      "name": "POHNPEI HOSPITAL, FM",
      "datacoverage": 0.0685,
      "id": "COOP:914745",
      "elevationUnit": "METERS",
      "longitude": 158.2178
    },
    {
      "elevation": 36.6,
      "mindate": "1951-07-01",
      "maxdate": "2015-11-01",
      "latitude": 6.9667,
      "name": "POHNPEI WEATHER SERVICE OFFICE, FM",
      "datacoverage": 1,
      "id": "COOP:914751",
      "elevationUnit": "METERS",
      "longitude": 158.2167
    },
    {
      "elevation": 2.1,
      "mindate": "1986-08-01",
      "maxdate": "2015-11-01",
      "latitude": 7.35,
      "name": "POLOWAT",
      "datacoverage": 0.7273,
      "id": "COOP:914761",
      "elevationUnit": "METERS",
      "longitude": 149.2
    },
    {
      "elevation": 14.3,
      "mindate": "1956-01-01",
      "maxdate": "1982-09-01",
      "latitude": 14.13888,
      "name": "ROTA, US",
      "datacoverage": 0.6137,
      "id": "COOP:914800",
      "elevationUnit": "METERS",
      "longitude": 145.14805
    },
    {
      "elevation": 179.2,
      "mindate": "1982-06-01",
      "maxdate": "2015-11-01",
      "latitude": 14.1717,
      "name": "ROTA AIRPORT, US",
      "datacoverage": 0.9405,
      "id": "COOP:914801",
      "elevationUnit": "METERS",
      "longitude": 145.2428
    },
    {
      "elevation": 9.1,
      "mindate": "1993-10-01",
      "maxdate": "2015-10-01",
      "latitude": 9.6333,
      "name": "RUMUNG, FM",
      "datacoverage": 0.9283,
      "id": "COOP:914808",
      "elevationUnit": "METERS",
      "longitude": 138.1667
    },
    {
      "elevation": 9.4,
      "mindate": "1962-09-01",
      "maxdate": "1968-12-01",
      "latitude": 5.3333,
      "name": "SATAWAN ATOLL, FM",
      "datacoverage": 0.9076,
      "id": "COOP:914811",
      "elevationUnit": "METERS",
      "longitude": 153.7333
    },
    {
      "elevation": 2.7,
      "mindate": "1969-02-01",
      "maxdate": "1976-10-01",
      "latitude": 5.33333,
      "name": "SATAWAN ATOLL, FM",
      "datacoverage": 0.7851,
      "id": "COOP:914814",
      "elevationUnit": "METERS",
      "longitude": 153.73333
    },
    {
      "elevation": 3,
      "mindate": "1968-01-01",
      "maxdate": "1976-12-01",
      "latitude": -11.05,
      "name": "SWAIN ISLAND, US",
      "datacoverage": 0.8517,
      "id": "COOP:914822",
      "elevationUnit": "METERS",
      "longitude": -171.08333
    },
    {
      "elevation": 4.3,
      "mindate": "1991-07-01",
      "maxdate": "2014-12-01",
      "latitude": 5.36944,
      "name": "TAFUNSAK",
      "datacoverage": 0.6524,
      "id": "COOP:914825",
      "elevationUnit": "METERS",
      "longitude": 163.01556
    },
    {
      "elevation": 76.2,
      "mindate": "1996-09-01",
      "maxdate": "1997-12-01",
      "latitude": 13.36472,
      "name": "TALOFOFO, US",
      "datacoverage": 1,
      "id": "COOP:914827",
      "elevationUnit": "METERS",
      "longitude": 144.73889
    },
    {
      "elevation": 91.1,
      "mindate": "1965-07-01",
      "maxdate": "1969-10-01",
      "latitude": 13.35,
      "name": "TALOFOFO VILLAGE, US",
      "datacoverage": 0.9223,
      "id": "COOP:914828",
      "elevationUnit": "METERS",
      "longitude": 144.75
    },
    {
      "elevation": 21.3,
      "mindate": "1991-06-01",
      "maxdate": "2015-11-01",
      "latitude": 9.55,
      "name": "TAMIL, FM",
      "datacoverage": 0.9183,
      "id": "COOP:914831",
      "elevationUnit": "METERS",
      "longitude": 138.15
    },
    {
      "elevation": 3,
      "mindate": "1962-06-01",
      "maxdate": "1966-12-01",
      "latitude": 3.007,
      "name": "TOBI, PS",
      "datacoverage": 0.9631,
      "id": "COOP:914840",
      "elevationUnit": "METERS",
      "longitude": 131.1237
    },
    {
      "elevation": 14.9,
      "mindate": "1987-01-01",
      "maxdate": "2015-11-01",
      "latitude": 5.3264,
      "name": "TOFOL, FM",
      "datacoverage": 0.7436,
      "id": "COOP:914843",
      "elevationUnit": "METERS",
      "longitude": 163.005
    },
    {
      "elevation": 1.5,
      "mindate": "1956-01-01",
      "maxdate": "1993-10-31",
      "latitude": 7.46666,
      "name": "CHUUK WEATHER SERVICE OFFICE AIRPORT, FM",
      "datacoverage": 1,
      "id": "COOP:914851",
      "elevationUnit": "METERS",
      "longitude": 151.85
    },
    {
      "elevation": 65.5,
      "mindate": "1979-09-01",
      "maxdate": "2015-11-01",
      "latitude": 15.11667,
      "name": "SAIPAN INTERNATIONAL AIRPORT, US",
      "datacoverage": 0.9786,
      "id": "COOP:914855",
      "elevationUnit": "METERS",
      "longitude": 145.71667
    },
    {
      "elevation": 3,
      "mindate": "1954-01-01",
      "maxdate": "1978-12-01",
      "latitude": 15.13333,
      "name": "SAIPAN LORAN, US",
      "datacoverage": 0.7234,
      "id": "COOP:914860",
      "elevationUnit": "METERS",
      "longitude": 145.7
    },
    {
      "elevation": 152.1,
      "mindate": "1959-01-01",
      "maxdate": "1962-05-01",
      "latitude": 15.21667,
      "name": "SAIPAN NUMBER 2, US",
      "datacoverage": 1,
      "id": "COOP:914861",
      "elevationUnit": "METERS",
      "longitude": 145.73333
    },
    {
      "elevation": 3.7,
      "mindate": "1956-04-01",
      "maxdate": "1966-12-01",
      "latitude": -14.33056,
      "name": "PAGO PAGO WEATHER SERVICE OFFICE AIRPORT, US",
      "datacoverage": 0.8991,
      "id": "COOP:914869",
      "elevationUnit": "METERS",
      "longitude": -170.71361
    },
    {
      "elevation": 110,
      "mindate": "1956-09-01",
      "maxdate": "1957-09-01",
      "latitude": 13.55972,
      "name": "GUAM WSMO, US",
      "datacoverage": 1,
      "id": "COOP:914870",
      "elevationUnit": "METERS",
      "longitude": 144.8375
    },
    {
      "elevation": 42.4,
      "mindate": "1955-04-01",
      "maxdate": "1967-02-01",
      "latitude": -14.33333,
      "name": "MALAELOA, US",
      "datacoverage": 0.8253,
      "id": "COOP:914873",
      "elevationUnit": "METERS",
      "longitude": -170.76667
    },
    {
      "elevation": 81.7,
      "mindate": "1987-10-01",
      "maxdate": "2014-12-01",
      "latitude": 15,
      "name": "TINIAN, US",
      "datacoverage": 0.9051,
      "id": "COOP:914874",
      "elevationUnit": "METERS",
      "longitude": 145.63333
    },
    {
      "elevation": 57.9,
      "mindate": "1978-08-01",
      "maxdate": "1988-06-01",
      "latitude": 13.28333,
      "name": "UMATAC, US",
      "datacoverage": 0.8319,
      "id": "COOP:914885",
      "elevationUnit": "METERS",
      "longitude": 144.66667
    },
    {
      "elevation": 7,
      "mindate": "1989-01-01",
      "maxdate": "1999-02-01",
      "latitude": 13.28652,
      "name": "UMATAC 1, US",
      "datacoverage": 0.9186,
      "id": "COOP:914887",
      "elevationUnit": "METERS",
      "longitude": 144.66268
    },
    {
      "elevation": 1.8,
      "mindate": "1989-08-01",
      "maxdate": "2015-11-01",
      "latitude": 10.03333,
      "name": "ULITHI",
      "datacoverage": 0.8988,
      "id": "COOP:914892",
      "elevationUnit": "METERS",
      "longitude": 139.8
    },
    {
      "elevation": 1.8,
      "mindate": "1985-12-01",
      "maxdate": "2015-10-01",
      "latitude": 11.2333,
      "name": "UTIRIK, RM",
      "datacoverage": 0.5404,
      "id": "COOP:914895",
      "elevationUnit": "METERS",
      "longitude": 169.85
    },
    {
      "elevation": 4,
      "mindate": "1990-10-01",
      "maxdate": "2015-11-01",
      "latitude": 5.2739,
      "name": "UTWA",
      "datacoverage": 0.9239,
      "id": "COOP:914898",
      "elevationUnit": "METERS",
      "longitude": 162.9742
    },
    {
      "elevation": 3.7,
      "mindate": "1949-10-01",
      "maxdate": "2004-05-01",
      "latitude": 19.28333,
      "name": "WAKE ISLAND, US",
      "datacoverage": 0.9817,
      "id": "COOP:914901",
      "elevationUnit": "METERS",
      "longitude": 166.65
    },
    {
      "elevation": 80.8,
      "mindate": "1958-07-01",
      "maxdate": "2014-01-01",
      "latitude": -14.27278,
      "name": "VAIPITO, US",
      "datacoverage": 0.9307,
      "id": "COOP:914902",
      "elevationUnit": "METERS",
      "longitude": -170.69222
    },
    {
      "elevation": 1.8,
      "mindate": "1985-12-01",
      "maxdate": "2015-10-01",
      "latitude": 9.4667,
      "name": "WOTJE",
      "datacoverage": 0.6686,
      "id": "COOP:914903",
      "elevationUnit": "METERS",
      "longitude": 170.25
    },
    {
      "elevation": 106.1,
      "mindate": "1961-12-01",
      "maxdate": "1964-06-01",
      "latitude": 13.36667,
      "name": "HUGHES FARM, US",
      "datacoverage": 0.4196,
      "id": "COOP:914910",
      "elevationUnit": "METERS",
      "longitude": 144.73333
    },
    {
      "elevation": 2.1,
      "mindate": "1968-01-01",
      "maxdate": "2015-11-01",
      "latitude": 7.37649,
      "name": "WOLEAI ATOLL, FM",
      "datacoverage": 0.7774,
      "id": "COOP:914911",
      "elevationUnit": "METERS",
      "longitude": 143.9075
    },
    {
      "elevation": 3,
      "mindate": "1955-04-01",
      "maxdate": "1957-01-01",
      "latitude": -14.25,
      "name": "VATIA, US",
      "datacoverage": 0.9965,
      "id": "COOP:914912",
      "elevationUnit": "METERS",
      "longitude": -170.66667
    },
    {
      "elevation": 160,
      "mindate": "1978-07-01",
      "maxdate": "2012-12-01",
      "latitude": 13.5478,
      "name": "YIGO, US",
      "datacoverage": 0.9854,
      "id": "COOP:914950",
      "elevationUnit": "METERS",
      "longitude": 144.8928
    },
    {
      "elevation": 13.4,
      "mindate": "1951-07-01",
      "maxdate": "2015-11-01",
      "latitude": 9.48333,
      "name": "YAP ISLAND WEATHER SERVICE OFFICE AIRPORT, FM",
      "datacoverage": 0.9689,
      "id": "COOP:914951",
      "elevationUnit": "METERS",
      "longitude": 138.08333
    },
    {
      "elevation": 75.9,
      "mindate": "1952-06-01",
      "maxdate": "1954-01-01",
      "latitude": 26.38333,
      "name": "YONTAN, JA",
      "datacoverage": 0.998,
      "id": "COOP:914975",
      "elevationUnit": "METERS",
      "longitude": 127.75
    },
    {
      "elevation": 10.1,
      "mindate": "1949-01-01",
      "maxdate": "1949-08-14",
      "latitude": 17.11667,
      "name": "ST JOHNS COOLIDGE FIELD, AC",
      "datacoverage": 1,
      "id": "GHCND:ACW00011604",
      "elevationUnit": "METERS",
      "longitude": -61.78333
    },
    {
      "elevation": 19.2,
      "mindate": "1957-09-01",
      "maxdate": "1970-02-13",
      "latitude": 17.13333,
      "name": "ST JOHNS, AC",
      "datacoverage": 0.987,
      "id": "GHCND:ACW00011647",
      "elevationUnit": "METERS",
      "longitude": -61.78333
    },
    {
      "elevation": 34,
      "mindate": "1944-03-01",
      "maxdate": "2025-03-06",
      "latitude": 25.333,
      "name": "SHARJAH INTER. AIRP, AE",
      "datacoverage": 0.7399,
      "id": "GHCND:AE000041196",
      "elevationUnit": "METERS",
      "longitude": 55.517
    },
    {
      "elevation": 10.4,
      "mindate": "1983-01-01",
      "maxdate": "2025-03-06",
      "latitude": 25.255,
      "name": "DUBAI INTERNATIONAL, AE",
      "datacoverage": 0.9983,
      "id": "GHCND:AEM00041194",
      "elevationUnit": "METERS",
      "longitude": 55.364
    },
    {
      "elevation": 26.8,
      "mindate": "1983-01-01",
      "maxdate": "2025-03-06",
      "latitude": 24.433,
      "name": "ABU DHABI INTERNATIONAL, AE",
      "datacoverage": 0.9971,
      "id": "GHCND:AEM00041217",
      "elevationUnit": "METERS",
      "longitude": 54.651
    },
    {
      "elevation": 264.9,
      "mindate": "1994-03-01",
      "maxdate": "2025-03-06",
      "latitude": 24.262,
      "name": "AL AIN INTERNATIONAL, AE",
      "datacoverage": 0.9943,
      "id": "GHCND:AEM00041218",
      "elevationUnit": "METERS",
      "longitude": 55.609
    },
    {
      "elevation": 3366,
      "mindate": "1973-01-13",
      "maxdate": "1992-04-21",
      "latitude": 35.317,
      "name": "NORTH SALANG, AF",
      "datacoverage": 0.7254,
      "id": "GHCND:AF000040930",
      "elevationUnit": "METERS",
      "longitude": 69.017
    },
    {
      "elevation": 977.2,
      "mindate": "1973-01-01",
      "maxdate": "2021-08-12",
      "latitude": 34.21,
      "name": "HERAT, AF",
      "datacoverage": 0.4908,
      "id": "GHCND:AFM00040938",
      "elevationUnit": "METERS",
      "longitude": 62.228
    },
    {
      "elevation": 1791.3,
      "mindate": "1966-03-02",
      "maxdate": "2021-08-30",
      "latitude": 34.566,
      "name": "KABUL INTERNATIONAL, AF",
      "datacoverage": 0.5777,
      "id": "GHCND:AFM00040948",
      "elevationUnit": "METERS",
      "longitude": 69.212
    },
    {
      "elevation": 1010,
      "mindate": "1973-01-02",
      "maxdate": "2020-12-31",
      "latitude": 31.5,
      "name": "KANDAHAR AIRPORT, AF",
      "datacoverage": 0.4906,
      "id": "GHCND:AFM00040990",
      "elevationUnit": "METERS",
      "longitude": 65.85
    },
    {
      "elevation": 24,
      "mindate": "1940-01-01",
      "maxdate": "2025-03-06",
      "latitude": 36.7167,
      "name": "ALGER DAR EL BEIDA, AG",
      "datacoverage": 1,
      "id": "GHCND:AG000060390",
      "elevationUnit": "METERS",
      "longitude": 3.25
    },
    {
      "elevation": 397,
      "mindate": "1892-01-01",
      "maxdate": "2025-03-06",
      "latitude": 30.5667,
      "name": "EL GOLEA, AG",
      "datacoverage": 0.7834,
      "id": "GHCND:AG000060590",
      "elevationUnit": "METERS",
      "longitude": 2.8667
    },
    {
      "elevation": 561,
      "mindate": "1958-10-01",
      "maxdate": "2025-03-06",
      "latitude": 28.05,
      "name": "IN AMENAS, AG",
      "datacoverage": 1,
      "id": "GHCND:AG000060611",
      "elevationUnit": "METERS",
      "longitude": 9.6331
    },
    {
      "elevation": 1362,
      "mindate": "1940-01-01",
      "maxdate": "2014-02-01",
      "latitude": 22.8,
      "name": "TAMANRASSET, AG",
      "datacoverage": 0.9911,
      "id": "GHCND:AG000060680",
      "elevationUnit": "METERS",
      "longitude": 5.4331
    },
    {
      "elevation": 50,
      "mindate": "1852-01-01",
      "maxdate": "1966-12-31",
      "latitude": 35.7297,
      "name": "ORAN HOPITAL MILITAIRE, AG",
      "datacoverage": 0.6507,
      "id": "GHCND:AGE00135039",
      "elevationUnit": "METERS",
      "longitude": 0.65
    },
    {
      "elevation": 161,
      "mindate": "1909-11-01",
      "maxdate": "1937-12-31",
      "latitude": 36.97,
      "name": "ANNABA CAP DE GARDE",
      "datacoverage": 0.9527,
      "id": "GHCND:AGE00147704",
      "elevationUnit": "METERS",
      "longitude": 7.79
    },
    {
      "elevation": 59,
      "mindate": "1877-04-01",
      "maxdate": "1938-12-29",
      "latitude": 36.78,
      "name": "ALGIERS VILLE UNIVERSITE",
      "datacoverage": 0.9784,
      "id": "GHCND:AGE00147705",
      "elevationUnit": "METERS",
      "longitude": 3.07
    },
    {
      "elevation": 344,
      "mindate": "1893-01-01",
      "maxdate": "1920-12-31",
      "latitude": 36.8,
      "name": "ALGIERS BOUZAREAH, AG",
      "datacoverage": 0.8989,
      "id": "GHCND:AGE00147706",
      "elevationUnit": "METERS",
      "longitude": 3.03
    },
    {
      "elevation": 38,
      "mindate": "1878-01-01",
      "maxdate": "1879-12-31",
      "latitude": 36.8,
      "name": "ALGIERS CAP CAXINE, AG",
      "datacoverage": 1,
      "id": "GHCND:AGE00147707",
      "elevationUnit": "METERS",
      "longitude": 3.04
    },
    {
      "elevation": 222,
      "mindate": "1879-01-01",
      "maxdate": "2025-03-06",
      "latitude": 36.72,
      "name": "TIZI OUZOU, AG",
      "datacoverage": 0.5094,
      "id": "GHCND:AGE00147708",
      "elevationUnit": "METERS",
      "longitude": 4.05
    },
    {
      "elevation": 942,
      "mindate": "1879-01-01",
      "maxdate": "1938-12-29",
      "latitude": 36.63,
      "name": "FORT NATIONAL, AG",
      "datacoverage": 0.932,
      "id": "GHCND:AGE00147709",
      "elevationUnit": "METERS",
      "longitude": 4.2
    },
    {
      "elevation": 9,
      "mindate": "1909-11-01",
      "maxdate": "2009-08-31",
      "latitude": 36.75,
      "name": "BEJAIA BOUGIE PORT",
      "datacoverage": 0.7994,
      "id": "GHCND:AGE00147710",
      "elevationUnit": "METERS",
      "longitude": 5.1
    },
    {
      "elevation": 660,
      "mindate": "1880-05-01",
      "maxdate": "1938-12-30",
      "latitude": 36.3697,
      "name": "CONSTANTINE, AG",
      "datacoverage": 0.8736,
      "id": "GHCND:AGE00147711",
      "elevationUnit": "METERS",
      "longitude": 6.62
    },
    {
      "elevation": 112,
      "mindate": "1879-01-01",
      "maxdate": "1938-12-28",
      "latitude": 36.17,
      "name": "ORLEANSVILLE CHLEF, AG",
      "datacoverage": 0.9084,
      "id": "GHCND:AGE00147712",
      "elevationUnit": "METERS",
      "longitude": 1.34
    },
    {
      "elevation": 1081,
      "mindate": "1878-01-01",
      "maxdate": "1938-12-29",
      "latitude": 36.18,
      "name": "SETIF, AG",
      "datacoverage": 0.7132,
      "id": "GHCND:AGE00147713",
      "elevationUnit": "METERS",
      "longitude": 5.4
    },
    {
      "elevation": 78,
      "mindate": "1896-01-01",
      "maxdate": "1938-12-29",
      "latitude": 35.77,
      "name": "ORAN CAP FALCON, AG",
      "datacoverage": 0.4264,
      "id": "GHCND:AGE00147714",
      "elevationUnit": "METERS",
      "longitude": 0.8
    },
    {
      "elevation": 863,
      "mindate": "1879-01-01",
      "maxdate": "1938-12-29",
      "latitude": 35.42,
      "name": "TEBESSA, AG",
      "datacoverage": 0.6473,
      "id": "GHCND:AGE00147715",
      "elevationUnit": "METERS",
      "longitude": 8.1197
    }
  ]
}
