{
  "metadata": {
    "resultset": {
      "offset": 90500,
      "count": 154115,
      "limit": 100
    }
  },
  "results": [
    {
      "elevation": 241.7,
      "mindate": "2011-04-01",
      "maxdate": "2014-07-23",
      "latitude": 40.016655,
      "name": "NOBLESVILLE 3.2 SSE, IN US",
      "datacoverage": 1,
      "id": "GHCND:US1INHM0042",
      "elevationUnit": "METERS",
      "longitude": -86.00171
    },
    {
      "elevation": 243.5,
      "mindate": "2011-04-01",
      "maxdate": "2025-03-07",
      "latitude": 39.969809,
      "name": "FISHERS 1.1 N, IN US",
      "datacoverage": 0.9996,
      "id": "GHCND:US1INHM0048",
      "elevationUnit": "METERS",
      "longitude": -86.027615
    },
    {
      "elevation": 235.6,
      "mindate": "2012-08-01",
      "maxdate": "2015-09-19",
      "latitude": 40.037041,
      "name": "NOBLESVILLE 4.0 ESE, IN US",
      "datacoverage": 0.7899,
      "id": "GHCND:US1INHM0051",
      "elevationUnit": "METERS",
      "longitude": -85.960631
    },
    {
      "elevation": 253,
      "mindate": "2012-01-01",
      "maxdate": "2025-02-04",
      "latitude": 39.987808316946,
      "name": "FISHERS 3.1 NE, IN US",
      "datacoverage": 0.7256,
      "id": "GHCND:US1INHM0052",
      "elevationUnit": "METERS",
      "longitude": -85.9861747920513
    },
    {
      "elevation": 274.3,
      "mindate": "2014-06-01",
      "maxdate": "2017-07-28",
      "latitude": 40.02283,
      "name": "WESTFIELD 1.9 SSW, IN US",
      "datacoverage": 0.9994,
      "id": "GHCND:US1INHM0056",
      "elevationUnit": "METERS",
      "longitude": -86.1485
    },
    {
      "elevation": 246.3,
      "mindate": "2015-04-01",
      "maxdate": "2020-09-08",
      "latitude": 39.988611,
      "name": "FISHERS 2.5 NNE, IN US",
      "datacoverage": 0.9986,
      "id": "GHCND:US1INHM0059",
      "elevationUnit": "METERS",
      "longitude": -86.012778
    },
    {
      "elevation": 260,
      "mindate": "2016-07-18",
      "maxdate": "2024-07-10",
      "latitude": 40.03732,
      "name": "WESTFIELD 1.7 ESE, IN US",
      "datacoverage": 0.1815,
      "id": "GHCND:US1INHM0060",
      "elevationUnit": "METERS",
      "longitude": -86.102096
    },
    {
      "elevation": 289,
      "mindate": "2016-03-28",
      "maxdate": "2025-01-13",
      "latitude": 40.1114635169506,
      "name": "SHERIDAN 2.0 SW, IN US",
      "datacoverage": 0.9997,
      "id": "GHCND:US1INHM0061",
      "elevationUnit": "METERS",
      "longitude": -86.2416015565395
    },
    {
      "elevation": 243.8,
      "mindate": "2016-05-03",
      "maxdate": "2025-03-04",
      "latitude": 40.00339,
      "name": "NOBLESVILLE 3.8 SSE, IN US",
      "datacoverage": 0.8288,
      "id": "GHCND:US1INHM0062",
      "elevationUnit": "METERS",
      "longitude": -86.011408
    },
    {
      "elevation": 249.9,
      "mindate": "2016-07-31",
      "maxdate": "2020-09-14",
      "latitude": 39.98129,
      "name": "CARMEL 1.5 NW, IN US",
      "datacoverage": 0.789,
      "id": "GHCND:US1INHM0064",
      "elevationUnit": "METERS",
      "longitude": -86.132012
    },
    {
      "elevation": 249,
      "mindate": "2018-05-01",
      "maxdate": "2025-03-07",
      "latitude": 39.966561,
      "name": "FISHERS 4.3 ENE, IN US",
      "datacoverage": 0.9592,
      "id": "GHCND:US1INHM0067",
      "elevationUnit": "METERS",
      "longitude": -85.943146
    },
    {
      "elevation": 271,
      "mindate": "2018-09-07",
      "maxdate": "2023-10-20",
      "latitude": 40.168894,
      "name": "ARCADIA 4.6 W, IN US",
      "datacoverage": 0.9819,
      "id": "GHCND:US1INHM0068",
      "elevationUnit": "METERS",
      "longitude": -86.108017
    },
    {
      "elevation": 266.4,
      "mindate": "2017-10-17",
      "maxdate": "2025-03-07",
      "latitude": 40.04772,
      "name": "WESTFIELD 1.3 E, IN US",
      "datacoverage": 0.5481,
      "id": "GHCND:US1INHM0069",
      "elevationUnit": "METERS",
      "longitude": -86.10705
    },
    {
      "elevation": 263.3,
      "mindate": "2020-02-01",
      "maxdate": "2025-03-05",
      "latitude": 40.08825,
      "name": "NOBLESVILLE 3.6 NW, IN US",
      "datacoverage": 0.7204,
      "id": "GHCND:US1INHM0070",
      "elevationUnit": "METERS",
      "longitude": -86.0854
    },
    {
      "elevation": 252.1,
      "mindate": "2020-04-22",
      "maxdate": "2024-05-17",
      "latitude": 39.989424,
      "name": "FISHERS 3.0 NE, IN US",
      "datacoverage": 0.7068,
      "id": "GHCND:US1INHM0071",
      "elevationUnit": "METERS",
      "longitude": -85.989202
    },
    {
      "elevation": 266.7,
      "mindate": "2020-05-07",
      "maxdate": "2022-08-30",
      "latitude": 40.026824,
      "name": "WESTFIELD 1.6 SSE, IN US",
      "datacoverage": 0.5,
      "id": "GHCND:US1INHM0073",
      "elevationUnit": "METERS",
      "longitude": -86.11695
    },
    {
      "elevation": 246.9,
      "mindate": "2020-05-08",
      "maxdate": "2025-03-07",
      "latitude": 39.95077,
      "name": "FISHERS 0.7 WSW, IN US",
      "datacoverage": 1,
      "id": "GHCND:US1INHM0074",
      "elevationUnit": "METERS",
      "longitude": -86.03566
    },
    {
      "elevation": 240.2,
      "mindate": "2020-06-08",
      "maxdate": "2023-09-07",
      "latitude": 40.075039,
      "name": "NOBLESVILLE 1.9 NW, IN US",
      "datacoverage": 0.4515,
      "id": "GHCND:US1INHM0075",
      "elevationUnit": "METERS",
      "longitude": -86.058449
    },
    {
      "elevation": 276.5,
      "mindate": "2020-05-17",
      "maxdate": "2025-03-05",
      "latitude": 40.05597,
      "name": "WESTFIELD 0.7 NNW, IN US",
      "datacoverage": 0.443,
      "id": "GHCND:US1INHM0077",
      "elevationUnit": "METERS",
      "longitude": -86.13618
    },
    {
      "elevation": 240.8,
      "mindate": "2020-05-16",
      "maxdate": "2025-03-07",
      "latitude": 40.021709,
      "name": "NOBLESVILLE 2.8 SSW, IN US",
      "datacoverage": 1,
      "id": "GHCND:US1INHM0079",
      "elevationUnit": "METERS",
      "longitude": -86.058273
    },
    {
      "elevation": 239.6,
      "mindate": "2020-08-09",
      "maxdate": "2025-01-06",
      "latitude": 40.0345,
      "name": "NOBLESVILLE 1.8 SSW, IN US",
      "datacoverage": 0.4557,
      "id": "GHCND:US1INHM0081",
      "elevationUnit": "METERS",
      "longitude": -86.0483
    },
    {
      "elevation": 269.7,
      "mindate": "2020-09-15",
      "maxdate": "2024-11-12",
      "latitude": 40.003382,
      "name": "CARMEL 2.8 NNW, IN US",
      "datacoverage": 0.8704,
      "id": "GHCND:US1INHM0082",
      "elevationUnit": "METERS",
      "longitude": -86.137833
    },
    {
      "elevation": 260.9,
      "mindate": "2020-12-28",
      "maxdate": "2025-03-07",
      "latitude": 40.039626,
      "name": "WESTFIELD 1.4 ESE, IN US",
      "datacoverage": 1,
      "id": "GHCND:US1INHM0083",
      "elevationUnit": "METERS",
      "longitude": -86.105257
    },
    {
      "elevation": 236.5,
      "mindate": "2021-01-30",
      "maxdate": "2025-03-04",
      "latitude": 39.994124,
      "name": "CARMEL 2.8 NE, IN US",
      "datacoverage": 0.5144,
      "id": "GHCND:US1INHM0084",
      "elevationUnit": "METERS",
      "longitude": -86.068209
    },
    {
      "elevation": 245.4,
      "mindate": "2021-03-27",
      "maxdate": "2024-11-20",
      "latitude": 40.087196,
      "name": "NOBLESVILLE 5.8 ENE, IN US",
      "datacoverage": 0.7753,
      "id": "GHCND:US1INHM0089",
      "elevationUnit": "METERS",
      "longitude": -85.929811
    },
    {
      "elevation": 280.1,
      "mindate": "2021-08-26",
      "maxdate": "2024-01-31",
      "latitude": 40.0082815,
      "name": "WESTFIELD 4.6 SW, IN US",
      "datacoverage": 0.8931,
      "id": "GHCND:US1INHM0091",
      "elevationUnit": "METERS",
      "longitude": -86.2011732
    },
    {
      "elevation": 255.7,
      "mindate": "2022-03-21",
      "maxdate": "2025-03-05",
      "latitude": 39.960078,
      "name": "FISHERS 6.1 E, IN US",
      "datacoverage": 0.8908,
      "id": "GHCND:US1INHM0093",
      "elevationUnit": "METERS",
      "longitude": -85.908252
    },
    {
      "elevation": 280.1,
      "mindate": "2022-06-06",
      "maxdate": "2023-03-31",
      "latitude": 40.0549151703534,
      "name": "WESTFIELD 2.4 WNW, IN US",
      "datacoverage": 0.6522,
      "id": "GHCND:US1INHM0094",
      "elevationUnit": "METERS",
      "longitude": -86.1756277047814
    },
    {
      "elevation": 247.8,
      "mindate": "2022-08-10",
      "maxdate": "2025-01-27",
      "latitude": 40.024444,
      "name": "NOBLESVILLE 4.4 ESE, IN US",
      "datacoverage": 0.7705,
      "id": "GHCND:US1INHM0095",
      "elevationUnit": "METERS",
      "longitude": -85.959167
    },
    {
      "elevation": 287.7,
      "mindate": "2023-02-17",
      "maxdate": "2025-03-07",
      "latitude": 40.136814,
      "name": "SHERIDAN 0.3 ENE, IN US",
      "datacoverage": 0.9993,
      "id": "GHCND:US1INHM0097",
      "elevationUnit": "METERS",
      "longitude": -86.21472
    },
    {
      "elevation": 279.2,
      "mindate": "2023-04-01",
      "maxdate": "2023-11-03",
      "latitude": 39.943668,
      "name": "CARMEL 6.5 WSW, IN US",
      "datacoverage": 0.9249,
      "id": "GHCND:US1INHM0098",
      "elevationUnit": "METERS",
      "longitude": -86.22732
    },
    {
      "elevation": 235,
      "mindate": "2023-04-15",
      "maxdate": "2025-03-05",
      "latitude": 39.951641,
      "name": "CARMEL 1.3 SSE, IN US",
      "datacoverage": 0.7902,
      "id": "GHCND:US1INHM0099",
      "elevationUnit": "METERS",
      "longitude": -86.10055
    },
    {
      "elevation": 275.5,
      "mindate": "2024-02-01",
      "maxdate": "2024-11-30",
      "latitude": 40.017308,
      "name": "WESTFIELD 4.0 WSW, IN US",
      "datacoverage": 0.8567,
      "id": "GHCND:US1INHM0101",
      "elevationUnit": "METERS",
      "longitude": -86.196051
    },
    {
      "elevation": 274,
      "mindate": "2014-10-01",
      "maxdate": "2025-03-05",
      "latitude": 39.94626,
      "name": "CARMEL 5.1 WSW, IN US",
      "datacoverage": 0.0488,
      "id": "GHCND:US1INHM0102",
      "elevationUnit": "METERS",
      "longitude": -86.20146
    },
    {
      "elevation": 250.5,
      "mindate": "2024-07-06",
      "maxdate": "2025-02-26",
      "latitude": 39.98302,
      "name": "FISHERS 4.0 ENE, IN US",
      "datacoverage": 0.998,
      "id": "GHCND:US1INHM0106",
      "elevationUnit": "METERS",
      "longitude": -85.9532
    },
    {
      "elevation": 253,
      "mindate": "2006-02-01",
      "maxdate": "2007-08-29",
      "latitude": 39.742263,
      "name": "NEW PALESTINE 1.5 NNW, IN US",
      "datacoverage": 0.9925,
      "id": "GHCND:US1INHN0001",
      "elevationUnit": "METERS",
      "longitude": -85.898331
    },
    {
      "elevation": 266.1,
      "mindate": "2006-03-01",
      "maxdate": "2021-04-10",
      "latitude": 39.791,
      "name": "GREENFIELD 2.4 W, IN US",
      "datacoverage": 0.98,
      "id": "GHCND:US1INHN0002",
      "elevationUnit": "METERS",
      "longitude": -85.816
    },
    {
      "elevation": 246,
      "mindate": "2007-02-01",
      "maxdate": "2022-12-26",
      "latitude": 39.70061,
      "name": "NEW PALESTINE 1.4 S, IN US",
      "datacoverage": 1,
      "id": "GHCND:US1INHN0003",
      "elevationUnit": "METERS",
      "longitude": -85.895044
    },
    {
      "elevation": 252.1,
      "mindate": "2006-08-01",
      "maxdate": "2012-10-18",
      "latitude": 39.92668,
      "name": "MCCORDSVILLE 1.3 N, IN US",
      "datacoverage": 0.8929,
      "id": "GHCND:US1INHN0004",
      "elevationUnit": "METERS",
      "longitude": -85.92738
    },
    {
      "elevation": 256.9,
      "mindate": "2006-12-01",
      "maxdate": "2007-12-10",
      "latitude": 39.7497,
      "name": "NEW PALESTINE 2.4 NW, IN US",
      "datacoverage": 0.9819,
      "id": "GHCND:US1INHN0007",
      "elevationUnit": "METERS",
      "longitude": -85.9182
    },
    {
      "elevation": 264.9,
      "mindate": "2006-02-01",
      "maxdate": "2009-01-15",
      "latitude": 39.936751,
      "name": "FORTVILLE 1.3 E, IN US",
      "datacoverage": 0.7498,
      "id": "GHCND:US1INHN0008",
      "elevationUnit": "METERS",
      "longitude": -85.823157
    },
    {
      "elevation": 249.9,
      "mindate": "2007-03-01",
      "maxdate": "2010-11-30",
      "latitude": 39.712925,
      "name": "NEW PALESTINE 0.9 SW, IN US",
      "datacoverage": 0.6882,
      "id": "GHCND:US1INHN0010",
      "elevationUnit": "METERS",
      "longitude": -85.90451
    },
    {
      "elevation": 259.1,
      "mindate": "2007-04-01",
      "maxdate": "2025-03-06",
      "latitude": 39.937,
      "name": "MCCORDSVILLE 2.6 NE, IN US",
      "datacoverage": 1,
      "id": "GHCND:US1INHN0011",
      "elevationUnit": "METERS",
      "longitude": -85.9
    },
    {
      "elevation": 274.9,
      "mindate": "2007-04-01",
      "maxdate": "2025-03-06",
      "latitude": 39.7879,
      "name": "GREENFIELD 0.4 SW, IN US",
      "datacoverage": 0.7114,
      "id": "GHCND:US1INHN0012",
      "elevationUnit": "METERS",
      "longitude": -85.7752
    },
    {
      "elevation": 262.1,
      "mindate": "2008-05-01",
      "maxdate": "2024-11-30",
      "latitude": 39.783605,
      "name": "CUMBERLAND 0.7 E, IN US",
      "datacoverage": 0.8241,
      "id": "GHCND:US1INHN0013",
      "elevationUnit": "METERS",
      "longitude": -85.938932
    },
    {
      "elevation": 271,
      "mindate": "2008-08-19",
      "maxdate": "2018-06-01",
      "latitude": 39.792091,
      "name": "GREENFIELD 0.1 SW, IN US",
      "datacoverage": 0.0294,
      "id": "GHCND:US1INHN0017",
      "elevationUnit": "METERS",
      "longitude": -85.771339
    },
    {
      "elevation": 278,
      "mindate": "2009-02-01",
      "maxdate": "2013-05-30",
      "latitude": 39.7709,
      "name": "GREENFIELD 3.6 ESE, IN US",
      "datacoverage": 0.4428,
      "id": "GHCND:US1INHN0018",
      "elevationUnit": "METERS",
      "longitude": -85.7083
    },
    {
      "elevation": 284.7,
      "mindate": "2009-04-01",
      "maxdate": "2024-03-09",
      "latitude": 39.8785,
      "name": "WILLOW BRANCH 0.2 NNW, IN US",
      "datacoverage": 0.9519,
      "id": "GHCND:US1INHN0019",
      "elevationUnit": "METERS",
      "longitude": -85.6849
    },
    {
      "elevation": 272.2,
      "mindate": "2011-04-01",
      "maxdate": "2025-03-02",
      "latitude": 39.771333,
      "name": "GREENFIELD 1.5 S, IN US",
      "datacoverage": 0.9996,
      "id": "GHCND:US1INHN0026",
      "elevationUnit": "METERS",
      "longitude": -85.773863
    },
    {
      "elevation": 253.6,
      "mindate": "2011-08-09",
      "maxdate": "2019-07-19",
      "latitude": 39.76879,
      "name": "NEW PALESTINE 3.4 NNE, IN US",
      "datacoverage": 0.0369,
      "id": "GHCND:US1INHN0027",
      "elevationUnit": "METERS",
      "longitude": -85.877284
    },
    {
      "elevation": 261.8,
      "mindate": "2011-05-01",
      "maxdate": "2017-08-04",
      "latitude": 39.939948,
      "name": "FORTVILLE 0.3 NNW, IN US",
      "datacoverage": 0.9526,
      "id": "GHCND:US1INHN0028",
      "elevationUnit": "METERS",
      "longitude": -85.848771
    },
    {
      "elevation": 254.2,
      "mindate": "2011-06-01",
      "maxdate": "2017-07-11",
      "latitude": 39.723711,
      "name": "NEW PALESTINE 2.3 W, IN US",
      "datacoverage": 0.9947,
      "id": "GHCND:US1INHN0032",
      "elevationUnit": "METERS",
      "longitude": -85.934997
    },
    {
      "elevation": 285.9,
      "mindate": "2012-01-01",
      "maxdate": "2025-02-27",
      "latitude": 39.8785,
      "name": "N9MRC WILKINSON 4.1 W, IN US",
      "datacoverage": 1,
      "id": "GHCND:US1INHN0034",
      "elevationUnit": "METERS",
      "longitude": -85.6853
    },
    {
      "elevation": 256.9,
      "mindate": "2012-04-01",
      "maxdate": "2014-08-05",
      "latitude": 39.907366,
      "name": "MCCORDSVILLE 0.1 SE, IN US",
      "datacoverage": 1,
      "id": "GHCND:US1INHN0036",
      "elevationUnit": "METERS",
      "longitude": -85.929844
    },
    {
      "elevation": 250.9,
      "mindate": "2012-04-01",
      "maxdate": "2025-03-06",
      "latitude": 39.7321160137653,
      "name": "NEW PALESTINE 1.2 NW, IN US",
      "datacoverage": 1,
      "id": "GHCND:US1INHN0037",
      "elevationUnit": "METERS",
      "longitude": -85.9093616902828
    },
    {
      "elevation": 260.9,
      "mindate": "2020-05-01",
      "maxdate": "2025-03-07",
      "latitude": 39.948967,
      "name": "FORTVILLE 1.5 NW, IN US",
      "datacoverage": 1,
      "id": "GHCND:US1INHN0040",
      "elevationUnit": "METERS",
      "longitude": -85.869023
    },
    {
      "elevation": 270.7,
      "mindate": "2021-03-11",
      "maxdate": "2025-03-05",
      "latitude": 39.7693709,
      "name": "GREENFIELD 1.6 S, IN US",
      "datacoverage": 1,
      "id": "GHCND:US1INHN0043",
      "elevationUnit": "METERS",
      "longitude": -85.7699568
    },
    {
      "elevation": 262.7,
      "mindate": "2020-11-01",
      "maxdate": "2022-05-30",
      "latitude": 39.91448,
      "name": "FORTVILLE 1.9 SE, IN US",
      "datacoverage": 0.8614,
      "id": "GHCND:US1INHN0044",
      "elevationUnit": "METERS",
      "longitude": -85.8248
    },
    {
      "elevation": 261.8,
      "mindate": "2022-08-08",
      "maxdate": "2024-08-16",
      "latitude": 39.7951522,
      "name": "GREENFIELD 8.3 W, IN US",
      "datacoverage": 0.998,
      "id": "GHCND:US1INHN0048",
      "elevationUnit": "METERS",
      "longitude": -85.9259756
    },
    {
      "elevation": 243.8,
      "mindate": "2006-05-01",
      "maxdate": "2008-12-24",
      "latitude": 38.115801,
      "name": "ELIZABETH 1.4 ESE, IN US",
      "datacoverage": 0.998,
      "id": "GHCND:US1INHR0001",
      "elevationUnit": "METERS",
      "longitude": -85.952501
    },
    {
      "elevation": 238,
      "mindate": "2005-07-01",
      "maxdate": "2008-06-04",
      "latitude": 38.324921,
      "name": "CRANDALL 3.3 NE, IN US",
      "datacoverage": 0.9925,
      "id": "GHCND:US1INHR0002",
      "elevationUnit": "METERS",
      "longitude": -86.027249
    },
    {
      "elevation": 196.9,
      "mindate": "2006-05-01",
      "maxdate": "2025-02-16",
      "latitude": 38.2087,
      "name": "CORYDON 0.8 ESE, IN US",
      "datacoverage": 0.8653,
      "id": "GHCND:US1INHR0003",
      "elevationUnit": "METERS",
      "longitude": -86.1122
    },
    {
      "elevation": 193.9,
      "mindate": "2007-10-01",
      "maxdate": "2025-03-07",
      "latitude": 38.262595,
      "name": "MILLTOWN 5.7 SSE, IN US",
      "datacoverage": 0.9999,
      "id": "GHCND:US1INHR0005",
      "elevationUnit": "METERS",
      "longitude": -86.253962
    },
    {
      "elevation": 259.1,
      "mindate": "2008-05-01",
      "maxdate": "2009-08-29",
      "latitude": 38.404,
      "name": "PALMYRA 3.4 E, IN US",
      "datacoverage": 0.8108,
      "id": "GHCND:US1INHR0006",
      "elevationUnit": "METERS",
      "longitude": -86.0512
    },
    {
      "elevation": 221,
      "mindate": "2007-11-01",
      "maxdate": "2012-02-01",
      "latitude": 38.24883,
      "name": "LANESVILLE 0.8 W, IN US",
      "datacoverage": 0.9819,
      "id": "GHCND:US1INHR0008",
      "elevationUnit": "METERS",
      "longitude": -85.999461
    },
    {
      "elevation": 258.2,
      "mindate": "2009-09-01",
      "maxdate": "2012-12-03",
      "latitude": 38.39536,
      "name": "PALMYRA 3.5 ESE, IN US",
      "datacoverage": 0.7997,
      "id": "GHCND:US1INHR0010",
      "elevationUnit": "METERS",
      "longitude": -86.051234
    },
    {
      "elevation": 190.8,
      "mindate": "2010-04-01",
      "maxdate": "2014-01-03",
      "latitude": 38.07894444,
      "name": "MAUCKPORT 4.7 NE, IN US",
      "datacoverage": 0.9987,
      "id": "GHCND:US1INHR0011",
      "elevationUnit": "METERS",
      "longitude": -86.15101111
    },
    {
      "elevation": 246,
      "mindate": "2010-03-01",
      "maxdate": "2023-10-04",
      "latitude": 38.14622402,
      "name": "ELIZABETH 1.4 N, IN US",
      "datacoverage": 0.9995,
      "id": "GHCND:US1INHR0012",
      "elevationUnit": "METERS",
      "longitude": -85.97657029
    },
    {
      "elevation": 259.1,
      "mindate": "2010-03-01",
      "maxdate": "2012-02-01",
      "latitude": 38.24883,
      "name": "LANESVILLE 1.1 NW, IN US",
      "datacoverage": 0.9577,
      "id": "GHCND:US1INHR0013",
      "elevationUnit": "METERS",
      "longitude": -85.999461
    },
    {
      "elevation": 220.7,
      "mindate": "2010-05-01",
      "maxdate": "2025-03-07",
      "latitude": 38.318231,
      "name": "NEW SALISBURY 1.2 WNW, IN US",
      "datacoverage": 0.9996,
      "id": "GHCND:US1INHR0017",
      "elevationUnit": "METERS",
      "longitude": -86.117004
    },
    {
      "elevation": 207.9,
      "mindate": "2012-06-01",
      "maxdate": "2016-06-24",
      "latitude": 38.2271381,
      "name": "CORYDON 1.2 NW, IN US",
      "datacoverage": 0.7239,
      "id": "GHCND:US1INHR0020",
      "elevationUnit": "METERS",
      "longitude": -86.1391112
    },
    {
      "elevation": 210,
      "mindate": "2013-04-01",
      "maxdate": "2014-10-15",
      "latitude": 38.2639840990305,
      "name": "CORYDON 3.5 N, IN US",
      "datacoverage": 0.6834,
      "id": "GHCND:US1INHR0021",
      "elevationUnit": "METERS",
      "longitude": -86.1234609782696
    },
    {
      "elevation": 272.5,
      "mindate": "2018-07-21",
      "maxdate": "2022-08-10",
      "latitude": 38.28586,
      "name": "CRANDALL 3.1 W, IN US",
      "datacoverage": 1,
      "id": "GHCND:US1INHR0025",
      "elevationUnit": "METERS",
      "longitude": -86.12289
    },
    {
      "elevation": 237.1,
      "mindate": "2021-04-29",
      "maxdate": "2021-11-01",
      "latitude": 38.3911964,
      "name": "PALMYRA 1.2 SSW, IN US",
      "datacoverage": 0.9898,
      "id": "GHCND:US1INHR0027",
      "elevationUnit": "METERS",
      "longitude": -86.1213548
    },
    {
      "elevation": 230.1,
      "mindate": "2006-02-01",
      "maxdate": "2017-12-12",
      "latitude": 39.713974,
      "name": "PLAINFIELD 1.5 NW, IN US",
      "datacoverage": 1,
      "id": "GHCND:US1INHS0002",
      "elevationUnit": "METERS",
      "longitude": -86.409034
    },
    {
      "elevation": 236.8,
      "mindate": "2006-02-01",
      "maxdate": "2014-09-11",
      "latitude": 39.8185,
      "name": "BROWNSBURG 1.8 SSE, IN US",
      "datacoverage": 0.683,
      "id": "GHCND:US1INHS0003",
      "elevationUnit": "METERS",
      "longitude": -86.3799
    },
    {
      "elevation": 259.1,
      "mindate": "2006-02-01",
      "maxdate": "2025-03-07",
      "latitude": 39.774864,
      "name": "BROWNSBURG 4.6 S, IN US",
      "datacoverage": 1,
      "id": "GHCND:US1INHS0004",
      "elevationUnit": "METERS",
      "longitude": -86.402174
    },
    {
      "elevation": 246.9,
      "mindate": "2006-03-01",
      "maxdate": "2016-10-15",
      "latitude": 39.730515,
      "name": "PLAINFIELD 2.1 NNW, IN US",
      "datacoverage": 0.9997,
      "id": "GHCND:US1INHS0005",
      "elevationUnit": "METERS",
      "longitude": -86.395885
    },
    {
      "elevation": 260.9,
      "mindate": "2006-03-01",
      "maxdate": "2013-05-07",
      "latitude": 39.766305,
      "name": "PLAINFIELD 4.6 N, IN US",
      "datacoverage": 0.9192,
      "id": "GHCND:US1INHS0006",
      "elevationUnit": "METERS",
      "longitude": -86.383886
    },
    {
      "elevation": 228,
      "mindate": "2006-04-01",
      "maxdate": "2025-02-05",
      "latitude": 39.694575,
      "name": "PLAINFIELD 0.5 SE, IN US",
      "datacoverage": 0.5361,
      "id": "GHCND:US1INHS0007",
      "elevationUnit": "METERS",
      "longitude": -86.382181
    },
    {
      "elevation": 221,
      "mindate": "2006-04-01",
      "maxdate": "2025-03-07",
      "latitude": 39.701264,
      "name": "PLAINFIELD 1.1 W, IN US",
      "datacoverage": 0.9999,
      "id": "GHCND:US1INHS0008",
      "elevationUnit": "METERS",
      "longitude": -86.40785
    },
    {
      "elevation": 232.9,
      "mindate": "2006-11-01",
      "maxdate": "2007-04-11",
      "latitude": 39.731342,
      "name": "PLAINFIELD 2.8 NW, IN US",
      "datacoverage": 1,
      "id": "GHCND:US1INHS0009",
      "elevationUnit": "METERS",
      "longitude": -86.421058
    },
    {
      "elevation": 242.9,
      "mindate": "2007-03-01",
      "maxdate": "2009-01-01",
      "latitude": 39.733946,
      "name": "PLAINFIELD 2.5 NNW, IN US",
      "datacoverage": 0.7793,
      "id": "GHCND:US1INHS0012",
      "elevationUnit": "METERS",
      "longitude": -86.406543
    },
    {
      "elevation": 266.1,
      "mindate": "2007-08-01",
      "maxdate": "2009-12-09",
      "latitude": 39.754845,
      "name": "DANVILLE 0.7 SE, IN US",
      "datacoverage": 0.9985,
      "id": "GHCND:US1INHS0015",
      "elevationUnit": "METERS",
      "longitude": -86.511631
    },
    {
      "elevation": 217,
      "mindate": "2008-04-01",
      "maxdate": "2011-08-31",
      "latitude": 39.687172,
      "name": "PLAINFIELD 0.9 S, IN US",
      "datacoverage": 1,
      "id": "GHCND:US1INHS0017",
      "elevationUnit": "METERS",
      "longitude": -86.389716
    },
    {
      "elevation": 259.4,
      "mindate": "2008-07-01",
      "maxdate": "2025-03-05",
      "latitude": 39.773553,
      "name": "AVON 0.8 NE, IN US",
      "datacoverage": 0.5451,
      "id": "GHCND:US1INHS0018",
      "elevationUnit": "METERS",
      "longitude": -86.377845
    },
    {
      "elevation": 256.3,
      "mindate": "2009-02-01",
      "maxdate": "2023-04-17",
      "latitude": 39.7848801,
      "name": "AVON 1.6 NNW, IN US",
      "datacoverage": 1,
      "id": "GHCND:US1INHS0021",
      "elevationUnit": "METERS",
      "longitude": -86.39394
    },
    {
      "elevation": 274.3,
      "mindate": "2009-04-01",
      "maxdate": "2014-01-01",
      "latitude": 39.8592734,
      "name": "BROWNSBURG 1.7 NW, IN US",
      "datacoverage": 0.9646,
      "id": "GHCND:US1INHS0022",
      "elevationUnit": "METERS",
      "longitude": -86.4161444
    },
    {
      "elevation": 271.3,
      "mindate": "2011-03-01",
      "maxdate": "2013-07-06",
      "latitude": 39.8654579,
      "name": "BROWNSBURG 1.7 NNE, IN US",
      "datacoverage": 0.7919,
      "id": "GHCND:US1INHS0031",
      "elevationUnit": "METERS",
      "longitude": -86.383286
    },
    {
      "elevation": 271.9,
      "mindate": "2011-12-01",
      "maxdate": "2025-03-07",
      "latitude": 39.69203333,
      "name": "CLAYTON 0.4 WNW, IN US",
      "datacoverage": 0.9998,
      "id": "GHCND:US1INHS0033",
      "elevationUnit": "METERS",
      "longitude": -86.52991667
    },
    {
      "elevation": 214.9,
      "mindate": "2012-07-01",
      "maxdate": "2014-05-22",
      "latitude": 39.6413803100586,
      "name": "MOORESVILLE 2.0 NNW, IN US",
      "datacoverage": 0.9819,
      "id": "GHCND:US1INHS0036",
      "elevationUnit": "METERS",
      "longitude": -86.3873825073242
    },
    {
      "elevation": 291.1,
      "mindate": "2013-06-01",
      "maxdate": "2016-09-28",
      "latitude": 39.886508,
      "name": "LIZTON 2.1 W, IN US",
      "datacoverage": 0.9365,
      "id": "GHCND:US1INHS0037",
      "elevationUnit": "METERS",
      "longitude": -86.582501
    },
    {
      "elevation": 243.8,
      "mindate": "2014-04-01",
      "maxdate": "2015-09-01",
      "latitude": 39.729078,
      "name": "AVON 2.4 SSW, IN US",
      "datacoverage": 0.8271,
      "id": "GHCND:US1INHS0040",
      "elevationUnit": "METERS",
      "longitude": -86.411909
    },
    {
      "elevation": 283.2,
      "mindate": "2016-05-11",
      "maxdate": "2025-03-06",
      "latitude": 39.776369,
      "name": "DANVILLE 1.6 NE, IN US",
      "datacoverage": 0.5813,
      "id": "GHCND:US1INHS0043",
      "elevationUnit": "METERS",
      "longitude": -86.495817
    },
    {
      "elevation": 235,
      "mindate": "2017-12-13",
      "maxdate": "2021-11-13",
      "latitude": 39.698505,
      "name": "PLAINFIELD 2.0 W, IN US",
      "datacoverage": 0.7612,
      "id": "GHCND:US1INHS0044",
      "elevationUnit": "METERS",
      "longitude": -86.426336
    },
    {
      "elevation": 269.1,
      "mindate": "2018-06-26",
      "maxdate": "2024-09-30",
      "latitude": 39.8720331956072,
      "name": "INDIANAPOLIS 11.8 NW, IN US",
      "datacoverage": 1,
      "id": "GHCND:US1INHS0045",
      "elevationUnit": "METERS",
      "longitude": -86.3304763846903
    },
    {
      "elevation": 269.1,
      "mindate": "2018-12-29",
      "maxdate": "2025-02-12",
      "latitude": 39.85245,
      "name": "BROWNSBURG 0.8 NNW, IN US",
      "datacoverage": 0.966,
      "id": "GHCND:US1INHS0047",
      "elevationUnit": "METERS",
      "longitude": -86.40137
    },
    {
      "elevation": 235.6,
      "mindate": "2019-08-30",
      "maxdate": "2025-03-04",
      "latitude": 39.698,
      "name": "PLAINFIELD 2.2 W, IN US",
      "datacoverage": 0.7577,
      "id": "GHCND:US1INHS0048",
      "elevationUnit": "METERS",
      "longitude": -86.428483
    },
    {
      "elevation": 279.5,
      "mindate": "2020-05-24",
      "maxdate": "2022-05-17",
      "latitude": 39.859692,
      "name": "PITTSBORO 0.9 SE, IN US",
      "datacoverage": 0.5716,
      "id": "GHCND:US1INHS0052",
      "elevationUnit": "METERS",
      "longitude": -86.450461
    },
    {
      "elevation": 279.8,
      "mindate": "2020-11-01",
      "maxdate": "2025-01-11",
      "latitude": 39.9031,
      "name": "BROWNSBURG 5.1 NNE, IN US",
      "datacoverage": 1,
      "id": "GHCND:US1INHS0054",
      "elevationUnit": "METERS",
      "longitude": -86.341675
    }
  ]
}
