{
  "metadata": {
    "resultset": {
      "offset": 93500,
      "count": 154115,
      "limit": 100
    }
  },
  "results": [
    {
      "elevation": 188.4,
      "mindate": "2018-02-07",
      "maxdate": "2025-03-07",
      "latitude": 36.71632,
      "name": "OAK GROVE 4.6 NW, KY US",
      "datacoverage": 0.9919,
      "id": "GHCND:US1KYCH0009",
      "elevationUnit": "METERS",
      "longitude": -87.48404
    },
    {
      "elevation": 163.4,
      "mindate": "2022-12-31",
      "maxdate": "2025-02-06",
      "latitude": 36.849917,
      "name": "HOPKINSVILLE 1.5 WSW, KY US",
      "datacoverage": 0.225,
      "id": "GHCND:US1KYCH0011",
      "elevationUnit": "METERS",
      "longitude": -87.517438
    },
    {
      "elevation": 187.5,
      "mindate": "2022-03-17",
      "maxdate": "2025-03-07",
      "latitude": 37.04837,
      "name": "CROFTON 0.3 W, KY US",
      "datacoverage": 1,
      "id": "GHCND:US1KYCH0012",
      "elevationUnit": "METERS",
      "longitude": -87.48856
    },
    {
      "elevation": 289.6,
      "mindate": "2011-03-01",
      "maxdate": "2014-02-21",
      "latitude": 37.99399,
      "name": "WINCHESTER, KY US",
      "datacoverage": 0.9998,
      "id": "GHCND:US1KYCK0002",
      "elevationUnit": "METERS",
      "longitude": -84.178645
    },
    {
      "elevation": 309.1,
      "mindate": "2011-03-01",
      "maxdate": "2021-05-05",
      "latitude": 37.93791,
      "name": "WINCHESTER 6.4 SE, KY US",
      "datacoverage": 0.9338,
      "id": "GHCND:US1KYCK0003",
      "elevationUnit": "METERS",
      "longitude": -84.10103
    },
    {
      "elevation": 307.5,
      "mindate": "2013-09-01",
      "maxdate": "2015-07-25",
      "latitude": 37.9868944734335,
      "name": "WINCHESTER 0.9 S, KY US",
      "datacoverage": 0.7424,
      "id": "GHCND:US1KYCK0005",
      "elevationUnit": "METERS",
      "longitude": -84.1798511892557
    },
    {
      "elevation": 290.8,
      "mindate": "2021-01-01",
      "maxdate": "2025-03-07",
      "latitude": 37.9839271641415,
      "name": "WINCHESTER 1.0 SSW, KY US",
      "datacoverage": 0.9011,
      "id": "GHCND:US1KYCK0008",
      "elevationUnit": "METERS",
      "longitude": -84.1940722248443
    },
    {
      "elevation": 191.1,
      "mindate": "2008-02-01",
      "maxdate": "2025-03-07",
      "latitude": 36.850545,
      "name": "DUBRE 1.0 NE, KY US",
      "datacoverage": 1,
      "id": "GHCND:US1KYCM0001",
      "elevationUnit": "METERS",
      "longitude": -85.546299
    },
    {
      "elevation": 182.9,
      "mindate": "2009-10-01",
      "maxdate": "2012-02-22",
      "latitude": 36.799089,
      "name": "BURKESVILLE 0.7 NE, KY US",
      "datacoverage": 1,
      "id": "GHCND:US1KYCM0002",
      "elevationUnit": "METERS",
      "longitude": -85.361569
    },
    {
      "elevation": 194.8,
      "mindate": "2014-08-01",
      "maxdate": "2025-03-07",
      "latitude": 36.852533,
      "name": "DUBRE 1.1 NNE, KY US",
      "datacoverage": 1,
      "id": "GHCND:US1KYCM0003",
      "elevationUnit": "METERS",
      "longitude": -85.548773
    },
    {
      "elevation": 298.1,
      "mindate": "2008-04-01",
      "maxdate": "2009-02-25",
      "latitude": 36.698717,
      "name": "ALBANY 1.4 WNW, KY US",
      "datacoverage": 1,
      "id": "GHCND:US1KYCN0001",
      "elevationUnit": "METERS",
      "longitude": -85.158437
    },
    {
      "elevation": 289.6,
      "mindate": "2008-08-01",
      "maxdate": "2013-03-11",
      "latitude": 36.680208,
      "name": "ALBANY 5.3 W, KY US",
      "datacoverage": 0.9113,
      "id": "GHCND:US1KYCN0002",
      "elevationUnit": "METERS",
      "longitude": -85.22973
    },
    {
      "elevation": 147.8,
      "mindate": "2022-08-10",
      "maxdate": "2025-03-06",
      "latitude": 38.678792,
      "name": "CARROLLTON 0.9 W, KY US",
      "datacoverage": 1,
      "id": "GHCND:US1KYCR0002",
      "elevationUnit": "METERS",
      "longitude": -85.181787
    },
    {
      "elevation": 287.1,
      "mindate": "2008-03-01",
      "maxdate": "2025-03-07",
      "latitude": 37.524503,
      "name": "BRADFORDSVILLE 8.5 ENE, KY US",
      "datacoverage": 1,
      "id": "GHCND:US1KYCS0001",
      "elevationUnit": "METERS",
      "longitude": -84.996532
    },
    {
      "elevation": 338.3,
      "mindate": "2009-06-01",
      "maxdate": "2013-01-20",
      "latitude": 37.1338,
      "name": "WINDSOR 1.2 NW, KY US",
      "datacoverage": 0.8329,
      "id": "GHCND:US1KYCS0002",
      "elevationUnit": "METERS",
      "longitude": -84.9333
    },
    {
      "elevation": 348.1,
      "mindate": "2009-10-01",
      "maxdate": "2020-05-05",
      "latitude": 37.136389,
      "name": "WINDSOR 0.8 NW, KY US",
      "datacoverage": 0.4868,
      "id": "GHCND:US1KYCS0003",
      "elevationUnit": "METERS",
      "longitude": -84.921405
    },
    {
      "elevation": 334.1,
      "mindate": "2010-09-01",
      "maxdate": "2025-03-07",
      "latitude": 37.30528,
      "name": "LIBERTY 1.1 SE, KY US",
      "datacoverage": 1,
      "id": "GHCND:US1KYCS0004",
      "elevationUnit": "METERS",
      "longitude": -84.918305
    },
    {
      "elevation": 268.8,
      "mindate": "2012-11-01",
      "maxdate": "2014-12-16",
      "latitude": 37.368613,
      "name": "MIDDLEBURG 0.8 NE, KY US",
      "datacoverage": 0.5772,
      "id": "GHCND:US1KYCS0007",
      "elevationUnit": "METERS",
      "longitude": -84.813929
    },
    {
      "elevation": 374.9,
      "mindate": "2022-10-01",
      "maxdate": "2023-07-24",
      "latitude": 37.407166,
      "name": "LIBERTY 6.6 NNW, KY US",
      "datacoverage": 1,
      "id": "GHCND:US1KYCS0011",
      "elevationUnit": "METERS",
      "longitude": -84.974184
    },
    {
      "elevation": 210.9,
      "mindate": "2022-12-03",
      "maxdate": "2025-03-07",
      "latitude": 38.39825299,
      "name": "GRAYSON 4.8 NNE, KY US",
      "datacoverage": 0.6477,
      "id": "GHCND:US1KYCT0004",
      "elevationUnit": "METERS",
      "longitude": -82.90618414
    },
    {
      "elevation": 165.8,
      "mindate": "2018-05-10",
      "maxdate": "2025-03-05",
      "latitude": 36.59676,
      "name": "MURRAY 1.9 WSW, KY US",
      "datacoverage": 0.9986,
      "id": "GHCND:US1KYCW0003",
      "elevationUnit": "METERS",
      "longitude": -88.34365
    },
    {
      "elevation": 165.5,
      "mindate": "2023-03-05",
      "maxdate": "2024-09-27",
      "latitude": 36.609104,
      "name": "MURRAY 0.2 SSW, KY US",
      "datacoverage": 0.1832,
      "id": "GHCND:US1KYCW0005",
      "elevationUnit": "METERS",
      "longitude": -88.316921
    },
    {
      "elevation": 140.8,
      "mindate": "2023-05-01",
      "maxdate": "2024-01-13",
      "latitude": 36.64739,
      "name": "MURRAY 13.3 E, KY US",
      "datacoverage": 0.9925,
      "id": "GHCND:US1KYCW0006",
      "elevationUnit": "METERS",
      "longitude": -88.07954
    },
    {
      "elevation": 118.9,
      "mindate": "2012-08-01",
      "maxdate": "2025-03-07",
      "latitude": 37.6883927732706,
      "name": "OWENSBORO 4.9 S, KY US",
      "datacoverage": 1,
      "id": "GHCND:US1KYDV0003",
      "elevationUnit": "METERS",
      "longitude": -87.1323329955339
    },
    {
      "elevation": 160.9,
      "mindate": "2015-04-09",
      "maxdate": "2021-12-14",
      "latitude": 37.65721,
      "name": "WHITESVILLE 2.8 SW, KY US",
      "datacoverage": 0.8939,
      "id": "GHCND:US1KYDV0006",
      "elevationUnit": "METERS",
      "longitude": -86.908676
    },
    {
      "elevation": 127.7,
      "mindate": "2016-09-18",
      "maxdate": "2018-11-01",
      "latitude": 37.7477607727051,
      "name": "OWENSBORO 2.4 ESE, KY US",
      "datacoverage": 0.1639,
      "id": "GHCND:US1KYDV0007",
      "elevationUnit": "METERS",
      "longitude": -87.077522277832
    },
    {
      "elevation": 135.9,
      "mindate": "2017-05-27",
      "maxdate": "2020-10-23",
      "latitude": 37.787449,
      "name": "OWENSBORO 3.4 NW, KY US",
      "datacoverage": 0.7873,
      "id": "GHCND:US1KYDV0009",
      "elevationUnit": "METERS",
      "longitude": -87.170098
    },
    {
      "elevation": 127.7,
      "mindate": "2022-04-22",
      "maxdate": "2025-03-07",
      "latitude": 37.71744,
      "name": "OWENSBORO 3.5 SE, KY US",
      "datacoverage": 0.4662,
      "id": "GHCND:US1KYDV0016",
      "elevationUnit": "METERS",
      "longitude": -87.0828
    },
    {
      "elevation": 126.8,
      "mindate": "2022-05-03",
      "maxdate": "2025-03-06",
      "latitude": 37.76206,
      "name": "OWENSBORO 0.5 ENE, KY US",
      "datacoverage": 0.3725,
      "id": "GHCND:US1KYDV0018",
      "elevationUnit": "METERS",
      "longitude": -87.11142
    },
    {
      "elevation": 161.8,
      "mindate": "2022-05-10",
      "maxdate": "2025-03-06",
      "latitude": 37.70469,
      "name": "PHILPOT 2.0 S, KY US",
      "datacoverage": 0.9986,
      "id": "GHCND:US1KYDV0019",
      "elevationUnit": "METERS",
      "longitude": -86.99217
    },
    {
      "elevation": 140.2,
      "mindate": "2021-08-30",
      "maxdate": "2025-03-06",
      "latitude": 37.67741,
      "name": "MASONVILLE 0.8 ENE, KY US",
      "datacoverage": 0.794,
      "id": "GHCND:US1KYDV0021",
      "elevationUnit": "METERS",
      "longitude": -87.02084
    },
    {
      "elevation": 121.3,
      "mindate": "2022-05-01",
      "maxdate": "2023-04-12",
      "latitude": 37.7566082,
      "name": "OWENSBORO 5.9 W, KY US",
      "datacoverage": 0.853,
      "id": "GHCND:US1KYDV0022",
      "elevationUnit": "METERS",
      "longitude": -87.2270483
    },
    {
      "elevation": 122.8,
      "mindate": "2022-01-05",
      "maxdate": "2023-10-17",
      "latitude": 37.77684,
      "name": "OWENSBORO 1.4 NNW, KY US",
      "datacoverage": 0.7639,
      "id": "GHCND:US1KYDV0023",
      "elevationUnit": "METERS",
      "longitude": -87.13062
    },
    {
      "elevation": 146,
      "mindate": "2022-04-29",
      "maxdate": "2024-08-31",
      "latitude": 37.7666210867088,
      "name": "PHILPOT 2.4 NNE, KY US",
      "datacoverage": 0.4949,
      "id": "GHCND:US1KYDV0025",
      "elevationUnit": "METERS",
      "longitude": -86.9762251885347
    },
    {
      "elevation": 132.6,
      "mindate": "2022-05-16",
      "maxdate": "2024-12-30",
      "latitude": 37.60206,
      "name": "UTICA 0.0 W, KY US",
      "datacoverage": 0.2187,
      "id": "GHCND:US1KYDV0027",
      "elevationUnit": "METERS",
      "longitude": -87.11454
    },
    {
      "elevation": 137.8,
      "mindate": "2022-05-31",
      "maxdate": "2024-09-29",
      "latitude": 37.751857,
      "name": "OWENSBORO 4.0 E, KY US",
      "datacoverage": 0.998,
      "id": "GHCND:US1KYDV0028",
      "elevationUnit": "METERS",
      "longitude": -87.047348
    },
    {
      "elevation": 148.7,
      "mindate": "2022-04-27",
      "maxdate": "2025-03-05",
      "latitude": 37.7382127829583,
      "name": "OWENSBORO 3.5 ESE, KY US",
      "datacoverage": 0.9986,
      "id": "GHCND:US1KYDV0030",
      "elevationUnit": "METERS",
      "longitude": -87.0604790941885
    },
    {
      "elevation": 135.6,
      "mindate": "2022-05-01",
      "maxdate": "2024-11-14",
      "latitude": 37.581212,
      "name": "UTICA 5.4 ESE, KY US",
      "datacoverage": 0.4366,
      "id": "GHCND:US1KYDV0031",
      "elevationUnit": "METERS",
      "longitude": -87.018002
    },
    {
      "elevation": 125.9,
      "mindate": "2022-04-23",
      "maxdate": "2025-03-06",
      "latitude": 37.74967,
      "name": "OWENSBORO 4.1 W, KY US",
      "datacoverage": 0.9986,
      "id": "GHCND:US1KYDV0032",
      "elevationUnit": "METERS",
      "longitude": -87.19414
    },
    {
      "elevation": 121.9,
      "mindate": "2022-04-23",
      "maxdate": "2025-03-06",
      "latitude": 37.7361,
      "name": "OWENSBORO 1.7 SSW, KY US",
      "datacoverage": 0.9986,
      "id": "GHCND:US1KYDV0033",
      "elevationUnit": "METERS",
      "longitude": -87.13209
    },
    {
      "elevation": 144.5,
      "mindate": "2022-04-26",
      "maxdate": "2024-11-25",
      "latitude": 37.6300272,
      "name": "CALHOUN 6.2 N, KY US",
      "datacoverage": 0.998,
      "id": "GHCND:US1KYDV0037",
      "elevationUnit": "METERS",
      "longitude": -87.2387882
    },
    {
      "elevation": 125,
      "mindate": "2022-05-31",
      "maxdate": "2025-03-07",
      "latitude": 37.772012,
      "name": "OWENSBORO 3.4 WNW, KY US",
      "datacoverage": 0.8804,
      "id": "GHCND:US1KYDV0038",
      "elevationUnit": "METERS",
      "longitude": -87.17851
    },
    {
      "elevation": 146.3,
      "mindate": "2022-05-05",
      "maxdate": "2023-02-22",
      "latitude": 37.752833,
      "name": "OWENSBORO 4.3 E, KY US",
      "datacoverage": 0.9819,
      "id": "GHCND:US1KYDV0039",
      "elevationUnit": "METERS",
      "longitude": -87.0401527
    },
    {
      "elevation": 144.8,
      "mindate": "2022-05-01",
      "maxdate": "2023-02-16",
      "latitude": 37.79627,
      "name": "HAWESVILLE 9.5 SW, KY US",
      "datacoverage": 0.9925,
      "id": "GHCND:US1KYDV0040",
      "elevationUnit": "METERS",
      "longitude": -86.87247
    },
    {
      "elevation": 143.3,
      "mindate": "2022-08-15",
      "maxdate": "2025-02-16",
      "latitude": 37.67133,
      "name": "MASONVILLE 0.1 SSE, KY US",
      "datacoverage": 0.5115,
      "id": "GHCND:US1KYDV0042",
      "elevationUnit": "METERS",
      "longitude": -87.03354
    },
    {
      "elevation": 105.8,
      "mindate": "2022-11-20",
      "maxdate": "2024-12-22",
      "latitude": 37.7556483936754,
      "name": "OWENSBORO 1.6 E, KY US",
      "datacoverage": 0.6513,
      "id": "GHCND:US1KYDV0047",
      "elevationUnit": "METERS",
      "longitude": -87.0906373576724
    },
    {
      "elevation": 125.3,
      "mindate": "2022-11-12",
      "maxdate": "2025-03-06",
      "latitude": 37.6807,
      "name": "MASONVILLE 0.7 NW, KY US",
      "datacoverage": 0.4882,
      "id": "GHCND:US1KYDV0048",
      "elevationUnit": "METERS",
      "longitude": -87.0432
    },
    {
      "elevation": 138.7,
      "mindate": "2022-11-18",
      "maxdate": "2023-09-03",
      "latitude": 37.7441876,
      "name": "OWENSBORO 3.6 ESE, KY US",
      "datacoverage": 0.4966,
      "id": "GHCND:US1KYDV0050",
      "elevationUnit": "METERS",
      "longitude": -87.0557322
    },
    {
      "elevation": 144.8,
      "mindate": "2023-04-01",
      "maxdate": "2025-03-07",
      "latitude": 37.73767,
      "name": "OWENSBORO 4.4 ESE, KY US",
      "datacoverage": 0.9497,
      "id": "GHCND:US1KYDV0054",
      "elevationUnit": "METERS",
      "longitude": -87.043554
    },
    {
      "elevation": 153,
      "mindate": "2023-09-10",
      "maxdate": "2025-03-07",
      "latitude": 37.73834,
      "name": "OWENSBORO 4.8 ESE, KY US",
      "datacoverage": 0.8855,
      "id": "GHCND:US1KYDV0055",
      "elevationUnit": "METERS",
      "longitude": -87.035589
    },
    {
      "elevation": 176.5,
      "mindate": "2008-09-01",
      "maxdate": "2012-09-12",
      "latitude": 37.237842,
      "name": "BROWNSVILLE 7.2 WNW, KY US",
      "datacoverage": 0.592,
      "id": "GHCND:US1KYED0001",
      "elevationUnit": "METERS",
      "longitude": -86.37396
    },
    {
      "elevation": 177.7,
      "mindate": "2017-05-18",
      "maxdate": "2023-09-22",
      "latitude": 37.33049,
      "name": "BEE SPRING 4.3 NE, KY US",
      "datacoverage": 0.2544,
      "id": "GHCND:US1KYED0004",
      "elevationUnit": "METERS",
      "longitude": -86.226746
    },
    {
      "elevation": 267,
      "mindate": "2011-09-01",
      "maxdate": "2025-03-06",
      "latitude": 38.1933,
      "name": "OLIVE HILL 9.0 SSE, KY US",
      "datacoverage": 0.9455,
      "id": "GHCND:US1KYEL0001",
      "elevationUnit": "METERS",
      "longitude": -83.0817
    },
    {
      "elevation": 247.5,
      "mindate": "2012-09-01",
      "maxdate": "2016-05-12",
      "latitude": 38.086507,
      "name": "SANDY HOOK 0.5 SSW, KY US",
      "datacoverage": 0.9819,
      "id": "GHCND:US1KYEL0002",
      "elevationUnit": "METERS",
      "longitude": -83.128364
    },
    {
      "elevation": 215.8,
      "mindate": "2012-09-01",
      "maxdate": "2018-12-18",
      "latitude": 38.059851,
      "name": "ISONVILLE 0.4 ESE, KY US",
      "datacoverage": 0.8145,
      "id": "GHCND:US1KYEL0003",
      "elevationUnit": "METERS",
      "longitude": -83.046289
    },
    {
      "elevation": 251.2,
      "mindate": "2012-10-01",
      "maxdate": "2020-01-29",
      "latitude": 38.132611,
      "name": "SANDY HOOK 3.2 NNE, KY US",
      "datacoverage": 0.524,
      "id": "GHCND:US1KYEL0004",
      "elevationUnit": "METERS",
      "longitude": -83.0918
    },
    {
      "elevation": 312.4,
      "mindate": "2013-08-01",
      "maxdate": "2015-01-12",
      "latitude": 38.20223333,
      "name": "OLIVE HILL 7.0 S, KY US",
      "datacoverage": 0.998,
      "id": "GHCND:US1KYEL0005",
      "elevationUnit": "METERS",
      "longitude": -83.17583333
    },
    {
      "elevation": 274.9,
      "mindate": "2007-11-01",
      "maxdate": "2015-11-18",
      "latitude": 37.63857,
      "name": "IRVINE 8.7 WSW, KY US",
      "datacoverage": 1,
      "id": "GHCND:US1KYES0001",
      "elevationUnit": "METERS",
      "longitude": -84.10978
    },
    {
      "elevation": 222.5,
      "mindate": "2008-08-01",
      "maxdate": "2013-07-04",
      "latitude": 37.83,
      "name": "IRVINE 9.9 NNW, KY US",
      "datacoverage": 1,
      "id": "GHCND:US1KYES0002",
      "elevationUnit": "METERS",
      "longitude": -84.0341
    },
    {
      "elevation": 226.2,
      "mindate": "2009-07-01",
      "maxdate": "2013-03-18",
      "latitude": 37.57572,
      "name": "IRVINE 9.8 SSW, KY US",
      "datacoverage": 0.7022,
      "id": "GHCND:US1KYES0003",
      "elevationUnit": "METERS",
      "longitude": -84.06284
    },
    {
      "elevation": 214.9,
      "mindate": "2007-11-01",
      "maxdate": "2014-01-25",
      "latitude": 37.65495,
      "name": "PRESTONSBURG 3.7 WSW, KY US",
      "datacoverage": 0.733,
      "id": "GHCND:US1KYFD0001",
      "elevationUnit": "METERS",
      "longitude": -82.82923
    },
    {
      "elevation": 256.3,
      "mindate": "2015-07-01",
      "maxdate": "2016-06-03",
      "latitude": 37.5539131164551,
      "name": "BANNER 3.1 S, KY US",
      "datacoverage": 0.998,
      "id": "GHCND:US1KYFD0005",
      "elevationUnit": "METERS",
      "longitude": -82.7009811401367
    },
    {
      "elevation": 194.8,
      "mindate": "2019-05-14",
      "maxdate": "2019-11-19",
      "latitude": 37.66681,
      "name": "PRESTONSBURG 1.9 ESE, KY US",
      "datacoverage": 0.9947,
      "id": "GHCND:US1KYFD0007",
      "elevationUnit": "METERS",
      "longitude": -82.73382
    },
    {
      "elevation": 222.2,
      "mindate": "2022-04-09",
      "maxdate": "2024-10-06",
      "latitude": 37.466243,
      "name": "GRETHEL 1.7 S, KY US",
      "datacoverage": 0.8849,
      "id": "GHCND:US1KYFD0010",
      "elevationUnit": "METERS",
      "longitude": -82.652323
    },
    {
      "elevation": 233.8,
      "mindate": "2011-02-01",
      "maxdate": "2013-05-07",
      "latitude": 38.328338,
      "name": "WALLINGFORD 5.3 S, KY US",
      "datacoverage": 0.998,
      "id": "GHCND:US1KYFM0001",
      "elevationUnit": "METERS",
      "longitude": -83.609959
    },
    {
      "elevation": 283.8,
      "mindate": "2022-01-16",
      "maxdate": "2025-03-07",
      "latitude": 38.418798,
      "name": "EWING 1.9 ESE, KY US",
      "datacoverage": 1,
      "id": "GHCND:US1KYFM0004",
      "elevationUnit": "METERS",
      "longitude": -83.829205
    },
    {
      "elevation": 224,
      "mindate": "2007-10-01",
      "maxdate": "2025-03-07",
      "latitude": 38.22101,
      "name": "FRANKFORT 3.3 NE, KY US",
      "datacoverage": 0.9999,
      "id": "GHCND:US1KYFR0001",
      "elevationUnit": "METERS",
      "longitude": -84.81751
    },
    {
      "elevation": 256.3,
      "mindate": "2008-06-01",
      "maxdate": "2022-08-23",
      "latitude": 38.192766,
      "name": "FRANKFORT 7.3 W, KY US",
      "datacoverage": 0.9563,
      "id": "GHCND:US1KYFR0004",
      "elevationUnit": "METERS",
      "longitude": -85.000601
    },
    {
      "elevation": 225.9,
      "mindate": "2008-06-10",
      "maxdate": "2025-03-06",
      "latitude": 38.198418,
      "name": "FRANKFORT 1.5 ENE, KY US",
      "datacoverage": 0.9819,
      "id": "GHCND:US1KYFR0005",
      "elevationUnit": "METERS",
      "longitude": -84.838507
    },
    {
      "elevation": 153,
      "mindate": "2008-08-01",
      "maxdate": "2025-01-18",
      "latitude": 38.218745,
      "name": "FRANKFORT 1.9 N, KY US",
      "datacoverage": 1,
      "id": "GHCND:US1KYFR0006",
      "elevationUnit": "METERS",
      "longitude": -84.862831
    },
    {
      "elevation": 152.1,
      "mindate": "2008-09-01",
      "maxdate": "2025-03-05",
      "latitude": 38.303018,
      "name": "FRANKFORT 8.0 NNE, KY US",
      "datacoverage": 1,
      "id": "GHCND:US1KYFR0008",
      "elevationUnit": "METERS",
      "longitude": -84.829966
    },
    {
      "elevation": 212.1,
      "mindate": "2008-10-01",
      "maxdate": "2019-10-07",
      "latitude": 38.229175,
      "name": "FRANKFORT 4.9 ENE SWITZER FS, KY US",
      "datacoverage": 1,
      "id": "GHCND:US1KYFR0010",
      "elevationUnit": "METERS",
      "longitude": -84.790037
    },
    {
      "elevation": 272.5,
      "mindate": "2008-10-01",
      "maxdate": "2019-10-07",
      "latitude": 38.274324,
      "name": "FRANKFORT 6.8 NNW BALD KNOB FS, KY US",
      "datacoverage": 1,
      "id": "GHCND:US1KYFR0011",
      "elevationUnit": "METERS",
      "longitude": -84.932954
    },
    {
      "elevation": 234.1,
      "mindate": "2008-10-01",
      "maxdate": "2019-10-07",
      "latitude": 38.278069,
      "name": "FRANKFORT 6.1 N OWENTON ROAD FS, KY US",
      "datacoverage": 1,
      "id": "GHCND:US1KYFR0012",
      "elevationUnit": "METERS",
      "longitude": -84.84653
    },
    {
      "elevation": 247.2,
      "mindate": "2008-10-01",
      "maxdate": "2019-10-07",
      "latitude": 38.174098,
      "name": "FRANKFORT 3.8 ESE INDUSTRIAL CHENAULT FS, KY US",
      "datacoverage": 1,
      "id": "GHCND:US1KYFR0013",
      "elevationUnit": "METERS",
      "longitude": -84.799056
    },
    {
      "elevation": 252.4,
      "mindate": "2008-10-01",
      "maxdate": "2019-10-07",
      "latitude": 38.131504,
      "name": "FRANKFORT 4.8 SSW EVERGREEN FS, KY US",
      "datacoverage": 1,
      "id": "GHCND:US1KYFR0014",
      "elevationUnit": "METERS",
      "longitude": -84.912169
    },
    {
      "elevation": 253,
      "mindate": "2012-01-01",
      "maxdate": "2015-10-25",
      "latitude": 38.259236,
      "name": "FRANKFORT 5.3 NNW, KY US",
      "datacoverage": 0.8696,
      "id": "GHCND:US1KYFR0016",
      "elevationUnit": "METERS",
      "longitude": -84.907614
    },
    {
      "elevation": 236.8,
      "mindate": "2015-03-01",
      "maxdate": "2017-09-20",
      "latitude": 38.107,
      "name": "FRANKFORT 6.8 SSW, KY US",
      "datacoverage": 0.998,
      "id": "GHCND:US1KYFR0018",
      "elevationUnit": "METERS",
      "longitude": -84.932
    },
    {
      "elevation": 245.1,
      "mindate": "2016-07-01",
      "maxdate": "2019-10-07",
      "latitude": 38.19537,
      "name": "FRANKFORT 1.5 WNW, KY US",
      "datacoverage": 0.9173,
      "id": "GHCND:US1KYFR0019",
      "elevationUnit": "METERS",
      "longitude": -84.892683
    },
    {
      "elevation": 235,
      "mindate": "2020-01-26",
      "maxdate": "2025-03-07",
      "latitude": 38.2096,
      "name": "FRANKFORT 1.8 ENE, KY US",
      "datacoverage": 0.3704,
      "id": "GHCND:US1KYFR0022",
      "elevationUnit": "METERS",
      "longitude": -84.84655
    },
    {
      "elevation": 243.8,
      "mindate": "2021-11-01",
      "maxdate": "2025-03-07",
      "latitude": 38.139261,
      "name": "FRANKFORT 5.0 SW, KY US",
      "datacoverage": 0.9411,
      "id": "GHCND:US1KYFR0023",
      "elevationUnit": "METERS",
      "longitude": -84.931032
    },
    {
      "elevation": 249.9,
      "mindate": "2022-09-12",
      "maxdate": "2023-03-25",
      "latitude": 38.26592,
      "name": "FRANKFORT 7.0 NE, KY US",
      "datacoverage": 1,
      "id": "GHCND:US1KYFR0024",
      "elevationUnit": "METERS",
      "longitude": -84.77843
    },
    {
      "elevation": 154.2,
      "mindate": "2023-04-06",
      "maxdate": "2025-02-28",
      "latitude": 38.19273,
      "name": "FRANKFORT 0.5 S, KY US",
      "datacoverage": 0.954,
      "id": "GHCND:US1KYFR0025",
      "elevationUnit": "METERS",
      "longitude": -84.87758
    },
    {
      "elevation": 115.2,
      "mindate": "2017-08-12",
      "maxdate": "2025-03-06",
      "latitude": 36.506645,
      "name": "FULTON 5.0 W, KY US",
      "datacoverage": 0.8003,
      "id": "GHCND:US1KYFT0001",
      "elevationUnit": "METERS",
      "longitude": -88.971127
    },
    {
      "elevation": 289.9,
      "mindate": "2007-10-01",
      "maxdate": "2012-12-19",
      "latitude": 37.984342,
      "name": "LEXINGTON 4.9 SW, KY US",
      "datacoverage": 0.9199,
      "id": "GHCND:US1KYFY0001",
      "elevationUnit": "METERS",
      "longitude": -84.509706
    },
    {
      "elevation": 299,
      "mindate": "2007-12-01",
      "maxdate": "2025-03-07",
      "latitude": 37.96729,
      "name": "LEXINGTON FAYETTE 6.3 S, KY US",
      "datacoverage": 0.9806,
      "id": "GHCND:US1KYFY0002",
      "elevationUnit": "METERS",
      "longitude": -84.48511
    },
    {
      "elevation": 306,
      "mindate": "2007-11-01",
      "maxdate": "2025-03-06",
      "latitude": 38.016255,
      "name": "LEXINGTON 3.7 WSW, KY US",
      "datacoverage": 0.9506,
      "id": "GHCND:US1KYFY0003",
      "elevationUnit": "METERS",
      "longitude": -84.518737
    },
    {
      "elevation": 307.8,
      "mindate": "2008-07-01",
      "maxdate": "2025-03-07",
      "latitude": 38.02486,
      "name": "LEXINGTON 1.7 SSE, KY US",
      "datacoverage": 0.9999,
      "id": "GHCND:US1KYFY0009",
      "elevationUnit": "METERS",
      "longitude": -84.495025
    },
    {
      "elevation": 283.2,
      "mindate": "2010-04-01",
      "maxdate": "2013-12-12",
      "latitude": 37.9876,
      "name": "LEXINGTON FAYETTE 4.0 SSW, KY US",
      "datacoverage": 0.5328,
      "id": "GHCND:US1KYFY0012",
      "elevationUnit": "METERS",
      "longitude": -84.4816
    },
    {
      "elevation": 304.5,
      "mindate": "2010-05-01",
      "maxdate": "2010-11-15",
      "latitude": 38.0164342,
      "name": "LEXINGTON 1.7 SW, KY US",
      "datacoverage": 0.9956,
      "id": "GHCND:US1KYFY0014",
      "elevationUnit": "METERS",
      "longitude": -84.5193498
    },
    {
      "elevation": 291.7,
      "mindate": "2013-03-01",
      "maxdate": "2025-03-07",
      "latitude": 38.0523147583008,
      "name": "LEXINGTON 4.3 W, KY US",
      "datacoverage": 0.9453,
      "id": "GHCND:US1KYFY0019",
      "elevationUnit": "METERS",
      "longitude": -84.5367202758789
    },
    {
      "elevation": 318.5,
      "mindate": "2016-03-22",
      "maxdate": "2021-05-29",
      "latitude": 37.998411,
      "name": "LEXINGTON 4.2 SSE, KY US",
      "datacoverage": 0.8033,
      "id": "GHCND:US1KYFY0023",
      "elevationUnit": "METERS",
      "longitude": -84.453372
    },
    {
      "elevation": 288.6,
      "mindate": "2018-04-22",
      "maxdate": "2024-12-24",
      "latitude": 38.046992,
      "name": "LEXINGTON 4.7 E, KY US",
      "datacoverage": 0.3787,
      "id": "GHCND:US1KYFY0027",
      "elevationUnit": "METERS",
      "longitude": -84.416142
    },
    {
      "elevation": 296.9,
      "mindate": "2018-06-13",
      "maxdate": "2018-10-04",
      "latitude": 37.973252,
      "name": "LEXINGTON 5.7 SSW, KY US",
      "datacoverage": 0.9925,
      "id": "GHCND:US1KYFY0029",
      "elevationUnit": "METERS",
      "longitude": -84.517119
    },
    {
      "elevation": 297.2,
      "mindate": "2018-08-28",
      "maxdate": "2019-12-16",
      "latitude": 37.9762259,
      "name": "LEXINGTON 6.9 SW, KY US",
      "datacoverage": 0.7859,
      "id": "GHCND:US1KYFY0032",
      "elevationUnit": "METERS",
      "longitude": -84.554956
    },
    {
      "elevation": 302.7,
      "mindate": "2019-04-01",
      "maxdate": "2020-05-24",
      "latitude": 37.98129,
      "name": "LEXINGTON 4.8 S, KY US",
      "datacoverage": 0.9961,
      "id": "GHCND:US1KYFY0036",
      "elevationUnit": "METERS",
      "longitude": -84.52242
    },
    {
      "elevation": 290.5,
      "mindate": "2021-03-27",
      "maxdate": "2024-12-23",
      "latitude": 38.0510459,
      "name": "LEXINGTON 3.3 E, KY US",
      "datacoverage": 0.9146,
      "id": "GHCND:US1KYFY0040",
      "elevationUnit": "METERS",
      "longitude": -84.4432361
    },
    {
      "elevation": 303.6,
      "mindate": "2022-02-19",
      "maxdate": "2025-03-07",
      "latitude": 37.9821,
      "name": "LEXINGTON 4.5 SSW, KY US",
      "datacoverage": 0.8895,
      "id": "GHCND:US1KYFY0041",
      "elevationUnit": "METERS",
      "longitude": -84.54735
    },
    {
      "elevation": 321,
      "mindate": "2022-11-11",
      "maxdate": "2024-01-26",
      "latitude": 38.00571,
      "name": "LEXINGTON 6.0 SE, KY US",
      "datacoverage": 0.7489,
      "id": "GHCND:US1KYFY0043",
      "elevationUnit": "METERS",
      "longitude": -84.40422
    },
    {
      "elevation": 300.2,
      "mindate": "2023-04-14",
      "maxdate": "2025-03-07",
      "latitude": 37.94891,
      "name": "LEXINGTON 6.6 S, KY US",
      "datacoverage": 0.9994,
      "id": "GHCND:US1KYFY0044",
      "elevationUnit": "METERS",
      "longitude": -84.4805
    }
  ]
}
