{
  "metadata": {
    "resultset": {
      "offset": 33400,
      "count": 154115,
      "limit": 100
    }
  },
  "results": [
    {
      "elevation": 154,
      "mindate": "1750-03-09",
      "maxdate": "2025-02-21",
      "latitude": -32.2809,
      "name": "DUNGOG MAIN CREEK YERANDA, AS",
      "datacoverage": 0.9267,
      "id": "GHCND:ASN00061170",
      "elevationUnit": "METERS",
      "longitude": 151.7948
    },
    {
      "elevation": 90,
      "mindate": "1959-04-01",
      "maxdate": "1987-08-31",
      "latitude": -32.5167,
      "name": "JERRYS PLAINS CARRINGTON, AS",
      "datacoverage": 0.9999,
      "id": "GHCND:ASN00061171",
      "elevationUnit": "METERS",
      "longitude": 150.9667
    },
    {
      "elevation": 85.3,
      "mindate": "1959-03-01",
      "maxdate": "1960-01-31",
      "latitude": -32.6333,
      "name": "MEEREA, AS",
      "datacoverage": 1,
      "id": "GHCND:ASN00061172",
      "elevationUnit": "METERS",
      "longitude": 151
    },
    {
      "elevation": 76.2,
      "mindate": "1959-04-01",
      "maxdate": "1967-12-31",
      "latitude": -32.6833,
      "name": "MILBRODALE 2, AS",
      "datacoverage": 0.9992,
      "id": "GHCND:ASN00061173",
      "elevationUnit": "METERS",
      "longitude": 151
    },
    {
      "elevation": 130,
      "mindate": "1959-04-01",
      "maxdate": "1983-06-30",
      "latitude": -32.9,
      "name": "MILLFIELD COMPOSITE, AS",
      "datacoverage": 0.9932,
      "id": "GHCND:ASN00061174",
      "elevationUnit": "METERS",
      "longitude": 151.2667
    },
    {
      "elevation": 106.7,
      "mindate": "1960-11-01",
      "maxdate": "1969-12-31",
      "latitude": -32.4167,
      "name": "MOUNT OLIVE 2, AS",
      "datacoverage": 1,
      "id": "GHCND:ASN00061176",
      "elevationUnit": "METERS",
      "longitude": 151.2
    },
    {
      "elevation": 381,
      "mindate": "1959-04-01",
      "maxdate": "1961-08-31",
      "latitude": -32.85,
      "name": "MOUNT VIEW TOWNSHIP, AS",
      "datacoverage": 0.8608,
      "id": "GHCND:ASN00061177",
      "elevationUnit": "METERS",
      "longitude": 151.2667
    },
    {
      "elevation": 457.2,
      "mindate": "1962-01-01",
      "maxdate": "1967-11-30",
      "latitude": -32.2,
      "name": "MULLEE, AS",
      "datacoverage": 0.9993,
      "id": "GHCND:ASN00061179",
      "elevationUnit": "METERS",
      "longitude": 151.2
    },
    {
      "elevation": 122,
      "mindate": "1959-08-01",
      "maxdate": "1989-10-31",
      "latitude": -32.7333,
      "name": "ROTHBURY MISTLETOE, AS",
      "datacoverage": 0.529,
      "id": "GHCND:ASN00061180",
      "elevationUnit": "METERS",
      "longitude": 151.2333
    },
    {
      "elevation": 91.4,
      "mindate": "1959-04-01",
      "maxdate": "1974-06-30",
      "latitude": -32.75,
      "name": "BROKE OAKLEY, AS",
      "datacoverage": 0.9563,
      "id": "GHCND:ASN00061181",
      "elevationUnit": "METERS",
      "longitude": 151.1667
    },
    {
      "elevation": 91.4,
      "mindate": "1959-09-01",
      "maxdate": "1975-10-31",
      "latitude": -32.7,
      "name": "MILBRODALE OAKLEIGH, AS",
      "datacoverage": 0.9086,
      "id": "GHCND:ASN00061182",
      "elevationUnit": "METERS",
      "longitude": 150.95
    },
    {
      "elevation": 442,
      "mindate": "1961-11-01",
      "maxdate": "1971-03-31",
      "latitude": -32.8333,
      "name": "POKOLBIN MOUNT BRIGHT, AS",
      "datacoverage": 0.9993,
      "id": "GHCND:ASN00061183",
      "elevationUnit": "METERS",
      "longitude": 151.2667
    },
    {
      "elevation": 76,
      "mindate": "1960-05-01",
      "maxdate": "1976-02-29",
      "latitude": -32.4667,
      "name": "MARSHDALE RAGLAN, AS",
      "datacoverage": 0.9053,
      "id": "GHCND:ASN00061184",
      "elevationUnit": "METERS",
      "longitude": 151.8667
    },
    {
      "elevation": 350,
      "mindate": "1960-07-01",
      "maxdate": "1969-02-28",
      "latitude": -32.2,
      "name": "MERRIWA ROSEBANK, AS",
      "datacoverage": 1,
      "id": "GHCND:ASN00061186",
      "elevationUnit": "METERS",
      "longitude": 150.2
    },
    {
      "elevation": 244,
      "mindate": "1960-12-01",
      "maxdate": "1977-11-30",
      "latitude": -32.1167,
      "name": "ROUCHEL UPPER MULUMLA, AS",
      "datacoverage": 0.8922,
      "id": "GHCND:ASN00061187",
      "elevationUnit": "METERS",
      "longitude": 151.2333
    },
    {
      "elevation": 95,
      "mindate": "1959-06-01",
      "maxdate": "1996-02-29",
      "latitude": -32.7092,
      "name": "BROKE SENTRY BOX, AS",
      "datacoverage": 0.9977,
      "id": "GHCND:ASN00061188",
      "elevationUnit": "METERS",
      "longitude": 151.0622
    },
    {
      "elevation": 274,
      "mindate": "1960-05-01",
      "maxdate": "1981-06-30",
      "latitude": -32.2,
      "name": "ECCLESTON SHELLBROOK, AS",
      "datacoverage": 1,
      "id": "GHCND:ASN00061189",
      "elevationUnit": "METERS",
      "longitude": 151.5
    },
    {
      "elevation": 80,
      "mindate": "1750-03-11",
      "maxdate": "2025-02-01",
      "latitude": -32.6126,
      "name": "BULGA SOUTH WAMBO, AS",
      "datacoverage": 0.9778,
      "id": "GHCND:ASN00061191",
      "elevationUnit": "METERS",
      "longitude": 150.9761
    },
    {
      "elevation": 259,
      "mindate": "1750-03-10",
      "maxdate": "2025-02-09",
      "latitude": -32.2092,
      "name": "MUSWELLBROOK SPRING CREEK CA, AS",
      "datacoverage": 0.9047,
      "id": "GHCND:ASN00061192",
      "elevationUnit": "METERS",
      "longitude": 150.7365
    },
    {
      "elevation": 95,
      "mindate": "1959-08-01",
      "maxdate": "1970-01-31",
      "latitude": -32.9,
      "name": "WOLLOMBI STOCKYARD CREEK, AS",
      "datacoverage": 0.9916,
      "id": "GHCND:ASN00061193",
      "elevationUnit": "METERS",
      "longitude": 151.0833
    },
    {
      "mindate": "1962-01-01",
      "maxdate": "1969-03-31",
      "latitude": -32.6,
      "name": "THE RANCH 2 MARTINDALE, AS",
      "datacoverage": 0.8969,
      "id": "GHCND:ASN00061194",
      "longitude": 150.7167
    },
    {
      "elevation": 415,
      "mindate": "1750-07-01",
      "maxdate": "2025-02-27",
      "latitude": -31.773,
      "name": "MURRURUNDI TIMOR, AS",
      "datacoverage": 0.7828,
      "id": "GHCND:ASN00061195",
      "elevationUnit": "METERS",
      "longitude": 151.0776
    },
    {
      "elevation": 715,
      "mindate": "1750-03-16",
      "maxdate": "2025-01-31",
      "latitude": -31.7069,
      "name": "ELLERSTON POITREL, AS",
      "datacoverage": 0.9894,
      "id": "GHCND:ASN00061196",
      "elevationUnit": "METERS",
      "longitude": 151.2131
    },
    {
      "elevation": 110,
      "mindate": "1959-04-01",
      "maxdate": "1986-02-28",
      "latitude": -32.6833,
      "name": "BROKE VERE, AS",
      "datacoverage": 0.9753,
      "id": "GHCND:ASN00061197",
      "elevationUnit": "METERS",
      "longitude": 151.1333
    },
    {
      "elevation": 137.2,
      "mindate": "1959-08-01",
      "maxdate": "1968-01-31",
      "latitude": -33.05,
      "name": "WOLLOMBI WALLABADAH, AS",
      "datacoverage": 0.833,
      "id": "GHCND:ASN00061198",
      "elevationUnit": "METERS",
      "longitude": 151.0167
    },
    {
      "elevation": 61,
      "mindate": "1959-06-01",
      "maxdate": "1980-10-31",
      "latitude": -32.5667,
      "name": "WARKWORTH HOMESTEAD, AS",
      "datacoverage": 0.9959,
      "id": "GHCND:ASN00061200",
      "elevationUnit": "METERS",
      "longitude": 151.0333
    },
    {
      "elevation": 130,
      "mindate": "1959-05-01",
      "maxdate": "2022-06-30",
      "latitude": -33.0259,
      "name": "WATAGAN CENTRAL, AS",
      "datacoverage": 0.8941,
      "id": "GHCND:ASN00061201",
      "elevationUnit": "METERS",
      "longitude": 151.1882
    },
    {
      "elevation": 396.2,
      "mindate": "1960-11-01",
      "maxdate": "1964-12-31",
      "latitude": -31.8667,
      "name": "WAVERLEY, AS",
      "datacoverage": 1,
      "id": "GHCND:ASN00061202",
      "elevationUnit": "METERS",
      "longitude": 151.0667
    },
    {
      "elevation": 182.9,
      "mindate": "1960-10-01",
      "maxdate": "1968-03-31",
      "latitude": -32.5167,
      "name": "KERRABEE WIDDEN, AS",
      "datacoverage": 0.9001,
      "id": "GHCND:ASN00061203",
      "elevationUnit": "METERS",
      "longitude": 150.3667
    },
    {
      "elevation": 205,
      "mindate": "1961-11-01",
      "maxdate": "2021-06-30",
      "latitude": -32.5356,
      "name": "BAERAMI CREEK BRONWYN PARK, AS",
      "datacoverage": 0.8578,
      "id": "GHCND:ASN00061204",
      "elevationUnit": "METERS",
      "longitude": 150.4484
    },
    {
      "elevation": 135,
      "mindate": "1750-03-10",
      "maxdate": "2025-01-31",
      "latitude": -33.0297,
      "name": "YALLAMBIE MOUNT AUBAN, AS",
      "datacoverage": 0.9999,
      "id": "GHCND:ASN00061205",
      "elevationUnit": "METERS",
      "longitude": 151.1401
    },
    {
      "elevation": 14.9,
      "mindate": "1961-08-01",
      "maxdate": "1964-02-29",
      "latitude": -32.7,
      "name": "MAITLAND POWER STATION, AS",
      "datacoverage": 1,
      "id": "GHCND:ASN00061207",
      "elevationUnit": "METERS",
      "longitude": 151.55
    },
    {
      "elevation": 75.6,
      "mindate": "1961-08-01",
      "maxdate": "1969-05-31",
      "latitude": -32.4333,
      "name": "RAVENSWORTH ELECTRICITY COMMIS, AS",
      "datacoverage": 1,
      "id": "GHCND:ASN00061208",
      "elevationUnit": "METERS",
      "longitude": 151.05
    },
    {
      "elevation": 280,
      "mindate": "1750-03-14",
      "maxdate": "2025-02-27",
      "latitude": -32.9597,
      "name": "PUTTY TEA ROOMS, AS",
      "datacoverage": 0.5458,
      "id": "GHCND:ASN00061209",
      "elevationUnit": "METERS",
      "longitude": 150.675
    },
    {
      "elevation": 365.8,
      "mindate": "1962-11-01",
      "maxdate": "1963-06-30",
      "latitude": -33.1333,
      "name": "HOWES SWAMP, AS",
      "datacoverage": 1,
      "id": "GHCND:ASN00061210",
      "elevationUnit": "METERS",
      "longitude": 150.6833
    },
    {
      "elevation": 320,
      "mindate": "1750-03-10",
      "maxdate": "2025-01-31",
      "latitude": -33.3588,
      "name": "COLO HEIGHTS MOUNTAIN PINES, AS",
      "datacoverage": 0.9906,
      "id": "GHCND:ASN00061211",
      "elevationUnit": "METERS",
      "longitude": 150.7058
    },
    {
      "elevation": 155,
      "mindate": "1963-07-01",
      "maxdate": "1995-03-31",
      "latitude": -32.3767,
      "name": "LIDDELL POWER STATION, AS",
      "datacoverage": 0.8477,
      "id": "GHCND:ASN00061212",
      "elevationUnit": "METERS",
      "longitude": 150.96
    },
    {
      "elevation": 40,
      "mindate": "1963-01-01",
      "maxdate": "1975-03-31",
      "latitude": -33.2167,
      "name": "HIGHER MACDONALD, AS",
      "datacoverage": 1,
      "id": "GHCND:ASN00061214",
      "elevationUnit": "METERS",
      "longitude": 150.9167
    },
    {
      "elevation": 747,
      "mindate": "1962-11-01",
      "maxdate": "2021-11-30",
      "latitude": -32.8722,
      "name": "RYLSTONE KELGOOLA, AS",
      "datacoverage": 0.9937,
      "id": "GHCND:ASN00061215",
      "elevationUnit": "METERS",
      "longitude": 150.2992
    },
    {
      "elevation": 10,
      "mindate": "1998-11-01",
      "maxdate": "2023-05-31",
      "latitude": -33.4176,
      "name": "LOWER MANGROVE POPRAN RD, AS",
      "datacoverage": 0.9933,
      "id": "GHCND:ASN00061216",
      "elevationUnit": "METERS",
      "longitude": 151.159
    },
    {
      "elevation": 15,
      "mindate": "1750-03-10",
      "maxdate": "2024-12-31",
      "latitude": -33.2904,
      "name": "ST ALBANS ESPIE ST, AS",
      "datacoverage": 0.8837,
      "id": "GHCND:ASN00061217",
      "elevationUnit": "METERS",
      "longitude": 150.9708
    },
    {
      "elevation": 243.8,
      "mindate": "1962-11-01",
      "maxdate": "1968-02-29",
      "latitude": -33.35,
      "name": "SOMERSBY SILVESTERS ROAD, AS",
      "datacoverage": 0.9991,
      "id": "GHCND:ASN00061218",
      "elevationUnit": "METERS",
      "longitude": 151.25
    },
    {
      "elevation": 30,
      "mindate": "1963-01-01",
      "maxdate": "1976-09-30",
      "latitude": -33.1833,
      "name": "DOORALONG, AS",
      "datacoverage": 1,
      "id": "GHCND:ASN00061219",
      "elevationUnit": "METERS",
      "longitude": 151.35
    },
    {
      "elevation": 50,
      "mindate": "1750-03-10",
      "maxdate": "2025-01-31",
      "latitude": -33.2381,
      "name": "YARRAMALONG LEWENSBROOK, AS",
      "datacoverage": 0.9949,
      "id": "GHCND:ASN00061220",
      "elevationUnit": "METERS",
      "longitude": 151.3003
    },
    {
      "mindate": "1962-12-01",
      "maxdate": "1974-01-31",
      "latitude": -33.3,
      "name": "MANGROVE UPPER, AS",
      "datacoverage": 0.9922,
      "id": "GHCND:ASN00061221",
      "longitude": 151.1333
    },
    {
      "elevation": 60,
      "mindate": "1963-01-01",
      "maxdate": "1998-04-30",
      "latitude": -33.1672,
      "name": "ST ALBANS MOGO CREEK, AS",
      "datacoverage": 0.986,
      "id": "GHCND:ASN00061222",
      "elevationUnit": "METERS",
      "longitude": 151.0639
    },
    {
      "elevation": 8,
      "mindate": "1964-01-01",
      "maxdate": "1993-01-31",
      "latitude": -32.9131,
      "name": "MARYVILLE, AS",
      "datacoverage": 0.9999,
      "id": "GHCND:ASN00061223",
      "elevationUnit": "METERS",
      "longitude": 151.75
    },
    {
      "mindate": "1898-06-01",
      "maxdate": "1924-11-30",
      "latitude": -33.0333,
      "name": "CONGEWAI, AS",
      "datacoverage": 0.8121,
      "id": "GHCND:ASN00061224",
      "longitude": 151.2167
    },
    {
      "mindate": "1925-01-01",
      "maxdate": "1929-11-30",
      "latitude": -32.1,
      "name": "COOLIE, AS",
      "datacoverage": 1,
      "id": "GHCND:ASN00061225",
      "longitude": 150.35
    },
    {
      "elevation": 97,
      "mindate": "2001-08-01",
      "maxdate": "2025-02-27",
      "latitude": -32.936,
      "name": "WOLLOMBI ST JOHNS CHURCH, AS",
      "datacoverage": 0.9715,
      "id": "GHCND:ASN00061226",
      "elevationUnit": "METERS",
      "longitude": 151.1393
    },
    {
      "mindate": "1886-08-01",
      "maxdate": "1919-07-31",
      "latitude": -32.4,
      "name": "DUNGOG COOREII, AS",
      "datacoverage": 0.9951,
      "id": "GHCND:ASN00061227",
      "longitude": 151.75
    },
    {
      "mindate": "1880-01-01",
      "maxdate": "1915-12-31",
      "latitude": -32.6667,
      "name": "LECONFIELD, AS",
      "datacoverage": 0.669,
      "id": "GHCND:ASN00061228",
      "longitude": 151.3333
    },
    {
      "mindate": "1903-01-01",
      "maxdate": "1911-02-28",
      "latitude": -32.3833,
      "name": "PIERCEFIELD, AS",
      "datacoverage": 0.9992,
      "id": "GHCND:ASN00061229",
      "longitude": 150.7667
    },
    {
      "mindate": "1903-10-01",
      "maxdate": "1922-07-31",
      "latitude": -32.6,
      "name": "REEDY CREEK 3, AS",
      "datacoverage": 1,
      "id": "GHCND:ASN00061230",
      "longitude": 151.3667
    },
    {
      "mindate": "1898-09-01",
      "maxdate": "1924-12-31",
      "latitude": -33.3333,
      "name": "ST ALBANS, AS",
      "datacoverage": 0.9051,
      "id": "GHCND:ASN00061231",
      "longitude": 150.95
    },
    {
      "elevation": 42,
      "mindate": "1964-01-01",
      "maxdate": "1975-12-31",
      "latitude": -32.5667,
      "name": "SINGLETON PITT STREET, AS",
      "datacoverage": 0.9514,
      "id": "GHCND:ASN00061232",
      "elevationUnit": "METERS",
      "longitude": 151.1667
    },
    {
      "elevation": 183,
      "mindate": "1964-09-01",
      "maxdate": "1975-12-31",
      "latitude": -32.5,
      "name": "DENMAN HORSESHOE, AS",
      "datacoverage": 1,
      "id": "GHCND:ASN00061233",
      "elevationUnit": "METERS",
      "longitude": 150.8
    },
    {
      "elevation": 152.4,
      "mindate": "1964-10-01",
      "maxdate": "1970-01-31",
      "latitude": -32.4333,
      "name": "WESTBROOK BENALLA, AS",
      "datacoverage": 0.9374,
      "id": "GHCND:ASN00061234",
      "elevationUnit": "METERS",
      "longitude": 151.3167
    },
    {
      "elevation": 137,
      "mindate": "1964-09-01",
      "maxdate": "2013-01-31",
      "latitude": -32.3353,
      "name": "SANDY HOLLOW GOULBURN DRIVE, AS",
      "datacoverage": 0.8176,
      "id": "GHCND:ASN00061235",
      "elevationUnit": "METERS",
      "longitude": 150.5645
    },
    {
      "mindate": "1911-01-01",
      "maxdate": "1919-10-31",
      "latitude": -33.3833,
      "name": "KARAGI TUGGERAH LAKES, AS",
      "datacoverage": 0.9995,
      "id": "GHCND:ASN00061236",
      "longitude": 151.4833
    },
    {
      "elevation": 99,
      "mindate": "1962-06-01",
      "maxdate": "1973-04-30",
      "latitude": -32.7833,
      "name": "POKOLBIN KEIRA, AS",
      "datacoverage": 0.9995,
      "id": "GHCND:ASN00061237",
      "elevationUnit": "METERS",
      "longitude": 151.3167
    },
    {
      "elevation": 132,
      "mindate": "1962-08-01",
      "maxdate": "2019-03-31",
      "latitude": -32.8143,
      "name": "POKOLBIN SOMERSET, AS",
      "datacoverage": 0.9969,
      "id": "GHCND:ASN00061238",
      "elevationUnit": "METERS",
      "longitude": 151.3025
    },
    {
      "elevation": 351,
      "mindate": "1962-09-01",
      "maxdate": "1964-10-31",
      "latitude": -32.8,
      "name": "POKOLBIN 3 STATE FOREST, AS",
      "datacoverage": 0.9992,
      "id": "GHCND:ASN00061239",
      "elevationUnit": "METERS",
      "longitude": 151.25
    },
    {
      "elevation": 95,
      "mindate": "1959-04-01",
      "maxdate": "1981-12-31",
      "latitude": -32.9667,
      "name": "WOLLOMBI BLAIR, AS",
      "datacoverage": 0.9888,
      "id": "GHCND:ASN00061240",
      "elevationUnit": "METERS",
      "longitude": 151.1333
    },
    {
      "elevation": 270,
      "mindate": "1965-08-01",
      "maxdate": "2011-07-31",
      "latitude": -32.2421,
      "name": "CARRABOLLA WOODBURY, AS",
      "datacoverage": 0.9729,
      "id": "GHCND:ASN00061241",
      "elevationUnit": "METERS",
      "longitude": 151.3808
    },
    {
      "elevation": 62,
      "mindate": "1966-03-01",
      "maxdate": "2012-08-31",
      "latitude": -32.8093,
      "name": "CESSNOCK NULKABA, AS",
      "datacoverage": 0.9999,
      "id": "GHCND:ASN00061242",
      "elevationUnit": "METERS",
      "longitude": 151.349
    },
    {
      "elevation": 76.2,
      "mindate": "1920-01-01",
      "maxdate": "1965-12-31",
      "latitude": -32.4333,
      "name": "OAKLANDS RAVENS WORTH, AS",
      "datacoverage": 0.8913,
      "id": "GHCND:ASN00061243",
      "elevationUnit": "METERS",
      "longitude": 151.0167
    },
    {
      "elevation": 366,
      "mindate": "1965-10-01",
      "maxdate": "1978-01-31",
      "latitude": -31.9167,
      "name": "GUNDY EULALIA, AS",
      "datacoverage": 0.9997,
      "id": "GHCND:ASN00061244",
      "elevationUnit": "METERS",
      "longitude": 151.0833
    },
    {
      "elevation": 61,
      "mindate": "1965-11-01",
      "maxdate": "1969-10-31",
      "latitude": -32.6833,
      "name": "MILBRODALE A.R.G., AS",
      "datacoverage": 0.3958,
      "id": "GHCND:ASN00061245",
      "elevationUnit": "METERS",
      "longitude": 151.0333
    },
    {
      "elevation": 594,
      "mindate": "1966-11-01",
      "maxdate": "1994-06-30",
      "latitude": -31.7961,
      "name": "ELLERSTON HUNTERS VALLEY, AS",
      "datacoverage": 0.9549,
      "id": "GHCND:ASN00061246",
      "elevationUnit": "METERS",
      "longitude": 151.3556
    },
    {
      "elevation": 75.9,
      "mindate": "1967-06-01",
      "maxdate": "1975-09-30",
      "latitude": -33.4667,
      "name": "KINCUMBER, AS",
      "datacoverage": 0.9999,
      "id": "GHCND:ASN00061248",
      "elevationUnit": "METERS",
      "longitude": 151.4
    },
    {
      "elevation": 61,
      "mindate": "1965-08-01",
      "maxdate": "1972-12-31",
      "latitude": -32.4,
      "name": "GRESFORD EAST STRATHISLA HMSD, AS",
      "datacoverage": 0.9884,
      "id": "GHCND:ASN00061249",
      "elevationUnit": "METERS",
      "longitude": 151.55
    },
    {
      "elevation": 30,
      "mindate": "1750-03-09",
      "maxdate": "2025-02-27",
      "latitude": -32.6296,
      "name": "PATERSON TOCAL AWS, AS",
      "datacoverage": 1,
      "id": "GHCND:ASN00061250",
      "elevationUnit": "METERS",
      "longitude": 151.5919
    },
    {
      "mindate": "1887-01-01",
      "maxdate": "1922-03-31",
      "latitude": -32.4,
      "name": "PENSHURST GRESFORD, AS",
      "datacoverage": 1,
      "id": "GHCND:ASN00061251",
      "longitude": 151.4
    },
    {
      "elevation": 70,
      "mindate": "1968-01-01",
      "maxdate": "1974-12-31",
      "latitude": -32.65,
      "name": "BULGA REEDY CREEK, AS",
      "datacoverage": 1,
      "id": "GHCND:ASN00061252",
      "elevationUnit": "METERS",
      "longitude": 151
    },
    {
      "elevation": 20.4,
      "mindate": "1968-05-01",
      "maxdate": "1971-12-31",
      "latitude": -33.4,
      "name": "HOLGATE WATTLE TREE ROAD, AS",
      "datacoverage": 1,
      "id": "GHCND:ASN00061253",
      "elevationUnit": "METERS",
      "longitude": 151.4167
    },
    {
      "elevation": 121.9,
      "mindate": "1968-03-01",
      "maxdate": "1972-06-30",
      "latitude": -32.9667,
      "name": "CHARLESTOWN, AS",
      "datacoverage": 1,
      "id": "GHCND:ASN00061254",
      "elevationUnit": "METERS",
      "longitude": 151.7
    },
    {
      "elevation": 10,
      "mindate": "1968-03-01",
      "maxdate": "1988-11-30",
      "latitude": -33.4197,
      "name": "WAMBERAL DILLON ROAD, AS",
      "datacoverage": 0.9958,
      "id": "GHCND:ASN00061255",
      "elevationUnit": "METERS",
      "longitude": 151.4472
    },
    {
      "elevation": 5,
      "mindate": "1968-05-01",
      "maxdate": "1977-07-31",
      "latitude": -33.05,
      "name": "COAL POINT ROBEY ROAD",
      "datacoverage": 0.9999,
      "id": "GHCND:ASN00061256",
      "elevationUnit": "METERS",
      "longitude": 151.6167
    },
    {
      "elevation": 152,
      "mindate": "1894-07-01",
      "maxdate": "1980-03-31",
      "latitude": -32.3833,
      "name": "MIRANNIE, AS",
      "datacoverage": 0.8785,
      "id": "GHCND:ASN00061257",
      "elevationUnit": "METERS",
      "longitude": 151.3833
    },
    {
      "elevation": 25,
      "mindate": "1967-11-01",
      "maxdate": "1987-11-30",
      "latitude": -32.5675,
      "name": "MARTINS CREEK GOSTWYCK HOUSE, AS",
      "datacoverage": 0.9959,
      "id": "GHCND:ASN00061258",
      "elevationUnit": "METERS",
      "longitude": 151.6069
    },
    {
      "elevation": 24.7,
      "mindate": "1968-05-01",
      "maxdate": "1974-06-30",
      "latitude": -32.7,
      "name": "MAITLAND WEST AERO, AS",
      "datacoverage": 1,
      "id": "GHCND:ASN00061259",
      "elevationUnit": "METERS",
      "longitude": 151.4667
    },
    {
      "elevation": 61,
      "mindate": "1750-03-09",
      "maxdate": "2025-02-27",
      "latitude": -32.7886,
      "name": "CESSNOCK AIRPORT AWS, AS",
      "datacoverage": 0.5991,
      "id": "GHCND:ASN00061260",
      "elevationUnit": "METERS",
      "longitude": 151.3377
    },
    {
      "elevation": 490,
      "mindate": "1968-05-01",
      "maxdate": "2004-08-31",
      "latitude": -31.9983,
      "name": "MERRIWA BELLVIEW, AS",
      "datacoverage": 0.9993,
      "id": "GHCND:ASN00061261",
      "elevationUnit": "METERS",
      "longitude": 150.242
    },
    {
      "elevation": 15,
      "mindate": "1963-01-01",
      "maxdate": "1969-06-30",
      "latitude": -33.2167,
      "name": "MUNMORAH POWER STATION, AS",
      "datacoverage": 1,
      "id": "GHCND:ASN00061262",
      "elevationUnit": "METERS",
      "longitude": 151.55
    },
    {
      "elevation": 457.2,
      "mindate": "1968-10-01",
      "maxdate": "1969-07-31",
      "latitude": -32.1667,
      "name": "WAPPINGUY WYNDHAM, AS",
      "datacoverage": 0.9011,
      "id": "GHCND:ASN00061263",
      "elevationUnit": "METERS",
      "longitude": 150.4
    },
    {
      "elevation": 213,
      "mindate": "1968-05-01",
      "maxdate": "1984-12-31",
      "latitude": -32.45,
      "name": "BAERAMI CREEK BOREEWAN, AS",
      "datacoverage": 0.9998,
      "id": "GHCND:ASN00061264",
      "elevationUnit": "METERS",
      "longitude": 150.45
    },
    {
      "elevation": 32,
      "mindate": "1968-05-01",
      "maxdate": "2006-01-31",
      "latitude": -32.8247,
      "name": "KURRI KURRI BOWLING CLUB, AS",
      "datacoverage": 0.9712,
      "id": "GHCND:ASN00061265",
      "elevationUnit": "METERS",
      "longitude": 151.4881
    },
    {
      "mindate": "2006-08-01",
      "maxdate": "2025-02-27",
      "latitude": -32.73,
      "name": "MAITLAND BELMORE BRIDGE HUNTE, AS",
      "datacoverage": 0.7132,
      "id": "GHCND:ASN00061268",
      "longitude": 151.555
    },
    {
      "elevation": 91.4,
      "mindate": "1967-11-01",
      "maxdate": "1968-05-31",
      "latitude": -32.5333,
      "name": "DOYLES CREEK DOYLES 2, AS",
      "datacoverage": 1,
      "id": "GHCND:ASN00061269",
      "elevationUnit": "METERS",
      "longitude": 150.8
    },
    {
      "elevation": 255,
      "mindate": "1969-03-01",
      "maxdate": "2025-01-31",
      "latitude": -32.2714,
      "name": "BOWMANS CREEK GRENELL, AS",
      "datacoverage": 0.8576,
      "id": "GHCND:ASN00061270",
      "elevationUnit": "METERS",
      "longitude": 151.1444
    },
    {
      "elevation": 41.8,
      "mindate": "1969-03-01",
      "maxdate": "1978-10-31",
      "latitude": -32.6667,
      "name": "BRANXTON STATION STREET, AS",
      "datacoverage": 0.9996,
      "id": "GHCND:ASN00061271",
      "elevationUnit": "METERS",
      "longitude": 151.35
    },
    {
      "elevation": 76.2,
      "mindate": "1969-05-01",
      "maxdate": "1974-04-30",
      "latitude": -32.45,
      "name": "GLENNIES CREEK SYDENHAM, AS",
      "datacoverage": 1,
      "id": "GHCND:ASN00061272",
      "elevationUnit": "METERS",
      "longitude": 151.1333
    },
    {
      "elevation": 27,
      "mindate": "1969-07-01",
      "maxdate": "2005-06-30",
      "latitude": -33.2815,
      "name": "NORAH HEAD LIGHTHOUSE, AS",
      "datacoverage": 0.9769,
      "id": "GHCND:ASN00061273",
      "elevationUnit": "METERS",
      "longitude": 151.5759
    },
    {
      "elevation": 73.1,
      "mindate": "1969-07-01",
      "maxdate": "1990-09-30",
      "latitude": -32.6133,
      "name": "SINGLETON ARMY, AS",
      "datacoverage": 0.9843,
      "id": "GHCND:ASN00061275",
      "elevationUnit": "METERS",
      "longitude": 151.1717
    },
    {
      "elevation": 36.6,
      "mindate": "1911-01-01",
      "maxdate": "1915-11-30",
      "latitude": -33.1167,
      "name": "MORISSET, AS",
      "datacoverage": 1,
      "id": "GHCND:ASN00061276",
      "elevationUnit": "METERS",
      "longitude": 151.4833
    },
    {
      "elevation": 3,
      "mindate": "1914-03-01",
      "maxdate": "1920-01-31",
      "latitude": -33.4667,
      "name": "COURANGRA",
      "datacoverage": 1,
      "id": "GHCND:ASN00061279",
      "elevationUnit": "METERS",
      "longitude": 151.1167
    },
    {
      "elevation": 335.3,
      "mindate": "1888-08-01",
      "maxdate": "1916-12-31",
      "latitude": -31.9667,
      "name": "DUNWELL, AS",
      "datacoverage": 0.9518,
      "id": "GHCND:ASN00061280",
      "elevationUnit": "METERS",
      "longitude": 150.7167
    },
    {
      "elevation": 15.2,
      "mindate": "1907-07-01",
      "maxdate": "2025-02-22",
      "latitude": -33.0833,
      "name": "DORA CREEK, AS",
      "datacoverage": 0.1517,
      "id": "GHCND:ASN00061282",
      "elevationUnit": "METERS",
      "longitude": 151.5
    },
    {
      "elevation": 9.1,
      "mindate": "1912-01-01",
      "maxdate": "1924-08-31",
      "latitude": -32.7,
      "name": "EAGLETON, AS",
      "datacoverage": 0.5131,
      "id": "GHCND:ASN00061283",
      "elevationUnit": "METERS",
      "longitude": 151.7667
    }
  ]
}
