{
  "metadata": {
    "resultset": {
      "offset": 50600,
      "count": 154115,
      "limit": 100
    }
  },
  "results": [
    {
      "elevation": 84,
      "mindate": "1954-01-01",
      "maxdate": "1969-05-31",
      "latitude": 45.25,
      "name": "RIDEAU CANAL LONG ISLAND, CA",
      "datacoverage": 0.7839,
      "id": "GHCND:CA006107073",
      "elevationUnit": "METERS",
      "longitude": -75.7
    },
    {
      "elevation": 125,
      "mindate": "1954-01-01",
      "maxdate": "1969-05-31",
      "latitude": 44.7,
      "name": "RIDEAU CANAL NARROWS, CA",
      "datacoverage": 0.7731,
      "id": "GHCND:CA006107087",
      "elevationUnit": "METERS",
      "longitude": -76.3
    },
    {
      "elevation": 134,
      "mindate": "1954-03-01",
      "maxdate": "1956-04-30",
      "latitude": 44.9,
      "name": "RIDEAU CANAL PERTH, CA",
      "datacoverage": 1,
      "id": "GHCND:CA006107096",
      "elevationUnit": "METERS",
      "longitude": -76.25
    },
    {
      "elevation": 110,
      "mindate": "1981-08-01",
      "maxdate": "1984-08-31",
      "latitude": 45.15,
      "name": "RICHMOND, CA",
      "datacoverage": 1,
      "id": "GHCND:CA0061070AA",
      "elevationUnit": "METERS",
      "longitude": -75.9
    },
    {
      "elevation": 99,
      "mindate": "1954-01-01",
      "maxdate": "1967-12-31",
      "latitude": 44.4167,
      "name": "RIDEAU CANAL UPP BREWERS, CA",
      "datacoverage": 0.7679,
      "id": "GHCND:CA006107105",
      "elevationUnit": "METERS",
      "longitude": -76.3167
    },
    {
      "elevation": 125,
      "mindate": "1954-01-01",
      "maxdate": "1961-12-29",
      "latitude": 44.6,
      "name": "RIDEAU CANAL WOLFE LAKE, CA",
      "datacoverage": 0.9896,
      "id": "GHCND:CA006107119",
      "elevationUnit": "METERS",
      "longitude": -76.4
    },
    {
      "elevation": 130,
      "mindate": "1948-05-01",
      "maxdate": "1969-05-31",
      "latitude": 44.85,
      "name": "RIDEAU FERRY, CA",
      "datacoverage": 0.9225,
      "id": "GHCND:CA006107133",
      "elevationUnit": "METERS",
      "longitude": -76.15
    },
    {
      "elevation": 137,
      "mindate": "1990-09-01",
      "maxdate": "2001-10-31",
      "latitude": 46.1833,
      "name": "ROLPHTON, CA",
      "datacoverage": 0.9994,
      "id": "GHCND:CA006107182",
      "elevationUnit": "METERS",
      "longitude": -77.65
    },
    {
      "elevation": 122,
      "mindate": "1977-12-01",
      "maxdate": "1987-12-31",
      "latitude": 46.1833,
      "name": "ROLPHTON NPD, CA",
      "datacoverage": 1,
      "id": "GHCND:CA006107184",
      "elevationUnit": "METERS",
      "longitude": -77.6667
    },
    {
      "elevation": 76,
      "mindate": "1954-03-01",
      "maxdate": "2013-02-17",
      "latitude": 45.2667,
      "name": "RUSSELL, CA",
      "datacoverage": 0.7981,
      "id": "GHCND:CA006107247",
      "elevationUnit": "METERS",
      "longitude": -75.3667
    },
    {
      "elevation": 80,
      "mindate": "1986-06-01",
      "maxdate": "2024-04-28",
      "latitude": 45.2833,
      "name": "ST. ALBERT, CA",
      "datacoverage": 0.8135,
      "id": "GHCND:CA006107276",
      "elevationUnit": "METERS",
      "longitude": -75.0667
    },
    {
      "elevation": 84,
      "mindate": "1966-01-01",
      "maxdate": "1982-12-31",
      "latitude": 45.3167,
      "name": "ST ELMO, CA",
      "datacoverage": 0.9706,
      "id": "GHCND:CA006107310",
      "elevationUnit": "METERS",
      "longitude": -74.85
    },
    {
      "elevation": 69,
      "mindate": "1972-06-01",
      "maxdate": "1973-10-31",
      "latitude": 45.2167,
      "name": "ST RAPHAEL, CA",
      "datacoverage": 1,
      "id": "GHCND:CA006107352",
      "elevationUnit": "METERS",
      "longitude": -74.5833
    },
    {
      "elevation": 83,
      "mindate": "1993-09-01",
      "maxdate": "2002-01-31",
      "latitude": 44.1333,
      "name": "SANDHURST, CA",
      "datacoverage": 0.8612,
      "id": "GHCND:CA006107434",
      "elevationUnit": "METERS",
      "longitude": -76.8833
    },
    {
      "elevation": 85,
      "mindate": "1985-05-01",
      "maxdate": "1989-10-31",
      "latitude": 45.4333,
      "name": "SARSFIELD, CA",
      "datacoverage": 0.8881,
      "id": "GHCND:CA006107533",
      "elevationUnit": "METERS",
      "longitude": -75.35
    },
    {
      "elevation": 76,
      "mindate": "1954-02-01",
      "maxdate": "1956-10-31",
      "latitude": 45.35,
      "name": "SHIRLEY BAY, CA",
      "datacoverage": 1,
      "id": "GHCND:CA006107699",
      "elevationUnit": "METERS",
      "longitude": -75.8833
    },
    {
      "elevation": 129,
      "mindate": "1895-08-01",
      "maxdate": "1922-05-31",
      "latitude": 44.9167,
      "name": "SMITHS FALLS, CA",
      "datacoverage": 0.7996,
      "id": "GHCND:CA006107834",
      "elevationUnit": "METERS",
      "longitude": -76.05
    },
    {
      "elevation": 122,
      "mindate": "1964-07-01",
      "maxdate": "1983-05-31",
      "latitude": 44.9,
      "name": "SMITHS FALLS WPCP, CA",
      "datacoverage": 0.9736,
      "id": "GHCND:CA006107835",
      "elevationUnit": "METERS",
      "longitude": -76
    },
    {
      "elevation": 114,
      "mindate": "1982-11-01",
      "maxdate": "1989-10-31",
      "latitude": 44.8833,
      "name": "SMITHS FALLS TS, CA",
      "datacoverage": 0.9999,
      "id": "GHCND:CA006107836",
      "elevationUnit": "METERS",
      "longitude": -76
    },
    {
      "elevation": 85,
      "mindate": "1960-04-01",
      "maxdate": "1996-06-30",
      "latitude": 44.9667,
      "name": "SOUTH MOUNTAIN, CA",
      "datacoverage": 0.9954,
      "id": "GHCND:CA006107955",
      "elevationUnit": "METERS",
      "longitude": -75.4833
    },
    {
      "elevation": 95,
      "mindate": "1953-02-01",
      "maxdate": "1959-10-31",
      "latitude": 44.85,
      "name": "SPENCERVILLE, CA",
      "datacoverage": 1,
      "id": "GHCND:CA006107971",
      "elevationUnit": "METERS",
      "longitude": -75.55
    },
    {
      "elevation": 131,
      "mindate": "1950-05-01",
      "maxdate": "1969-03-31",
      "latitude": 45.4,
      "name": "STEWARTVILLE, CA",
      "datacoverage": 0.9779,
      "id": "GHCND:CA006108027",
      "elevationUnit": "METERS",
      "longitude": -76.5
    },
    {
      "elevation": 149,
      "mindate": "1876-11-01",
      "maxdate": "1921-10-31",
      "latitude": 46.15,
      "name": "STONECLIFFE, CA",
      "datacoverage": 1,
      "id": "GHCND:CA006108060",
      "elevationUnit": "METERS",
      "longitude": -78.1
    },
    {
      "elevation": 133,
      "mindate": "1903-09-01",
      "maxdate": "1917-01-31",
      "latitude": 44.4,
      "name": "SYDENHAM, CA",
      "datacoverage": 0.9314,
      "id": "GHCND:CA006108195",
      "elevationUnit": "METERS",
      "longitude": -76.5833
    },
    {
      "elevation": 88,
      "mindate": "1896-02-01",
      "maxdate": "1961-01-31",
      "latitude": 45.5167,
      "name": "VANKLEEK HILL, CA",
      "datacoverage": 0.9992,
      "id": "GHCND:CA006109132",
      "elevationUnit": "METERS",
      "longitude": -74.65
    },
    {
      "elevation": 135,
      "mindate": "1895-08-01",
      "maxdate": "1920-12-31",
      "latitude": 44.6833,
      "name": "WESTPORT, CA",
      "datacoverage": 0.8983,
      "id": "GHCND:CA006109458",
      "elevationUnit": "METERS",
      "longitude": -76.4167
    },
    {
      "elevation": 204,
      "mindate": "2005-06-01",
      "maxdate": "2005-09-30",
      "latitude": 44.7667,
      "name": "WHITE LAKE FISH CULTURE STATIO, CA",
      "datacoverage": 1,
      "id": "GHCND:CA006109503",
      "elevationUnit": "METERS",
      "longitude": -75.75
    },
    {
      "elevation": 90,
      "mindate": "1998-07-01",
      "maxdate": "2001-09-30",
      "latitude": 45.05,
      "name": "WINCHESTER CS, CA",
      "datacoverage": 0.4868,
      "id": "GHCND:CA006109515",
      "elevationUnit": "METERS",
      "longitude": -75.3333
    },
    {
      "elevation": 75,
      "mindate": "2003-10-01",
      "maxdate": "2007-06-13",
      "latitude": 45.05,
      "name": "WINCHESTER, CA",
      "datacoverage": 1,
      "id": "GHCND:CA006109517",
      "elevationUnit": "METERS",
      "longitude": -75.3333
    },
    {
      "elevation": 90,
      "mindate": "1986-01-01",
      "maxdate": "1996-12-31",
      "latitude": 44.15,
      "name": "WOLFE ISLAND, CA",
      "datacoverage": 0.9999,
      "id": "GHCND:CA006109558",
      "elevationUnit": "METERS",
      "longitude": -76.5333
    },
    {
      "elevation": 91,
      "mindate": "1975-09-01",
      "maxdate": "1982-03-31",
      "latitude": 45.5,
      "name": "WOODLAWN, CA",
      "datacoverage": 1,
      "id": "GHCND:CA006109590",
      "elevationUnit": "METERS",
      "longitude": -76.1
    },
    {
      "elevation": 98,
      "mindate": "1983-05-01",
      "maxdate": "1994-12-31",
      "latitude": 45.3333,
      "name": "MERIVALE TS, CA",
      "datacoverage": 0.9992,
      "id": "GHCND:CA00610E061",
      "elevationUnit": "METERS",
      "longitude": -75.7333
    },
    {
      "elevation": 133,
      "mindate": "1989-05-01",
      "maxdate": "1989-11-30",
      "latitude": 44.8833,
      "name": "PERTH, CA",
      "datacoverage": 0.8534,
      "id": "GHCND:CA00610F3Q0",
      "elevationUnit": "METERS",
      "longitude": -76.2
    },
    {
      "elevation": 153,
      "mindate": "1993-06-01",
      "maxdate": "2024-04-28",
      "latitude": 45.8833,
      "name": "PETAWAWA HOFFMAN, CA",
      "datacoverage": 1,
      "id": "GHCND:CA00610FC98",
      "elevationUnit": "METERS",
      "longitude": -77.25
    },
    {
      "elevation": 145,
      "mindate": "1986-06-01",
      "maxdate": "1987-06-30",
      "latitude": 44.9167,
      "name": "PERTH, CA",
      "datacoverage": 1,
      "id": "GHCND:CA00610FLPR",
      "elevationUnit": "METERS",
      "longitude": -76.2833
    },
    {
      "elevation": 285,
      "mindate": "1975-08-01",
      "maxdate": "1976-11-04",
      "latitude": 44.1667,
      "name": "ALLAN PARK, CA",
      "datacoverage": 1,
      "id": "GHCND:CA006110210",
      "elevationUnit": "METERS",
      "longitude": -80.9333
    },
    {
      "elevation": 213,
      "mindate": "1953-03-01",
      "maxdate": "1975-01-31",
      "latitude": 44.15,
      "name": "ALLISTON, CA",
      "datacoverage": 0.6462,
      "id": "GHCND:CA006110216",
      "elevationUnit": "METERS",
      "longitude": -79.85
    },
    {
      "elevation": 221,
      "mindate": "1973-07-01",
      "maxdate": "2006-12-31",
      "latitude": 44.15,
      "name": "ALLISTON NELSON, CA",
      "datacoverage": 0.9949,
      "id": "GHCND:CA006110218",
      "elevationUnit": "METERS",
      "longitude": -79.8667
    },
    {
      "elevation": 191,
      "mindate": "1930-02-01",
      "maxdate": "1965-02-28",
      "latitude": 44.3167,
      "name": "ANGUS, CA",
      "datacoverage": 0.9788,
      "id": "GHCND:CA006110270",
      "elevationUnit": "METERS",
      "longitude": -79.8667
    },
    {
      "elevation": 212,
      "mindate": "1994-09-01",
      "maxdate": "1997-11-30",
      "latitude": 44.2833,
      "name": "ANGUS CAMPHILL, CA",
      "datacoverage": 1,
      "id": "GHCND:CA006110275",
      "elevationUnit": "METERS",
      "longitude": -79.85
    },
    {
      "elevation": 361,
      "mindate": "1988-05-01",
      "maxdate": "1993-12-31",
      "latitude": 44.0833,
      "name": "AYTON, CA",
      "datacoverage": 0.9112,
      "id": "GHCND:CA006110439",
      "elevationUnit": "METERS",
      "longitude": -80.8333
    },
    {
      "elevation": 226,
      "mindate": "1883-07-01",
      "maxdate": "1907-12-31",
      "latitude": 45,
      "name": "BALA, CA",
      "datacoverage": 0.9994,
      "id": "GHCND:CA006110458",
      "elevationUnit": "METERS",
      "longitude": -79.5
    },
    {
      "elevation": 222,
      "mindate": "2006-05-01",
      "maxdate": "2016-03-22",
      "latitude": 44.6667,
      "name": "BALACLAVA, CA",
      "datacoverage": 0.9999,
      "id": "GHCND:CA006110470",
      "elevationUnit": "METERS",
      "longitude": -80.7833
    },
    {
      "elevation": 229,
      "mindate": "2004-12-01",
      "maxdate": "2024-04-28",
      "latitude": 44.2667,
      "name": "BALDWIN, CA",
      "datacoverage": 1,
      "id": "GHCND:CA006110480",
      "elevationUnit": "METERS",
      "longitude": -79.3167
    },
    {
      "elevation": 229,
      "mindate": "1866-01-01",
      "maxdate": "1958-06-30",
      "latitude": 44.4,
      "name": "BARRIE, CA",
      "datacoverage": 0.6154,
      "id": "GHCND:CA006110549",
      "elevationUnit": "METERS",
      "longitude": -79.6833
    },
    {
      "elevation": 295,
      "mindate": "1992-12-01",
      "maxdate": "2003-12-18",
      "latitude": 44.3833,
      "name": "BARRIE AUT, CA",
      "datacoverage": 0.985,
      "id": "GHCND:CA006110552",
      "elevationUnit": "METERS",
      "longitude": -79.7833
    },
    {
      "elevation": 312,
      "mindate": "1960-03-01",
      "maxdate": "1961-02-28",
      "latitude": 44.35,
      "name": "BARRIE CKVR, CA",
      "datacoverage": 0.9178,
      "id": "GHCND:CA006110555",
      "elevationUnit": "METERS",
      "longitude": -79.7
    },
    {
      "elevation": 305,
      "mindate": "2011-06-01",
      "maxdate": "2024-04-25",
      "latitude": 44.3833,
      "name": "BARRIE LANDFILL, CA",
      "datacoverage": 0.9996,
      "id": "GHCND:CA006110556",
      "elevationUnit": "METERS",
      "longitude": -79.7333
    },
    {
      "elevation": 221,
      "mindate": "1968-05-01",
      "maxdate": "2009-06-29",
      "latitude": 44.3833,
      "name": "BARRIE WPCC, CA",
      "datacoverage": 0.9327,
      "id": "GHCND:CA006110557",
      "elevationUnit": "METERS",
      "longitude": -79.6833
    },
    {
      "elevation": 290,
      "mindate": "1876-03-01",
      "maxdate": "1979-02-28",
      "latitude": 45.1333,
      "name": "BEATRICE, CA",
      "datacoverage": 0.9968,
      "id": "GHCND:CA006110605",
      "elevationUnit": "METERS",
      "longitude": -79.3833
    },
    {
      "elevation": 297,
      "mindate": "1979-09-01",
      "maxdate": "2008-09-29",
      "latitude": 45.1333,
      "name": "BEATRICE 2, CA",
      "datacoverage": 1,
      "id": "GHCND:CA006110606",
      "elevationUnit": "METERS",
      "longitude": -79.4
    },
    {
      "elevation": 297,
      "mindate": "2005-09-01",
      "maxdate": "2024-04-28",
      "latitude": 45.1333,
      "name": "BEATRICE CLIMATE, CA",
      "datacoverage": 1,
      "id": "GHCND:CA006110607",
      "elevationUnit": "METERS",
      "longitude": -79.4
    },
    {
      "elevation": 183,
      "mindate": "1994-12-01",
      "maxdate": "2007-08-27",
      "latitude": 44.85,
      "name": "BEAUSOLEIL, CA",
      "datacoverage": 0.8889,
      "id": "GHCND:CA006110617",
      "elevationUnit": "METERS",
      "longitude": -79.8667
    },
    {
      "elevation": 230,
      "mindate": "1948-03-01",
      "maxdate": "1959-08-31",
      "latitude": 44.4167,
      "name": "BEAVERTON, CA",
      "datacoverage": 0.7752,
      "id": "GHCND:CA006110633",
      "elevationUnit": "METERS",
      "longitude": -79.15
    },
    {
      "elevation": 233,
      "mindate": "1916-11-01",
      "maxdate": "1970-01-31",
      "latitude": 44.1,
      "name": "BEETON, CA",
      "datacoverage": 0.9859,
      "id": "GHCND:CA006110661",
      "elevationUnit": "METERS",
      "longitude": -79.7833
    },
    {
      "elevation": 221,
      "mindate": "1975-03-01",
      "maxdate": "1976-11-30",
      "latitude": 44.1167,
      "name": "BEETON ASSAGI, CA",
      "datacoverage": 1,
      "id": "GHCND:CA006110662",
      "elevationUnit": "METERS",
      "longitude": -79.7667
    },
    {
      "elevation": 229,
      "mindate": "1971-09-01",
      "maxdate": "1984-12-31",
      "latitude": 44.0833,
      "name": "BEETON GRAHAM, CA",
      "datacoverage": 0.9935,
      "id": "GHCND:CA006110663",
      "elevationUnit": "METERS",
      "longitude": -79.7833
    },
    {
      "elevation": 252,
      "mindate": "1968-04-01",
      "maxdate": "1971-07-31",
      "latitude": 44.0667,
      "name": "BEETON WATSON, CA",
      "datacoverage": 1,
      "id": "GHCND:CA006110667",
      "elevationUnit": "METERS",
      "longitude": -79.85
    },
    {
      "elevation": 191,
      "mindate": "1913-05-01",
      "maxdate": "1972-01-31",
      "latitude": 44.8833,
      "name": "BIG CHUTE, CA",
      "datacoverage": 0.3588,
      "id": "GHCND:CA006110731",
      "elevationUnit": "METERS",
      "longitude": -79.6667
    },
    {
      "elevation": 242,
      "mindate": "1933-02-01",
      "maxdate": "1970-05-31",
      "latitude": 46.0833,
      "name": "BINGHAM CHUTE, CA",
      "datacoverage": 0.9934,
      "id": "GHCND:CA006110745",
      "elevationUnit": "METERS",
      "longitude": -79.4
    },
    {
      "elevation": 250,
      "mindate": "1883-04-01",
      "maxdate": "1900-09-30",
      "latitude": 44.6667,
      "name": "BOGNOR, CA",
      "datacoverage": 0.9765,
      "id": "GHCND:CA006110823",
      "elevationUnit": "METERS",
      "longitude": -80.8333
    },
    {
      "elevation": 227,
      "mindate": "1966-09-01",
      "maxdate": "1970-03-31",
      "latitude": 44.2667,
      "name": "BORDEN A, CA",
      "datacoverage": 1,
      "id": "GHCND:CA006110827",
      "elevationUnit": "METERS",
      "longitude": -79.9333
    },
    {
      "elevation": 250,
      "mindate": "1984-07-01",
      "maxdate": "1989-02-28",
      "latitude": 45.05,
      "name": "BRACEBRIDGE, CA",
      "datacoverage": 1,
      "id": "GHCND:CA006110851",
      "elevationUnit": "METERS",
      "longitude": -79.3167
    },
    {
      "elevation": 267,
      "mindate": "1983-07-01",
      "maxdate": "1987-01-31",
      "latitude": 45.0333,
      "name": "BRACEBRIDGE ONT HYDRO, CA",
      "datacoverage": 1,
      "id": "GHCND:CA006110854",
      "elevationUnit": "METERS",
      "longitude": -79.3
    },
    {
      "elevation": 293,
      "mindate": "1972-05-01",
      "maxdate": "1976-04-30",
      "latitude": 44.15,
      "name": "BRADFORD BROWN, CA",
      "datacoverage": 1,
      "id": "GHCND:CA006110859",
      "elevationUnit": "METERS",
      "longitude": -79.5667
    },
    {
      "elevation": 220,
      "mindate": "1985-12-01",
      "maxdate": "1994-11-30",
      "latitude": 44.5333,
      "name": "BRECHIN BEACH, CA",
      "datacoverage": 0.213,
      "id": "GHCND:CA00611095R",
      "elevationUnit": "METERS",
      "longitude": -79.2
    },
    {
      "elevation": 190,
      "mindate": "1992-12-01",
      "maxdate": "2010-07-04",
      "latitude": 45.8,
      "name": "BRITT AUT, CA",
      "datacoverage": 0.5054,
      "id": "GHCND:CA006110967",
      "elevationUnit": "METERS",
      "longitude": -80.5333
    },
    {
      "elevation": 201,
      "mindate": "1985-12-01",
      "maxdate": "1992-09-30",
      "latitude": 44.3,
      "name": "BORDEN STP, CA",
      "datacoverage": 0.9268,
      "id": "GHCND:CA006110HK7",
      "elevationUnit": "METERS",
      "longitude": -79.9
    },
    {
      "elevation": 320,
      "mindate": "1888-03-01",
      "maxdate": "1986-07-31",
      "latitude": 45.6,
      "name": "BURKS FALLS, CA",
      "datacoverage": 0.3404,
      "id": "GHCND:CA006111045",
      "elevationUnit": "METERS",
      "longitude": -79.5667
    },
    {
      "elevation": 335,
      "mindate": "2006-08-01",
      "maxdate": "2010-03-31",
      "latitude": 45.65,
      "name": "BURK S FALLS, CA",
      "datacoverage": 1,
      "id": "GHCND:CA006111050",
      "elevationUnit": "METERS",
      "longitude": -79.4
    },
    {
      "elevation": 310,
      "mindate": "1988-05-01",
      "maxdate": "1995-04-30",
      "latitude": 45.5833,
      "name": "BURK S FALLS 2, CA",
      "datacoverage": 0.9993,
      "id": "GHCND:CA0061110M6",
      "elevationUnit": "METERS",
      "longitude": -79.6
    },
    {
      "elevation": 221,
      "mindate": "1960-01-01",
      "maxdate": "1966-08-31",
      "latitude": 44.2667,
      "name": "CAMP BORDEN, CA",
      "datacoverage": 1,
      "id": "GHCND:CA006111143",
      "elevationUnit": "METERS",
      "longitude": -79.9
    },
    {
      "elevation": 233,
      "mindate": "1926-05-01",
      "maxdate": "1945-10-31",
      "latitude": 44.3167,
      "name": "CAMP BORDEN A, CA",
      "datacoverage": 0.6708,
      "id": "GHCND:CA006111145",
      "elevationUnit": "METERS",
      "longitude": -79.9
    },
    {
      "elevation": 326,
      "mindate": "1883-08-01",
      "maxdate": "1893-08-31",
      "latitude": 45.45,
      "name": "CHARLINCH, CA",
      "datacoverage": 1,
      "id": "GHCND:CA006111375",
      "elevationUnit": "METERS",
      "longitude": -79.25
    },
    {
      "elevation": 305,
      "mindate": "1952-12-01",
      "maxdate": "2013-10-31",
      "latitude": 44.4,
      "name": "CHATSWORTH, CA",
      "datacoverage": 0.9398,
      "id": "GHCND:CA006111467",
      "elevationUnit": "METERS",
      "longitude": -80.9
    },
    {
      "elevation": 232,
      "mindate": "1966-06-01",
      "maxdate": "1966-11-30",
      "latitude": 44.5167,
      "name": "CLARKSBURG, CA",
      "datacoverage": 1,
      "id": "GHCND:CA006111546",
      "elevationUnit": "METERS",
      "longitude": -80.4667
    },
    {
      "elevation": 183,
      "mindate": "1883-04-01",
      "maxdate": "1954-12-31",
      "latitude": 44.7,
      "name": "COLDWATER, CA",
      "datacoverage": 0.8397,
      "id": "GHCND:CA006111766",
      "elevationUnit": "METERS",
      "longitude": -79.6667
    },
    {
      "elevation": 285,
      "mindate": "1971-08-01",
      "maxdate": "2024-04-28",
      "latitude": 44.6333,
      "name": "COLDWATER WARMINSTER, CA",
      "datacoverage": 0.9701,
      "id": "GHCND:CA006111769",
      "elevationUnit": "METERS",
      "longitude": -79.5333
    },
    {
      "elevation": 180,
      "mindate": "1994-12-01",
      "maxdate": "2023-06-18",
      "latitude": 44.5,
      "name": "COLLINGWOOD, CA",
      "datacoverage": 1,
      "id": "GHCND:CA006111792",
      "elevationUnit": "METERS",
      "longitude": -80.2167
    },
    {
      "elevation": 183,
      "mindate": "1869-11-01",
      "maxdate": "1974-08-31",
      "latitude": 44.4833,
      "name": "COLLINGWOOD, CA",
      "datacoverage": 0.5835,
      "id": "GHCND:CA006111793",
      "elevationUnit": "METERS",
      "longitude": -80.2167
    },
    {
      "elevation": 221,
      "mindate": "1970-08-01",
      "maxdate": "1971-04-30",
      "latitude": 44.45,
      "name": "COLLINGWOOD A, CA",
      "datacoverage": 1,
      "id": "GHCND:CA006111794",
      "elevationUnit": "METERS",
      "longitude": -80.1667
    },
    {
      "elevation": 198,
      "mindate": "1965-12-01",
      "maxdate": "1967-03-31",
      "latitude": 44.5,
      "name": "COLLINGWOOD SMART BROS, CA",
      "datacoverage": 1,
      "id": "GHCND:CA006111797",
      "elevationUnit": "METERS",
      "longitude": -80.25
    },
    {
      "elevation": 180,
      "mindate": "1973-05-01",
      "maxdate": "1997-01-30",
      "latitude": 44.5,
      "name": "COLLINGWOOD WPCP, CA",
      "datacoverage": 0.5,
      "id": "GHCND:CA006111800",
      "elevationUnit": "METERS",
      "longitude": -80.2167
    },
    {
      "elevation": 244,
      "mindate": "1972-06-01",
      "maxdate": "2006-12-31",
      "latitude": 44.2,
      "name": "COOKSTOWN, CA",
      "datacoverage": 1,
      "id": "GHCND:CA006111859",
      "elevationUnit": "METERS",
      "longitude": -79.7
    },
    {
      "elevation": 229,
      "mindate": "1970-03-01",
      "maxdate": "1975-08-31",
      "latitude": 44.6,
      "name": "DALRYMPLE LAKE, CA",
      "datacoverage": 0.9994,
      "id": "GHCND:CA006111965",
      "elevationUnit": "METERS",
      "longitude": -79.1333
    },
    {
      "elevation": 347,
      "mindate": "1949-08-01",
      "maxdate": "1969-06-30",
      "latitude": 45.1667,
      "name": "DORSET, CA",
      "datacoverage": 0.5942,
      "id": "GHCND:CA006112070",
      "elevationUnit": "METERS",
      "longitude": -78.8333
    },
    {
      "elevation": 323,
      "mindate": "1976-11-01",
      "maxdate": "2002-01-31",
      "latitude": 45.2167,
      "name": "DORSET MOE, CA",
      "datacoverage": 0.9868,
      "id": "GHCND:CA006112072",
      "elevationUnit": "METERS",
      "longitude": -78.9333
    },
    {
      "elevation": 268,
      "mindate": "1973-09-01",
      "maxdate": "2014-02-28",
      "latitude": 45.6167,
      "name": "DUNCHURCH, CA",
      "datacoverage": 0.8972,
      "id": "GHCND:CA006112133",
      "elevationUnit": "METERS",
      "longitude": -79.8833
    },
    {
      "elevation": 384,
      "mindate": "1882-06-01",
      "maxdate": "2003-10-31",
      "latitude": 44.1833,
      "name": "DURHAM, CA",
      "datacoverage": 0.6198,
      "id": "GHCND:CA006112171",
      "elevationUnit": "METERS",
      "longitude": -80.8167
    },
    {
      "elevation": 213,
      "mindate": "1947-05-01",
      "maxdate": "1951-12-31",
      "latitude": 44.5833,
      "name": "ELMVALE, CA",
      "datacoverage": 0.9279,
      "id": "GHCND:CA006112278",
      "elevationUnit": "METERS",
      "longitude": -79.9
    },
    {
      "elevation": 328,
      "mindate": "1895-08-01",
      "maxdate": "1952-09-30",
      "latitude": 45.5,
      "name": "EMSDALE, CA",
      "datacoverage": 0.8222,
      "id": "GHCND:CA006112313",
      "elevationUnit": "METERS",
      "longitude": -79.2333
    },
    {
      "elevation": 216,
      "mindate": "1958-07-01",
      "maxdate": "2001-04-30",
      "latitude": 44.35,
      "name": "ESSA ONT HYDRO, CA",
      "datacoverage": 0.9844,
      "id": "GHCND:CA006112340",
      "elevationUnit": "METERS",
      "longitude": -79.8167
    },
    {
      "elevation": 274,
      "mindate": "1916-05-01",
      "maxdate": "1969-01-31",
      "latitude": 44.3333,
      "name": "EUGENIA, CA",
      "datacoverage": 0.9636,
      "id": "GHCND:CA006112350",
      "elevationUnit": "METERS",
      "longitude": -80.55
    },
    {
      "elevation": 180,
      "mindate": "1961-07-01",
      "maxdate": "1964-09-30",
      "latitude": 44.7333,
      "name": "FESSERTON, CA",
      "datacoverage": 0.9992,
      "id": "GHCND:CA006112410",
      "elevationUnit": "METERS",
      "longitude": -79.6833
    },
    {
      "elevation": 252,
      "mindate": "1959-05-01",
      "maxdate": "1968-02-29",
      "latitude": 44.2167,
      "name": "GILFORD, CA",
      "datacoverage": 0.0943,
      "id": "GHCND:CA006112775",
      "elevationUnit": "METERS",
      "longitude": -79.55
    },
    {
      "elevation": 267,
      "mindate": "1976-07-01",
      "maxdate": "1983-08-31",
      "latitude": 44.2,
      "name": "GILFORD, CA",
      "datacoverage": 1,
      "id": "GHCND:CA006112778",
      "elevationUnit": "METERS",
      "longitude": -79.5667
    },
    {
      "elevation": 248,
      "mindate": "1870-11-01",
      "maxdate": "1949-09-30",
      "latitude": 44.9167,
      "name": "GRAVENHURST, CA",
      "datacoverage": 0.8794,
      "id": "GHCND:CA006113000",
      "elevationUnit": "METERS",
      "longitude": -79.3667
    },
    {
      "elevation": 270,
      "mindate": "1972-01-01",
      "maxdate": "2006-12-31",
      "latitude": 44.1167,
      "name": "HANOVER, CA",
      "datacoverage": 0.9976,
      "id": "GHCND:CA006113329",
      "elevationUnit": "METERS",
      "longitude": -81
    },
    {
      "elevation": 302,
      "mindate": "1970-01-01",
      "maxdate": "1971-07-31",
      "latitude": 44.3167,
      "name": "HOLLY, CA",
      "datacoverage": 0.9495,
      "id": "GHCND:CA006113479",
      "elevationUnit": "METERS",
      "longitude": -79.7167
    },
    {
      "elevation": 407,
      "mindate": "1953-02-01",
      "maxdate": "1966-04-30",
      "latitude": 44.05,
      "name": "HOLSTEIN, CA",
      "datacoverage": 0.6104,
      "id": "GHCND:CA006113480",
      "elevationUnit": "METERS",
      "longitude": -80.7667
    }
  ]
}
