{
  "metadata": {
    "resultset": {
      "offset": 26000,
      "count": 154115,
      "limit": 100
    }
  },
  "results": [
    {
      "elevation": 235,
      "mindate": "1889-01-01",
      "maxdate": "1919-04-30",
      "latitude": -32.3961,
      "name": "QUORN KINGSWOOD, AS",
      "datacoverage": 1,
      "id": "GHCND:ASN00019090",
      "elevationUnit": "METERS",
      "longitude": 138.1339
    },
    {
      "elevation": 322,
      "mindate": "1874-02-01",
      "maxdate": "1921-03-31",
      "latitude": -32.7981,
      "name": "MOUNT REMARKABLE, AS",
      "datacoverage": 0.9723,
      "id": "GHCND:ASN00019091",
      "elevationUnit": "METERS",
      "longitude": 138.2161
    },
    {
      "elevation": 330,
      "mindate": "1914-01-01",
      "maxdate": "1920-02-29",
      "latitude": -31.7331,
      "name": "HAWKER ARKABA, AS",
      "datacoverage": 0.9871,
      "id": "GHCND:ASN00019092",
      "elevationUnit": "METERS",
      "longitude": 138.5028
    },
    {
      "elevation": 385,
      "mindate": "1881-02-01",
      "maxdate": "1890-03-31",
      "latitude": -32.0361,
      "name": "CRADOCK WIRREANDA, AS",
      "datacoverage": 0.8326,
      "id": "GHCND:ASN00019093",
      "elevationUnit": "METERS",
      "longitude": 138.4511
    },
    {
      "elevation": 512.7,
      "mindate": "1886-09-01",
      "maxdate": "1894-05-31",
      "latitude": -33.0333,
      "name": "YONGALA NATIONAL PARK, AS",
      "datacoverage": 0.7744,
      "id": "GHCND:ASN00019094",
      "elevationUnit": "METERS",
      "longitude": 138.75
    },
    {
      "elevation": 405,
      "mindate": "1967-02-01",
      "maxdate": "2008-11-30",
      "latitude": -32.4654,
      "name": "CARRIETON OAKBURNE, AS",
      "datacoverage": 1,
      "id": "GHCND:ASN00019095",
      "elevationUnit": "METERS",
      "longitude": 138.7579
    },
    {
      "elevation": 290,
      "mindate": "1888-02-01",
      "maxdate": "1908-12-31",
      "latitude": -32.3461,
      "name": "QUORN RAILWAY, AS",
      "datacoverage": 0.4543,
      "id": "GHCND:ASN00019096",
      "elevationUnit": "METERS",
      "longitude": 138.0397
    },
    {
      "mindate": "1906-01-01",
      "maxdate": "1908-04-30",
      "latitude": -32.3333,
      "name": "GLENROY, AS",
      "datacoverage": 1,
      "id": "GHCND:ASN00019097",
      "longitude": 138.7167
    },
    {
      "elevation": 492,
      "mindate": "1969-02-01",
      "maxdate": "2021-05-31",
      "latitude": -32.2554,
      "name": "CARRIETON GLENROY ESTATE, AS",
      "datacoverage": 0.9481,
      "id": "GHCND:ASN00019098",
      "elevationUnit": "METERS",
      "longitude": 138.6377
    },
    {
      "elevation": 118,
      "mindate": "1970-02-01",
      "maxdate": "2011-09-17",
      "latitude": -32.842,
      "name": "MOUNT REMARKABLE MAMBRAY CREE, AS",
      "datacoverage": 0.9981,
      "id": "GHCND:ASN00019099",
      "elevationUnit": "METERS",
      "longitude": 138.0304
    },
    {
      "elevation": 385,
      "mindate": "1970-01-01",
      "maxdate": "2005-11-07",
      "latitude": -32.7837,
      "name": "OODLA WIRRA ARAKCAN, AS",
      "datacoverage": 0.9954,
      "id": "GHCND:ASN00019100",
      "elevationUnit": "METERS",
      "longitude": 139.2825
    },
    {
      "elevation": 330,
      "mindate": "1954-01-01",
      "maxdate": "1965-09-30",
      "latitude": -32.0464,
      "name": "HAWKER MATT WHIM, AS",
      "datacoverage": 1,
      "id": "GHCND:ASN00019101",
      "elevationUnit": "METERS",
      "longitude": 138.9092
    },
    {
      "elevation": 110,
      "mindate": "1922-05-01",
      "maxdate": "1998-06-30",
      "latitude": -32.9233,
      "name": "PORT GERMEIN BAROOTA RESERVOI, AS",
      "datacoverage": 0.9934,
      "id": "GHCND:ASN00019102",
      "elevationUnit": "METERS",
      "longitude": 138.0586
    },
    {
      "elevation": 290,
      "mindate": "1973-01-01",
      "maxdate": "2020-02-29",
      "latitude": -32.6682,
      "name": "WILMINGTON STONEHAVEN, AS",
      "datacoverage": 1,
      "id": "GHCND:ASN00019103",
      "elevationUnit": "METERS",
      "longitude": 138.1576
    },
    {
      "elevation": 554,
      "mindate": "1975-01-01",
      "maxdate": "2004-06-30",
      "latitude": -33.0371,
      "name": "MANNANARIE, AS",
      "datacoverage": 0.9803,
      "id": "GHCND:ASN00019104",
      "elevationUnit": "METERS",
      "longitude": 138.6003
    },
    {
      "elevation": 72,
      "mindate": "1976-08-01",
      "maxdate": "1985-04-30",
      "latitude": -33.0333,
      "name": "TELOWIE 428, AS",
      "datacoverage": 1,
      "id": "GHCND:ASN00019105",
      "elevationUnit": "METERS",
      "longitude": 138.0833
    },
    {
      "elevation": 342,
      "mindate": "1972-01-01",
      "maxdate": "2022-07-25",
      "latitude": -32.627,
      "name": "OODLA WIRRA MCCOYS WELL, AS",
      "datacoverage": 0.9944,
      "id": "GHCND:ASN00019106",
      "elevationUnit": "METERS",
      "longitude": 139.1923
    },
    {
      "elevation": 550,
      "mindate": "1985-01-01",
      "maxdate": "2025-02-05",
      "latitude": -31.3667,
      "name": "WILPENA ORAPARINNA, AS",
      "datacoverage": 0.9306,
      "id": "GHCND:ASN00019107",
      "elevationUnit": "METERS",
      "longitude": 138.7176
    },
    {
      "elevation": 363,
      "mindate": "1989-01-01",
      "maxdate": "2024-12-31",
      "latitude": -32.4961,
      "name": "HAMMOND COONATTO, AS",
      "datacoverage": 0.8838,
      "id": "GHCND:ASN00019108",
      "elevationUnit": "METERS",
      "longitude": 138.373
    },
    {
      "elevation": 405,
      "mindate": "1750-07-01",
      "maxdate": "2024-12-31",
      "latitude": -32.1244,
      "name": "CRADOCK SLATY CREEK, AS",
      "datacoverage": 0.9592,
      "id": "GHCND:ASN00019109",
      "elevationUnit": "METERS",
      "longitude": 138.4674
    },
    {
      "elevation": 198,
      "mindate": "1989-01-01",
      "maxdate": "2006-12-31",
      "latitude": -31.964,
      "name": "HAWKER SICCUS RIVER, AS",
      "datacoverage": 0.9353,
      "id": "GHCND:ASN00019110",
      "elevationUnit": "METERS",
      "longitude": 139.2162
    },
    {
      "elevation": 175,
      "mindate": "1750-07-01",
      "maxdate": "2025-01-31",
      "latitude": -31.4763,
      "name": "WILPENA MARTINS WELL, AS",
      "datacoverage": 0.9084,
      "id": "GHCND:ASN00019111",
      "elevationUnit": "METERS",
      "longitude": 139.1134
    },
    {
      "elevation": 42,
      "mindate": "1996-06-01",
      "maxdate": "2025-01-31",
      "latitude": -33.023,
      "name": "PORT GERMEIN GOWAN BRAE, AS",
      "datacoverage": 1,
      "id": "GHCND:ASN00019112",
      "elevationUnit": "METERS",
      "longitude": 138.0698
    },
    {
      "elevation": 159,
      "mindate": "1750-03-21",
      "maxdate": "2025-01-31",
      "latitude": -31.448,
      "name": "EDEOWIE, AS",
      "datacoverage": 0.7063,
      "id": "GHCND:ASN00019113",
      "elevationUnit": "METERS",
      "longitude": 138.4531
    },
    {
      "elevation": 332,
      "mindate": "1998-01-01",
      "maxdate": "2025-02-03",
      "latitude": -32.4295,
      "name": "MINBURRA, AS",
      "datacoverage": 0.9864,
      "id": "GHCND:ASN00019114",
      "elevationUnit": "METERS",
      "longitude": 138.8922
    },
    {
      "elevation": 507,
      "mindate": "2004-07-01",
      "maxdate": "2025-02-04",
      "latitude": -33.0188,
      "name": "MANNANARIE, AS",
      "datacoverage": 0.9795,
      "id": "GHCND:ASN00019115",
      "elevationUnit": "METERS",
      "longitude": 138.6153
    },
    {
      "elevation": 341,
      "mindate": "2006-08-01",
      "maxdate": "2024-12-31",
      "latitude": -32.7722,
      "name": "BOOLEROO WHIM CALLUM BRAE, AS",
      "datacoverage": 0.916,
      "id": "GHCND:ASN00019116",
      "elevationUnit": "METERS",
      "longitude": 138.3005
    },
    {
      "mindate": "2006-09-01",
      "maxdate": "2025-01-31",
      "latitude": -32.9068,
      "name": "TARCOWIE OAKLANDS, AS",
      "datacoverage": 0.6459,
      "id": "GHCND:ASN00019117",
      "longitude": 138.5593
    },
    {
      "elevation": 542,
      "mindate": "2007-04-01",
      "maxdate": "2022-12-31",
      "latitude": -32.9559,
      "name": "PETERBOROUGH AMELIA PARK, AS",
      "datacoverage": 0.9995,
      "id": "GHCND:ASN00019118",
      "elevationUnit": "METERS",
      "longitude": 138.9445
    },
    {
      "elevation": 230,
      "mindate": "1750-07-19",
      "maxdate": "2025-01-31",
      "latitude": -32.0498,
      "name": "BIMBOWRIE, AS",
      "datacoverage": 0.7647,
      "id": "GHCND:ASN00020000",
      "elevationUnit": "METERS",
      "longitude": 140.162
    },
    {
      "elevation": 190,
      "mindate": "1882-06-01",
      "maxdate": "2024-11-24",
      "latitude": -31.9695,
      "name": "BOOLCOOMATTA, AS",
      "datacoverage": 0.9638,
      "id": "GHCND:ASN00020001",
      "elevationUnit": "METERS",
      "longitude": 140.5436
    },
    {
      "elevation": 200,
      "mindate": "1888-07-01",
      "maxdate": "2023-07-31",
      "latitude": -32.076,
      "name": "COCKBURN, AS",
      "datacoverage": 0.9686,
      "id": "GHCND:ASN00020002",
      "elevationUnit": "METERS",
      "longitude": 140.9969
    },
    {
      "elevation": 65,
      "mindate": "1917-01-01",
      "maxdate": "1945-04-30",
      "latitude": -31.5,
      "name": "COONDAPPIE, AS",
      "datacoverage": 0.9884,
      "id": "GHCND:ASN00020003",
      "elevationUnit": "METERS",
      "longitude": 139.6667
    },
    {
      "elevation": 90,
      "mindate": "1881-01-01",
      "maxdate": "2023-09-30",
      "latitude": -31.6516,
      "name": "CURNOMONA CURNAMONA, AS",
      "datacoverage": 0.984,
      "id": "GHCND:ASN00020004",
      "elevationUnit": "METERS",
      "longitude": 139.5491
    },
    {
      "elevation": 85,
      "mindate": "1911-05-01",
      "maxdate": "2016-09-30",
      "latitude": -31.4783,
      "name": "ERUDINA, AS",
      "datacoverage": 0.98,
      "id": "GHCND:ASN00020005",
      "elevationUnit": "METERS",
      "longitude": 139.3862
    },
    {
      "elevation": 45,
      "mindate": "1889-02-01",
      "maxdate": "2006-11-30",
      "latitude": -31.2196,
      "name": "FROME DOWNS, AS",
      "datacoverage": 0.9583,
      "id": "GHCND:ASN00020006",
      "elevationUnit": "METERS",
      "longitude": 139.7763
    },
    {
      "elevation": 190,
      "mindate": "1922-01-01",
      "maxdate": "1979-09-30",
      "latitude": -31.9167,
      "name": "KALABITY, AS",
      "datacoverage": 0.9654,
      "id": "GHCND:ASN00020007",
      "elevationUnit": "METERS",
      "longitude": 140.3167
    },
    {
      "elevation": 90,
      "mindate": "1885-08-01",
      "maxdate": "1971-08-31",
      "latitude": -33.5667,
      "name": "KOOMOOLOO, AS",
      "datacoverage": 0.6564,
      "id": "GHCND:ASN00020008",
      "elevationUnit": "METERS",
      "longitude": 139.7
    },
    {
      "elevation": 110,
      "mindate": "1925-03-01",
      "maxdate": "1978-08-31",
      "latitude": -33.55,
      "name": "KOOMOOLOO STATION, AS",
      "datacoverage": 0.8629,
      "id": "GHCND:ASN00020009",
      "elevationUnit": "METERS",
      "longitude": 139.6
    },
    {
      "elevation": 205,
      "mindate": "1750-04-01",
      "maxdate": "2025-02-08",
      "latitude": -32.0646,
      "name": "KOONAMORE, AS",
      "datacoverage": 0.9549,
      "id": "GHCND:ASN00020010",
      "elevationUnit": "METERS",
      "longitude": 139.382
    },
    {
      "elevation": 180,
      "mindate": "1921-07-01",
      "maxdate": "1982-03-31",
      "latitude": -32.05,
      "name": "LAKE DISMAL, AS",
      "datacoverage": 0.6968,
      "id": "GHCND:ASN00020011",
      "elevationUnit": "METERS",
      "longitude": 140.9167
    },
    {
      "elevation": 177,
      "mindate": "1899-01-01",
      "maxdate": "2016-08-31",
      "latitude": -32.9571,
      "name": "LILYDALE, AS",
      "datacoverage": 0.8757,
      "id": "GHCND:ASN00020012",
      "elevationUnit": "METERS",
      "longitude": 139.972
    },
    {
      "elevation": 371,
      "mindate": "1750-04-01",
      "maxdate": "2025-01-31",
      "latitude": -32.4292,
      "name": "MANNA HILL, AS",
      "datacoverage": 0.9876,
      "id": "GHCND:ASN00020013",
      "elevationUnit": "METERS",
      "longitude": 139.9887
    },
    {
      "elevation": 187,
      "mindate": "1921-08-01",
      "maxdate": "1973-11-30",
      "latitude": -32.1333,
      "name": "MINGARY, AS",
      "datacoverage": 0.9872,
      "id": "GHCND:ASN00020014",
      "elevationUnit": "METERS",
      "longitude": 140.75
    },
    {
      "elevation": 270,
      "mindate": "1924-12-01",
      "maxdate": "2007-02-28",
      "latitude": -32.2123,
      "name": "MANNA HILL FOUR BROTHERS, AS",
      "datacoverage": 0.8309,
      "id": "GHCND:ASN00020015",
      "elevationUnit": "METERS",
      "longitude": 139.7193
    },
    {
      "elevation": 90,
      "mindate": "1901-01-01",
      "maxdate": "2022-12-31",
      "latitude": -31.5535,
      "name": "MULYUNGARIE, AS",
      "datacoverage": 0.7412,
      "id": "GHCND:ASN00020016",
      "elevationUnit": "METERS",
      "longitude": 140.7913
    },
    {
      "elevation": 210,
      "mindate": "1750-03-12",
      "maxdate": "2024-12-31",
      "latitude": -32.4467,
      "name": "MUTOOROO, AS",
      "datacoverage": 0.936,
      "id": "GHCND:ASN00020017",
      "elevationUnit": "METERS",
      "longitude": 140.9233
    },
    {
      "elevation": 90,
      "mindate": "1906-01-01",
      "maxdate": "1976-04-30",
      "latitude": -33.05,
      "name": "OAKBANK HOMESTEAD, AS",
      "datacoverage": 0.788,
      "id": "GHCND:ASN00020018",
      "elevationUnit": "METERS",
      "longitude": 140.5833
    },
    {
      "elevation": 284,
      "mindate": "1928-01-01",
      "maxdate": "2000-09-30",
      "latitude": -32.2828,
      "name": "OLARY, AS",
      "datacoverage": 0.8774,
      "id": "GHCND:ASN00020019",
      "elevationUnit": "METERS",
      "longitude": 140.3255
    },
    {
      "elevation": 275,
      "mindate": "1750-05-01",
      "maxdate": "2025-02-07",
      "latitude": -32.6416,
      "name": "YUNTA PANARAMITEE, AS",
      "datacoverage": 0.9526,
      "id": "GHCND:ASN00020020",
      "elevationUnit": "METERS",
      "longitude": 139.6496
    },
    {
      "elevation": 295,
      "mindate": "1882-01-01",
      "maxdate": "2018-01-31",
      "latitude": -32.7268,
      "name": "YUNTA PARATOO, AS",
      "datacoverage": 0.9217,
      "id": "GHCND:ASN00020021",
      "elevationUnit": "METERS",
      "longitude": 139.4002
    },
    {
      "elevation": 110,
      "mindate": "1750-05-01",
      "maxdate": "2025-02-05",
      "latitude": -33.2458,
      "name": "STURT VALE, AS",
      "datacoverage": 0.5767,
      "id": "GHCND:ASN00020022",
      "elevationUnit": "METERS",
      "longitude": 140.0345
    },
    {
      "elevation": 330,
      "mindate": "1889-08-01",
      "maxdate": "1963-08-31",
      "latitude": -32.3,
      "name": "WAUKARINGA, AS",
      "datacoverage": 0.892,
      "id": "GHCND:ASN00020023",
      "elevationUnit": "METERS",
      "longitude": 139.45
    },
    {
      "elevation": 400,
      "mindate": "1891-01-01",
      "maxdate": "2019-01-31",
      "latitude": -32.4727,
      "name": "YUNTA WINNININNIE, AS",
      "datacoverage": 0.9725,
      "id": "GHCND:ASN00020024",
      "elevationUnit": "METERS",
      "longitude": 139.7097
    },
    {
      "elevation": 135,
      "mindate": "1750-05-19",
      "maxdate": "2025-01-31",
      "latitude": -33.5009,
      "name": "WOOLGANGI, AS",
      "datacoverage": 0.9713,
      "id": "GHCND:ASN00020025",
      "elevationUnit": "METERS",
      "longitude": 139.5154
    },
    {
      "elevation": 303,
      "mindate": "1888-10-01",
      "maxdate": "1996-11-18",
      "latitude": -32.5819,
      "name": "YUNTA, AS",
      "datacoverage": 0.9891,
      "id": "GHCND:ASN00020026",
      "elevationUnit": "METERS",
      "longitude": 139.5611
    },
    {
      "elevation": 80,
      "mindate": "1925-02-01",
      "maxdate": "1943-12-31",
      "latitude": -31.3833,
      "name": "CHILDS, AS",
      "datacoverage": 0.6125,
      "id": "GHCND:ASN00020027",
      "elevationUnit": "METERS",
      "longitude": 140.7
    },
    {
      "elevation": 55,
      "mindate": "1999-04-01",
      "maxdate": "2025-02-27",
      "latitude": -33.7622,
      "name": "GLUEPOT RESERVE GLUEPOT, AS",
      "datacoverage": 1,
      "id": "GHCND:ASN00020028",
      "elevationUnit": "METERS",
      "longitude": 140.1251
    },
    {
      "elevation": 350,
      "mindate": "1868-12-01",
      "maxdate": "1926-08-31",
      "latitude": -32.2167,
      "name": "OUTALPA, AS",
      "datacoverage": 0.8566,
      "id": "GHCND:ASN00020029",
      "elevationUnit": "METERS",
      "longitude": 140.15
    },
    {
      "elevation": 102,
      "mindate": "2004-08-01",
      "maxdate": "2019-05-10",
      "latitude": -33.3119,
      "name": "PINE VALLEY, AS",
      "datacoverage": 0.3611,
      "id": "GHCND:ASN00020030",
      "elevationUnit": "METERS",
      "longitude": 140.1856
    },
    {
      "elevation": 270,
      "mindate": "1951-01-01",
      "maxdate": "1961-12-31",
      "latitude": -32.3333,
      "name": "RADIUM HILL, AS",
      "datacoverage": 0.9999,
      "id": "GHCND:ASN00020031",
      "elevationUnit": "METERS",
      "longitude": 140.6
    },
    {
      "elevation": 73,
      "mindate": "1909-01-01",
      "maxdate": "1984-11-30",
      "latitude": -33.5833,
      "name": "CANEGRASS, AS",
      "datacoverage": 0.9369,
      "id": "GHCND:ASN00020032",
      "elevationUnit": "METERS",
      "longitude": 140.0167
    },
    {
      "elevation": 70,
      "mindate": "1930-06-01",
      "maxdate": "1944-12-31",
      "latitude": -31.0667,
      "name": "CORONA, AS",
      "datacoverage": 0.7027,
      "id": "GHCND:ASN00020034",
      "elevationUnit": "METERS",
      "longitude": 140.95
    },
    {
      "elevation": 140,
      "mindate": "1910-02-01",
      "maxdate": "1915-11-30",
      "latitude": -33.1333,
      "name": "FARAWAY HILL, AS",
      "datacoverage": 0.4003,
      "id": "GHCND:ASN00020035",
      "elevationUnit": "METERS",
      "longitude": 139.7667
    },
    {
      "elevation": 105,
      "mindate": "1917-01-01",
      "maxdate": "1928-12-31",
      "latitude": -33.4167,
      "name": "BRAESIDE, AS",
      "datacoverage": 0.8194,
      "id": "GHCND:ASN00020036",
      "elevationUnit": "METERS",
      "longitude": 139.6833
    },
    {
      "elevation": 50,
      "mindate": "1930-06-01",
      "maxdate": "1944-12-31",
      "latitude": -31.1333,
      "name": "LAKE CHARLES, AS",
      "datacoverage": 0.6661,
      "id": "GHCND:ASN00020037",
      "elevationUnit": "METERS",
      "longitude": 140.7167
    },
    {
      "elevation": 90,
      "mindate": "1937-01-01",
      "maxdate": "1944-12-31",
      "latitude": -31.3806,
      "name": "MULYUNGARIE LOCKHART BORE, AS",
      "datacoverage": 0.6458,
      "id": "GHCND:ASN00020038",
      "elevationUnit": "METERS",
      "longitude": 140.9425
    },
    {
      "elevation": 420,
      "mindate": "1901-11-01",
      "maxdate": "1928-10-31",
      "latitude": -32.4833,
      "name": "OULNINA SIDING, AS",
      "datacoverage": 0.8858,
      "id": "GHCND:ASN00020039",
      "elevationUnit": "METERS",
      "longitude": 139.8167
    },
    {
      "elevation": 130,
      "mindate": "1926-01-01",
      "maxdate": "1943-12-31",
      "latitude": -31.8167,
      "name": "SECURITY, AS",
      "datacoverage": 0.6204,
      "id": "GHCND:ASN00020040",
      "elevationUnit": "METERS",
      "longitude": 140.9
    },
    {
      "elevation": 90,
      "mindate": "1925-02-01",
      "maxdate": "1944-12-31",
      "latitude": -31.4833,
      "name": "WALLACES, AS",
      "datacoverage": 0.6486,
      "id": "GHCND:ASN00020041",
      "elevationUnit": "METERS",
      "longitude": 140.9333
    },
    {
      "elevation": 70,
      "mindate": "1925-02-01",
      "maxdate": "1944-12-31",
      "latitude": -31.2,
      "name": "WATSONS WELL, AS",
      "datacoverage": 0.6402,
      "id": "GHCND:ASN00020042",
      "elevationUnit": "METERS",
      "longitude": 140.9
    },
    {
      "elevation": 180,
      "mindate": "1750-05-01",
      "maxdate": "2025-02-07",
      "latitude": -33.1873,
      "name": "BRAEMAR, AS",
      "datacoverage": 0.9838,
      "id": "GHCND:ASN00020043",
      "elevationUnit": "METERS",
      "longitude": 139.6209
    },
    {
      "elevation": 55,
      "mindate": "1967-01-01",
      "maxdate": "2010-02-28",
      "latitude": -33.4974,
      "name": "DANGGALI CONSERVATION PARK CA, AS",
      "datacoverage": 0.8881,
      "id": "GHCND:ASN00020044",
      "elevationUnit": "METERS",
      "longitude": 140.699
    },
    {
      "elevation": 42,
      "mindate": "1960-01-01",
      "maxdate": "2010-02-28",
      "latitude": -33.5628,
      "name": "DANGGALI CONSERVATION PARK HY, AS",
      "datacoverage": 0.9752,
      "id": "GHCND:ASN00020045",
      "elevationUnit": "METERS",
      "longitude": 140.9309
    },
    {
      "elevation": 240,
      "mindate": "1891-05-01",
      "maxdate": "1899-08-31",
      "latitude": -32.25,
      "name": "MUTOOROO MINE, AS",
      "datacoverage": 0.9993,
      "id": "GHCND:ASN00020046",
      "elevationUnit": "METERS",
      "longitude": 140.9333
    },
    {
      "elevation": 243.8,
      "mindate": "1875-08-01",
      "maxdate": "1889-06-30",
      "latitude": -32.7333,
      "name": "NETLEY, AS",
      "datacoverage": 0.9986,
      "id": "GHCND:ASN00020047",
      "elevationUnit": "METERS",
      "longitude": 139.8333
    },
    {
      "elevation": 340,
      "mindate": "1892-11-01",
      "maxdate": "2025-01-31",
      "latitude": -32.4932,
      "name": "MANNA HILL WADNAMINGA, AS",
      "datacoverage": 0.3214,
      "id": "GHCND:ASN00020048",
      "elevationUnit": "METERS",
      "longitude": 140.2299
    },
    {
      "elevation": 100,
      "mindate": "1932-02-01",
      "maxdate": "2024-12-31",
      "latitude": -31.6382,
      "name": "MOOLEULOOLOO, AS",
      "datacoverage": 0.9993,
      "id": "GHCND:ASN00020049",
      "elevationUnit": "METERS",
      "longitude": 140.513
    },
    {
      "elevation": 260,
      "mindate": "1970-12-01",
      "maxdate": "2022-03-31",
      "latitude": -32.062,
      "name": "PLUMBAGO, AS",
      "datacoverage": 0.9752,
      "id": "GHCND:ASN00020050",
      "elevationUnit": "METERS",
      "longitude": 139.8874
    },
    {
      "elevation": 200,
      "mindate": "1971-01-01",
      "maxdate": "2020-12-31",
      "latitude": -32.0575,
      "name": "MOUNT VICTOR MT VICTOR, AS",
      "datacoverage": 0.9393,
      "id": "GHCND:ASN00020052",
      "elevationUnit": "METERS",
      "longitude": 139.6187
    },
    {
      "elevation": 220,
      "mindate": "1750-07-20",
      "maxdate": "2025-01-31",
      "latitude": -32.1698,
      "name": "COCKBURN TEPCO, AS",
      "datacoverage": 1,
      "id": "GHCND:ASN00020053",
      "elevationUnit": "METERS",
      "longitude": 140.7959
    },
    {
      "elevation": 108,
      "mindate": "1978-10-01",
      "maxdate": "2025-02-07",
      "latitude": -33.0809,
      "name": "QUONDONG, AS",
      "datacoverage": 0.9124,
      "id": "GHCND:ASN00020054",
      "elevationUnit": "METERS",
      "longitude": 140.3299
    },
    {
      "elevation": 120,
      "mindate": "1750-04-01",
      "maxdate": "2025-02-08",
      "latitude": -31.7484,
      "name": "STRATHEARN, AS",
      "datacoverage": 0.9223,
      "id": "GHCND:ASN00020055",
      "elevationUnit": "METERS",
      "longitude": 140.3426
    },
    {
      "elevation": 450,
      "mindate": "1991-11-01",
      "maxdate": "1999-02-28",
      "latitude": -32.5409,
      "name": "MANNA HILL BENDA, AS",
      "datacoverage": 0.7732,
      "id": "GHCND:ASN00020057",
      "elevationUnit": "METERS",
      "longitude": 140.0344
    },
    {
      "elevation": 275,
      "mindate": "1994-08-01",
      "maxdate": "2022-08-31",
      "latitude": -32.2988,
      "name": "OLARY WIAWERA, AS",
      "datacoverage": 0.629,
      "id": "GHCND:ASN00020058",
      "elevationUnit": "METERS",
      "longitude": 140.4152
    },
    {
      "elevation": 105,
      "mindate": "1994-08-01",
      "maxdate": "2024-12-07",
      "latitude": -31.6619,
      "name": "YARRAMBA, AS",
      "datacoverage": 0.7252,
      "id": "GHCND:ASN00020059",
      "elevationUnit": "METERS",
      "longitude": 140.6289
    },
    {
      "elevation": 240,
      "mindate": "1994-08-01",
      "maxdate": "2001-05-31",
      "latitude": -32.222,
      "name": "COCKBURN TICKALINA, AS",
      "datacoverage": 0.378,
      "id": "GHCND:ASN00020060",
      "elevationUnit": "METERS",
      "longitude": 140.5913
    },
    {
      "elevation": 340,
      "mindate": "1997-01-01",
      "maxdate": "2019-01-31",
      "latitude": -32.5218,
      "name": "YUNTA TEETULPA, AS",
      "datacoverage": 0.8288,
      "id": "GHCND:ASN00020061",
      "elevationUnit": "METERS",
      "longitude": 139.5554
    },
    {
      "elevation": 300,
      "mindate": "1998-07-01",
      "maxdate": "2025-02-27",
      "latitude": -32.5707,
      "name": "YUNTA AIRSTRIP, AS",
      "datacoverage": 0.9998,
      "id": "GHCND:ASN00020062",
      "elevationUnit": "METERS",
      "longitude": 139.5645
    },
    {
      "elevation": 270,
      "mindate": "1878-01-01",
      "maxdate": "2013-12-10",
      "latitude": -33.7321,
      "name": "BRINKWORTH ANAMA PARK, AS",
      "datacoverage": 0.9742,
      "id": "GHCND:ASN00021000",
      "elevationUnit": "METERS",
      "longitude": 138.4922
    },
    {
      "elevation": 310,
      "mindate": "1750-05-09",
      "maxdate": "2024-12-31",
      "latitude": -34.026,
      "name": "AUBURN, AS",
      "datacoverage": 0.8732,
      "id": "GHCND:ASN00021001",
      "elevationUnit": "METERS",
      "longitude": 138.6846
    },
    {
      "elevation": 68,
      "mindate": "1750-05-09",
      "maxdate": "2024-12-31",
      "latitude": -34.1424,
      "name": "BALAKLAVA, AS",
      "datacoverage": 0.9864,
      "id": "GHCND:ASN00021002",
      "elevationUnit": "METERS",
      "longitude": 138.4225
    },
    {
      "elevation": 195,
      "mindate": "1750-04-18",
      "maxdate": "2024-12-09",
      "latitude": -33.845,
      "name": "BLYTH, AS",
      "datacoverage": 0.9735,
      "id": "GHCND:ASN00021003",
      "elevationUnit": "METERS",
      "longitude": 138.4901
    },
    {
      "elevation": 385,
      "mindate": "1925-01-01",
      "maxdate": "2023-08-18",
      "latitude": -33.5643,
      "name": "BOOBOROWIE, AS",
      "datacoverage": 0.9818,
      "id": "GHCND:ASN00021004",
      "elevationUnit": "METERS",
      "longitude": 138.7595
    },
    {
      "elevation": 358,
      "mindate": "1939-07-01",
      "maxdate": "1949-12-31",
      "latitude": -33.5744,
      "name": "BOOBOROWIE NORTH BUNGAREE, AS",
      "datacoverage": 0.8885,
      "id": "GHCND:ASN00021005",
      "elevationUnit": "METERS",
      "longitude": 138.6867
    },
    {
      "elevation": 215,
      "mindate": "1893-01-01",
      "maxdate": "1949-10-31",
      "latitude": -33.2667,
      "name": "GLADSTONE BOOYOOLEE, AS",
      "datacoverage": 1,
      "id": "GHCND:ASN00021006",
      "elevationUnit": "METERS",
      "longitude": 138.35
    },
    {
      "elevation": 181,
      "mindate": "1750-05-09",
      "maxdate": "2025-02-27",
      "latitude": -33.6947,
      "name": "BRINKWORTH, AS",
      "datacoverage": 0.9756,
      "id": "GHCND:ASN00021007",
      "elevationUnit": "METERS",
      "longitude": 138.4057
    },
    {
      "elevation": 458,
      "mindate": "1879-01-01",
      "maxdate": "1989-02-28",
      "latitude": -33.2758,
      "name": "BUNDALEER FOREST RESERVE, AS",
      "datacoverage": 0.9471,
      "id": "GHCND:ASN00021008",
      "elevationUnit": "METERS",
      "longitude": 138.575
    },
    {
      "elevation": 302,
      "mindate": "1899-04-01",
      "maxdate": "2019-05-31",
      "latitude": -33.466,
      "name": "SPALDING BUNDALEER RESERVOIR, AS",
      "datacoverage": 0.9936,
      "id": "GHCND:ASN00021009",
      "elevationUnit": "METERS",
      "longitude": 138.5412
    },
    {
      "elevation": 368,
      "mindate": "1750-03-21",
      "maxdate": "2025-02-04",
      "latitude": -33.7459,
      "name": "BRINKWORTH BUNGAREE, AS",
      "datacoverage": 0.9426,
      "id": "GHCND:ASN00021010",
      "elevationUnit": "METERS",
      "longitude": 138.5628
    }
  ]
}
