{
  "metadata": {
    "resultset": {
      "offset": 37700,
      "count": 154115,
      "limit": 100
    }
  },
  "results": [
    {
      "elevation": 247.2,
      "mindate": "2003-02-01",
      "maxdate": "2025-02-27",
      "latitude": -37.1225,
      "name": "MOLLISONS CK AT PYALONG, AS",
      "datacoverage": 0.9364,
      "id": "GHCND:ASN00088064",
      "elevationUnit": "METERS",
      "longitude": 144.8561
    },
    {
      "elevation": 274.3,
      "mindate": "1890-01-01",
      "maxdate": "1954-02-28",
      "latitude": -37.2,
      "name": "YANDOIT SPRING VALE, AS",
      "datacoverage": 0.9456,
      "id": "GHCND:ASN00088065",
      "elevationUnit": "METERS",
      "longitude": 144.1
    },
    {
      "elevation": 272,
      "mindate": "1901-02-01",
      "maxdate": "2014-12-31",
      "latitude": -37.2072,
      "name": "YANDOIT, AS",
      "datacoverage": 0.8625,
      "id": "GHCND:ASN00088066",
      "elevationUnit": "METERS",
      "longitude": 144.0967
    },
    {
      "elevation": 193,
      "mindate": "1750-03-14",
      "maxdate": "2025-02-23",
      "latitude": -37.2177,
      "name": "YEA, AS",
      "datacoverage": 0.9988,
      "id": "GHCND:ASN00088067",
      "elevationUnit": "METERS",
      "longitude": 145.4211
    },
    {
      "elevation": 838.2,
      "mindate": "1943-10-01",
      "maxdate": "1993-05-31",
      "latitude": -37.3389,
      "name": "RUBICON SEC, AS",
      "datacoverage": 1,
      "id": "GHCND:ASN00088068",
      "elevationUnit": "METERS",
      "longitude": 145.8547
    },
    {
      "elevation": 400,
      "mindate": "1948-06-01",
      "maxdate": "1985-04-30",
      "latitude": -37.5144,
      "name": "CASTELLA WEEAMARA, AS",
      "datacoverage": 0.5757,
      "id": "GHCND:ASN00088069",
      "elevationUnit": "METERS",
      "longitude": 145.4108
    },
    {
      "mindate": "1953-10-01",
      "maxdate": "1968-12-31",
      "latitude": -37.3,
      "name": "FLOWERDALE THE WILLOWS, AS",
      "datacoverage": 0.9993,
      "id": "GHCND:ASN00088070",
      "longitude": 145.25
    },
    {
      "elevation": 790,
      "mindate": "2001-07-01",
      "maxdate": "2025-02-27",
      "latitude": -37.4181,
      "name": "BULLARTO SOUTH, AS",
      "datacoverage": 0.9773,
      "id": "GHCND:ASN00088071",
      "elevationUnit": "METERS",
      "longitude": 144.2133
    },
    {
      "elevation": 685.8,
      "mindate": "1940-02-01",
      "maxdate": "1969-10-31",
      "latitude": -37.3667,
      "name": "MUSK, AS",
      "datacoverage": 0.9993,
      "id": "GHCND:ASN00088072",
      "elevationUnit": "METERS",
      "longitude": 144.1833
    },
    {
      "elevation": 463,
      "mindate": "1953-03-01",
      "maxdate": "2021-05-31",
      "latitude": -37.1277,
      "name": "BAYNTON, AS",
      "datacoverage": 0.9761,
      "id": "GHCND:ASN00088073",
      "elevationUnit": "METERS",
      "longitude": 144.6924
    },
    {
      "mindate": "1930-01-01",
      "maxdate": "1964-04-30",
      "latitude": -37.05,
      "name": "KANUMBRA, AS",
      "datacoverage": 0.9994,
      "id": "GHCND:ASN00088074",
      "longitude": 145.6667
    },
    {
      "mindate": "1953-01-01",
      "maxdate": "1975-11-30",
      "latitude": -37.1,
      "name": "CAMPBELLS CREEK, AS",
      "datacoverage": 1,
      "id": "GHCND:ASN00088075",
      "longitude": 144.2167
    },
    {
      "mindate": "1954-04-01",
      "maxdate": "1960-04-30",
      "latitude": -37.25,
      "name": "PIPERS CREEK, AS",
      "datacoverage": 1,
      "id": "GHCND:ASN00088076",
      "longitude": 144.5667
    },
    {
      "mindate": "1906-08-01",
      "maxdate": "1916-08-31",
      "latitude": -37.1833,
      "name": "FLOWERDALE 1, AS",
      "datacoverage": 0.9993,
      "id": "GHCND:ASN00088077",
      "longitude": 145.1667
    },
    {
      "mindate": "1926-01-01",
      "maxdate": "1933-10-31",
      "latitude": -37,
      "name": "SEYMOUR AIRLIE, AS",
      "datacoverage": 0.9043,
      "id": "GHCND:ASN00088079",
      "longitude": 145.1
    },
    {
      "mindate": "1901-11-01",
      "maxdate": "1931-10-31",
      "latitude": -37.4,
      "name": "ALLENDALE POST OFFICE, AS",
      "datacoverage": 1,
      "id": "GHCND:ASN00088080",
      "longitude": 143.9
    },
    {
      "elevation": 431.6,
      "mindate": "1905-10-01",
      "maxdate": "1925-03-31",
      "latitude": -37.1167,
      "name": "BAYNTON MONTVIEW, AS",
      "datacoverage": 1,
      "id": "GHCND:ASN00088081",
      "elevationUnit": "METERS",
      "longitude": 144.6
    },
    {
      "elevation": 204.2,
      "mindate": "1908-03-01",
      "maxdate": "1930-06-30",
      "latitude": -37.1833,
      "name": "BROADFORD GLENBURNIE STATION, AS",
      "datacoverage": 1,
      "id": "GHCND:ASN00088082",
      "elevationUnit": "METERS",
      "longitude": 145.0667
    },
    {
      "mindate": "1880-07-01",
      "maxdate": "1916-08-31",
      "latitude": -37.4,
      "name": "BUXTON, AS",
      "datacoverage": 0.5599,
      "id": "GHCND:ASN00088083",
      "longitude": 145.7
    },
    {
      "mindate": "1912-03-01",
      "maxdate": "1945-12-31",
      "latitude": -37.3,
      "name": "KILMORE BYLANDS, AS",
      "datacoverage": 0.9993,
      "id": "GHCND:ASN00088084",
      "longitude": 145
    },
    {
      "elevation": 278.3,
      "mindate": "1877-01-01",
      "maxdate": "1916-07-31",
      "latitude": -37.0667,
      "name": "CASTLEMAINE, AS",
      "datacoverage": 0.9475,
      "id": "GHCND:ASN00088085",
      "elevationUnit": "METERS",
      "longitude": 144.2333
    },
    {
      "elevation": 636.4,
      "mindate": "1903-02-01",
      "maxdate": "1921-05-31",
      "latitude": -37.35,
      "name": "DAYLESFORD WOMBAT HILL GROUND, AS",
      "datacoverage": 0.932,
      "id": "GHCND:ASN00088086",
      "elevationUnit": "METERS",
      "longitude": 144.15
    },
    {
      "mindate": "1904-04-01",
      "maxdate": "1926-11-30",
      "latitude": -37.3,
      "name": "MOUNT FRANKLIN DRY DIGGING, AS",
      "datacoverage": 0.5074,
      "id": "GHCND:ASN00088087",
      "longitude": 144.15
    },
    {
      "elevation": 548,
      "mindate": "1903-01-01",
      "maxdate": "1976-01-31",
      "latitude": -37.3,
      "name": "GLENLYON, AS",
      "datacoverage": 0.5872,
      "id": "GHCND:ASN00088088",
      "elevationUnit": "METERS",
      "longitude": 144.25
    },
    {
      "elevation": 152.4,
      "mindate": "1891-05-01",
      "maxdate": "1926-12-31",
      "latitude": -36.8667,
      "name": "GRAYTON, AS",
      "datacoverage": 0.8714,
      "id": "GHCND:ASN00088089",
      "elevationUnit": "METERS",
      "longitude": 144.9
    },
    {
      "mindate": "1938-01-01",
      "maxdate": "1942-12-31",
      "latitude": -37.2,
      "name": "GUILDFORD LIMESTONE PARK, AS",
      "datacoverage": 1,
      "id": "GHCND:ASN00088090",
      "longitude": 144.1
    },
    {
      "elevation": 559,
      "mindate": "1946-01-01",
      "maxdate": "1950-12-31",
      "latitude": -37.35,
      "name": "HANGING ROCK, AS",
      "datacoverage": 1,
      "id": "GHCND:ASN00088091",
      "elevationUnit": "METERS",
      "longitude": 144.5167
    },
    {
      "mindate": "1892-01-01",
      "maxdate": "1921-06-30",
      "latitude": -37.05,
      "name": "KANUMBRA MERTON, AS",
      "datacoverage": 0.9719,
      "id": "GHCND:ASN00088092",
      "longitude": 145.7
    },
    {
      "mindate": "1904-01-01",
      "maxdate": "1934-10-31",
      "latitude": -37.15,
      "name": "KERRISDALE TERANGAVILLE STATI, AS",
      "datacoverage": 0.6662,
      "id": "GHCND:ASN00088093",
      "longitude": 145.3
    },
    {
      "mindate": "1906-01-01",
      "maxdate": "1940-07-31",
      "latitude": -37.15,
      "name": "LANGLEY, AS",
      "datacoverage": 0.9424,
      "id": "GHCND:ASN00088094",
      "longitude": 144.5
    },
    {
      "mindate": "1908-01-01",
      "maxdate": "1923-11-30",
      "latitude": -37.2,
      "name": "MAINTONGOON, AS",
      "datacoverage": 1,
      "id": "GHCND:ASN00088095",
      "longitude": 145.9
    },
    {
      "mindate": "1878-04-01",
      "maxdate": "1935-01-31",
      "latitude": -37.1,
      "name": "METCALFE, AS",
      "datacoverage": 0.846,
      "id": "GHCND:ASN00088096",
      "longitude": 144.4
    },
    {
      "mindate": "1905-07-01",
      "maxdate": "1923-05-31",
      "latitude": -37,
      "name": "MIA MIA, AS",
      "datacoverage": 0.8884,
      "id": "GHCND:ASN00088097",
      "longitude": 144.6
    },
    {
      "mindate": "1905-12-01",
      "maxdate": "1917-03-31",
      "latitude": -37.0833,
      "name": "MIA MIA SPRING PLAINS, AS",
      "datacoverage": 0.9707,
      "id": "GHCND:ASN00088098",
      "longitude": 144.5833
    },
    {
      "elevation": 170.7,
      "mindate": "1905-08-01",
      "maxdate": "1947-06-30",
      "latitude": -37.2,
      "name": "MOLESWORTH WHANREGARWAN, AS",
      "datacoverage": 0.5567,
      "id": "GHCND:ASN00088099",
      "elevationUnit": "METERS",
      "longitude": 145.6
    },
    {
      "mindate": "1888-07-01",
      "maxdate": "1905-07-31",
      "latitude": -37.3,
      "name": "MOUNT MITCHELL, AS",
      "datacoverage": 0.9904,
      "id": "GHCND:ASN00088100",
      "longitude": 143.6
    },
    {
      "elevation": 535.8,
      "mindate": "1878-01-01",
      "maxdate": "1938-02-28",
      "latitude": -37.4,
      "name": "NEWLYN RESERVOIR, AS",
      "datacoverage": 0.9932,
      "id": "GHCND:ASN00088101",
      "elevationUnit": "METERS",
      "longitude": 144
    },
    {
      "mindate": "1902-09-01",
      "maxdate": "1923-01-31",
      "latitude": -37.2,
      "name": "REEDY CREEK, AS",
      "datacoverage": 0.8856,
      "id": "GHCND:ASN00088102",
      "longitude": 145.1
    },
    {
      "elevation": 400,
      "mindate": "2001-09-01",
      "maxdate": "2025-02-27",
      "latitude": -37.4958,
      "name": "MARYSVILLE GOLF COURSE, AS",
      "datacoverage": 0.8623,
      "id": "GHCND:ASN00088103",
      "elevationUnit": "METERS",
      "longitude": 145.7475
    },
    {
      "mindate": "1883-02-01",
      "maxdate": "1920-07-31",
      "latitude": -37.2,
      "name": "TALBOT, AS",
      "datacoverage": 1,
      "id": "GHCND:ASN00088104",
      "longitude": 143.7
    },
    {
      "mindate": "1903-11-01",
      "maxdate": "1925-09-30",
      "latitude": -37.0167,
      "name": "TARADALE, AS",
      "datacoverage": 0.924,
      "id": "GHCND:ASN00088105",
      "longitude": 144.0667
    },
    {
      "mindate": "1914-04-01",
      "maxdate": "1926-03-31",
      "latitude": -37,
      "name": "TARRANGOWER, AS",
      "datacoverage": 0.9931,
      "id": "GHCND:ASN00088106",
      "longitude": 144
    },
    {
      "elevation": 365,
      "mindate": "2002-06-01",
      "maxdate": "2019-04-30",
      "latitude": -37.294,
      "name": "KILMORE RACECOURSE, AS",
      "datacoverage": 0.9799,
      "id": "GHCND:ASN00088107",
      "elevationUnit": "METERS",
      "longitude": 144.9604
    },
    {
      "elevation": 277,
      "mindate": "1750-03-14",
      "maxdate": "2025-02-16",
      "latitude": -37.1566,
      "name": "VAUGHAN, AS",
      "datacoverage": 0.9927,
      "id": "GHCND:ASN00088108",
      "elevationUnit": "METERS",
      "longitude": 144.2079
    },
    {
      "elevation": 140.8,
      "mindate": "1750-03-09",
      "maxdate": "2025-02-27",
      "latitude": -36.8886,
      "name": "MANGALORE AIRPORT, AS",
      "datacoverage": 0.9621,
      "id": "GHCND:ASN00088109",
      "elevationUnit": "METERS",
      "longitude": 145.1859
    },
    {
      "elevation": 330,
      "mindate": "1750-03-10",
      "maxdate": "2025-02-25",
      "latitude": -37.0809,
      "name": "CASTLEMAINE PRISON, AS",
      "datacoverage": 1,
      "id": "GHCND:ASN00088110",
      "elevationUnit": "METERS",
      "longitude": 144.2392
    },
    {
      "elevation": 472.4,
      "mindate": "1966-07-01",
      "maxdate": "1969-06-30",
      "latitude": -37.2,
      "name": "MALMSBURY, AS",
      "datacoverage": 0.9998,
      "id": "GHCND:ASN00088111",
      "elevationUnit": "METERS",
      "longitude": 144.4
    },
    {
      "elevation": 330.7,
      "mindate": "1902-07-01",
      "maxdate": "1990-09-30",
      "latitude": -36.9833,
      "name": "MERTON WEIR FARM, AS",
      "datacoverage": 0.813,
      "id": "GHCND:ASN00088112",
      "elevationUnit": "METERS",
      "longitude": 145.7167
    },
    {
      "elevation": 515,
      "mindate": "1750-03-14",
      "maxdate": "2024-12-31",
      "latitude": -37.3387,
      "name": "SMEATON BLAMPIED BARDIA, AS",
      "datacoverage": 0.9701,
      "id": "GHCND:ASN00088113",
      "elevationUnit": "METERS",
      "longitude": 143.9861
    },
    {
      "elevation": 419,
      "mindate": "1916-03-01",
      "maxdate": "1988-07-31",
      "latitude": -37.245,
      "name": "WERONA FAIRVIEW, AS",
      "datacoverage": 0.8818,
      "id": "GHCND:ASN00088114",
      "elevationUnit": "METERS",
      "longitude": 144.025
    },
    {
      "elevation": 686,
      "mindate": "1968-03-01",
      "maxdate": "1978-10-31",
      "latitude": -37.4,
      "name": "TRENTHAM EAST, AS",
      "datacoverage": 0.9993,
      "id": "GHCND:ASN00088115",
      "elevationUnit": "METERS",
      "longitude": 144.4
    },
    {
      "elevation": 548.6,
      "mindate": "1969-01-01",
      "maxdate": "1971-01-31",
      "latitude": -37.4167,
      "name": "SPRINGMOUNT BRAESIDE, AS",
      "datacoverage": 1,
      "id": "GHCND:ASN00088116",
      "elevationUnit": "METERS",
      "longitude": 143.9667
    },
    {
      "elevation": 578,
      "mindate": "1969-01-01",
      "maxdate": "2015-06-30",
      "latitude": -37.2034,
      "name": "BENLOCH, AS",
      "datacoverage": 0.9248,
      "id": "GHCND:ASN00088117",
      "elevationUnit": "METERS",
      "longitude": 144.7143
    },
    {
      "elevation": 335,
      "mindate": "1968-12-01",
      "maxdate": "2016-11-30",
      "latitude": -36.9996,
      "name": "HARCOURT, AS",
      "datacoverage": 0.9983,
      "id": "GHCND:ASN00088118",
      "elevationUnit": "METERS",
      "longitude": 144.2616
    },
    {
      "mindate": "1974-03-01",
      "maxdate": "2025-02-27",
      "latitude": -37.3167,
      "name": "ACHERON RIVER TAGGERTY, AS",
      "datacoverage": 0.538,
      "id": "GHCND:ASN00088119",
      "longitude": 145.7167
    },
    {
      "elevation": 293,
      "mindate": "1968-11-01",
      "maxdate": "2010-04-30",
      "latitude": -37.0219,
      "name": "KANUMBRA BRILLIANT ESTATE, AS",
      "datacoverage": 0.9981,
      "id": "GHCND:ASN00088120",
      "elevationUnit": "METERS",
      "longitude": 145.6547
    },
    {
      "elevation": 250,
      "mindate": "1750-03-14",
      "maxdate": "2025-02-17",
      "latitude": -37.1425,
      "name": "HIGH CAMP LANNERMOOR, AS",
      "datacoverage": 1,
      "id": "GHCND:ASN00088121",
      "elevationUnit": "METERS",
      "longitude": 144.9264
    },
    {
      "elevation": 256,
      "mindate": "1969-04-01",
      "maxdate": "1973-02-28",
      "latitude": -37.3333,
      "name": "FLOWERDALE KINLOCHIEL, AS",
      "datacoverage": 1,
      "id": "GHCND:ASN00088122",
      "elevationUnit": "METERS",
      "longitude": 145.2833
    },
    {
      "elevation": 526,
      "mindate": "1750-03-14",
      "maxdate": "2025-02-03",
      "latitude": -37.25,
      "name": "KYNETON, AS",
      "datacoverage": 0.9981,
      "id": "GHCND:ASN00088123",
      "elevationUnit": "METERS",
      "longitude": 144.4378
    },
    {
      "elevation": 131.1,
      "mindate": "1750-03-14",
      "maxdate": "2025-02-17",
      "latitude": -36.8253,
      "name": "TABILK TAHBILK WINERY, AS",
      "datacoverage": 0.9744,
      "id": "GHCND:ASN00088124",
      "elevationUnit": "METERS",
      "longitude": 145.0865
    },
    {
      "elevation": 220,
      "mindate": "2000-12-01",
      "maxdate": "2008-10-03",
      "latitude": -37.3827,
      "name": "YEA RIVER DEVLINS BRIDGE, AS",
      "datacoverage": 0.9998,
      "id": "GHCND:ASN00088125",
      "elevationUnit": "METERS",
      "longitude": 145.4731
    },
    {
      "elevation": 140,
      "mindate": "2001-10-01",
      "maxdate": "2025-02-27",
      "latitude": -37.0213,
      "name": "GOULBURN RIVER SEYMOUR, AS",
      "datacoverage": 0.8894,
      "id": "GHCND:ASN00088126",
      "elevationUnit": "METERS",
      "longitude": 145.1091
    },
    {
      "mindate": "1930-01-01",
      "maxdate": "1932-10-31",
      "latitude": -37.25,
      "name": "THORNTON, AS",
      "datacoverage": 1,
      "id": "GHCND:ASN00088127",
      "longitude": 145.8
    },
    {
      "mindate": "1928-01-01",
      "maxdate": "1931-04-30",
      "latitude": -37.2667,
      "name": "COBAW HAZEL FARM, AS",
      "datacoverage": 1,
      "id": "GHCND:ASN00088128",
      "longitude": 144.6333
    },
    {
      "elevation": 189,
      "mindate": "1970-01-01",
      "maxdate": "1975-09-30",
      "latitude": -37.1333,
      "name": "CATHKIN MOUNT EDGAR, AS",
      "datacoverage": 0.9716,
      "id": "GHCND:ASN00088129",
      "elevationUnit": "METERS",
      "longitude": 145.5833
    },
    {
      "elevation": 265,
      "mindate": "1970-01-01",
      "maxdate": "2022-10-31",
      "latitude": -37.4234,
      "name": "BUXTON, AS",
      "datacoverage": 1,
      "id": "GHCND:ASN00088130",
      "elevationUnit": "METERS",
      "longitude": 145.7085
    },
    {
      "elevation": 345,
      "mindate": "1939-01-01",
      "maxdate": "2010-01-31",
      "latitude": -37.4998,
      "name": "NARBETHONG, AS",
      "datacoverage": 0.8539,
      "id": "GHCND:ASN00088131",
      "elevationUnit": "METERS",
      "longitude": 145.6793
    },
    {
      "elevation": 229,
      "mindate": "1972-04-01",
      "maxdate": "2013-07-31",
      "latitude": -36.9353,
      "name": "BARINGHUP BLUE HILLS, AS",
      "datacoverage": 0.998,
      "id": "GHCND:ASN00088132",
      "elevationUnit": "METERS",
      "longitude": 144.0115
    },
    {
      "elevation": 768.1,
      "mindate": "1971-06-01",
      "maxdate": "1974-08-31",
      "latitude": -37.4167,
      "name": "NEWBURY, AS",
      "datacoverage": 0.9992,
      "id": "GHCND:ASN00088133",
      "elevationUnit": "METERS",
      "longitude": 144.2833
    },
    {
      "mindate": "1947-09-01",
      "maxdate": "1948-08-31",
      "latitude": -37.5833,
      "name": "TAGGERTY THENDARA, AS",
      "datacoverage": 1,
      "id": "GHCND:ASN00088134",
      "longitude": 145.7
    },
    {
      "elevation": 746.7,
      "mindate": "1972-12-01",
      "maxdate": "2002-09-30",
      "latitude": -37.4306,
      "name": "LERDERDERG NEWBURY, AS",
      "datacoverage": 0.9993,
      "id": "GHCND:ASN00088135",
      "elevationUnit": "METERS",
      "longitude": 144.2719
    },
    {
      "elevation": 701,
      "mindate": "1972-12-01",
      "maxdate": "1975-06-30",
      "latitude": -37.4333,
      "name": "LERDERDERG PROCTOR, AS",
      "datacoverage": 0.9693,
      "id": "GHCND:ASN00088136",
      "elevationUnit": "METERS",
      "longitude": 144.5333
    },
    {
      "elevation": 263,
      "mindate": "2002-09-01",
      "maxdate": "2025-01-31",
      "latitude": -37.1644,
      "name": "LILLICUR, AS",
      "datacoverage": 1,
      "id": "GHCND:ASN00088137",
      "elevationUnit": "METERS",
      "longitude": 143.5532
    },
    {
      "elevation": 307,
      "mindate": "2002-03-01",
      "maxdate": "2025-01-31",
      "latitude": -37.2348,
      "name": "BROADFORD KILMORE NORTH, AS",
      "datacoverage": 0.9999,
      "id": "GHCND:ASN00088138",
      "elevationUnit": "METERS",
      "longitude": 144.9962
    },
    {
      "elevation": 777.2,
      "mindate": "1973-01-01",
      "maxdate": "1973-04-30",
      "latitude": -37.4,
      "name": "LERDERDERG TURVEY, AS",
      "datacoverage": 1,
      "id": "GHCND:ASN00088141",
      "elevationUnit": "METERS",
      "longitude": 144.2167
    },
    {
      "mindate": "1884-11-01",
      "maxdate": "1888-07-31",
      "latitude": -37.2,
      "name": "HOMEWOOD, AS",
      "datacoverage": 1,
      "id": "GHCND:ASN00088142",
      "longitude": 145.3333
    },
    {
      "mindate": "1894-01-01",
      "maxdate": "1904-06-30",
      "latitude": -37.2,
      "name": "GLENBURNIE, AS",
      "datacoverage": 0.9997,
      "id": "GHCND:ASN00088143",
      "longitude": 145.0833
    },
    {
      "mindate": "1898-05-01",
      "maxdate": "1908-08-31",
      "latitude": -37.5333,
      "name": "TOOLANGI, AS",
      "datacoverage": 1,
      "id": "GHCND:ASN00088144",
      "longitude": 145.4667
    },
    {
      "mindate": "1889-04-01",
      "maxdate": "1908-05-31",
      "latitude": -37.2833,
      "name": "CLUNES BECKWORTH COURT, AS",
      "datacoverage": 0.8827,
      "id": "GHCND:ASN00088145",
      "longitude": 143.6833
    },
    {
      "elevation": 254.8,
      "mindate": "1867-04-01",
      "maxdate": "1868-05-31",
      "latitude": -37.15,
      "name": "AMHERST, AS",
      "datacoverage": 1,
      "id": "GHCND:ASN00088146",
      "elevationUnit": "METERS",
      "longitude": 143.6833
    },
    {
      "elevation": 746.8,
      "mindate": "1968-08-01",
      "maxdate": "1973-12-31",
      "latitude": -37.4167,
      "name": "BULLARTO SOUTH POST OFFICE, AS",
      "datacoverage": 1,
      "id": "GHCND:ASN00088147",
      "elevationUnit": "METERS",
      "longitude": 144.2167
    },
    {
      "elevation": 396,
      "mindate": "1973-11-01",
      "maxdate": "1975-04-30",
      "latitude": -37.0667,
      "name": "SPRING CREEK BASIN ONE, AS",
      "datacoverage": 1,
      "id": "GHCND:ASN00088148",
      "elevationUnit": "METERS",
      "longitude": 145.75
    },
    {
      "elevation": 283.4,
      "mindate": "1973-12-01",
      "maxdate": "1998-10-15",
      "latitude": -37.1183,
      "name": "SPRING CREEK BASIN THREE, AS",
      "datacoverage": 1,
      "id": "GHCND:ASN00088149",
      "elevationUnit": "METERS",
      "longitude": 145.6967
    },
    {
      "elevation": 253,
      "mindate": "1974-01-01",
      "maxdate": "1978-07-31",
      "latitude": -37.1333,
      "name": "SPRING CREEK BASIN FOUR, AS",
      "datacoverage": 1,
      "id": "GHCND:ASN00088150",
      "elevationUnit": "METERS",
      "longitude": 145.6833
    },
    {
      "elevation": 229,
      "mindate": "1959-01-01",
      "maxdate": "1976-10-31",
      "latitude": -37,
      "name": "MALDON SPRING PARK, AS",
      "datacoverage": 0.9992,
      "id": "GHCND:ASN00088151",
      "elevationUnit": "METERS",
      "longitude": 144
    },
    {
      "elevation": 360,
      "mindate": "1973-12-01",
      "maxdate": "2009-04-30",
      "latitude": -37.0748,
      "name": "SPRING CREEK BASIN TWO, AS",
      "datacoverage": 0.9812,
      "id": "GHCND:ASN00088153",
      "elevationUnit": "METERS",
      "longitude": 145.722
    },
    {
      "mindate": "1979-04-01",
      "maxdate": "1982-05-31",
      "latitude": -37.1167,
      "name": "ALEXANDRA MAINTONGOON, AS",
      "datacoverage": 1,
      "id": "GHCND:ASN00088156",
      "longitude": 145.8167
    },
    {
      "elevation": 248,
      "mindate": "1982-11-01",
      "maxdate": "2020-08-09",
      "latitude": -37.2714,
      "name": "STRATH CREEK, AS",
      "datacoverage": 1,
      "id": "GHCND:ASN00088158",
      "elevationUnit": "METERS",
      "longitude": 145.2831
    },
    {
      "elevation": 200,
      "mindate": "1988-05-01",
      "maxdate": "2005-08-31",
      "latitude": -36.9861,
      "name": "PUCKAPUNYAL RANGE CONTROL, AS",
      "datacoverage": 0.2115,
      "id": "GHCND:ASN00088159",
      "elevationUnit": "METERS",
      "longitude": 145.0381
    },
    {
      "elevation": 223,
      "mindate": "1987-01-01",
      "maxdate": "2016-06-30",
      "latitude": -37.1251,
      "name": "MAJORCA, AS",
      "datacoverage": 0.9971,
      "id": "GHCND:ASN00088160",
      "elevationUnit": "METERS",
      "longitude": 143.7861
    },
    {
      "elevation": 527.8,
      "mindate": "1993-12-01",
      "maxdate": "2025-02-27",
      "latitude": -37.3807,
      "name": "WALLAN KILMORE GAP, AS",
      "datacoverage": 1,
      "id": "GHCND:ASN00088162",
      "elevationUnit": "METERS",
      "longitude": 144.9654
    },
    {
      "elevation": 332,
      "mindate": "1992-01-01",
      "maxdate": "2012-12-31",
      "latitude": -37.2581,
      "name": "ALEXANDRA CRYSTAL CREEK, AS",
      "datacoverage": 0.8176,
      "id": "GHCND:ASN00088163",
      "elevationUnit": "METERS",
      "longitude": 145.62
    },
    {
      "elevation": 637,
      "mindate": "1996-07-01",
      "maxdate": "2025-02-27",
      "latitude": -37.2091,
      "name": "EILDON FIRE TOWER, AS",
      "datacoverage": 1,
      "id": "GHCND:ASN00088164",
      "elevationUnit": "METERS",
      "longitude": 145.8423
    },
    {
      "elevation": 332.2,
      "mindate": "1863-01-01",
      "maxdate": "1969-04-30",
      "latitude": -37.2833,
      "name": "ARARAT POST OFFICE, AS",
      "datacoverage": 0.9193,
      "id": "GHCND:ASN00089000",
      "elevationUnit": "METERS",
      "longitude": 142.95
    },
    {
      "elevation": 456,
      "mindate": "1881-11-01",
      "maxdate": "1995-11-30",
      "latitude": -37.5489,
      "name": "BALLARAT BOTANICAL GARDENS, AS",
      "datacoverage": 0.9949,
      "id": "GHCND:ASN00089001",
      "elevationUnit": "METERS",
      "longitude": 143.8192
    },
    {
      "elevation": 435.2,
      "mindate": "1750-03-09",
      "maxdate": "2025-02-27",
      "latitude": -37.5127,
      "name": "BALLARAT AERODROME, AS",
      "datacoverage": 1,
      "id": "GHCND:ASN00089002",
      "elevationUnit": "METERS",
      "longitude": 143.7911
    },
    {
      "elevation": 180,
      "mindate": "1750-05-02",
      "maxdate": "2025-02-27",
      "latitude": -37.2472,
      "name": "BALMORAL POST OFFICE, AS",
      "datacoverage": 0.9905,
      "id": "GHCND:ASN00089003",
      "elevationUnit": "METERS",
      "longitude": 141.8415
    },
    {
      "elevation": 119,
      "mindate": "1886-01-01",
      "maxdate": "1983-12-31",
      "latitude": -38.0683,
      "name": "BARUNAH PLAINS, AS",
      "datacoverage": 0.9699,
      "id": "GHCND:ASN00089004",
      "elevationUnit": "METERS",
      "longitude": 143.8667
    },
    {
      "elevation": 450,
      "mindate": "1882-10-01",
      "maxdate": "2021-06-24",
      "latitude": -37.4483,
      "name": "BEAUFORT, AS",
      "datacoverage": 0.9338,
      "id": "GHCND:ASN00089005",
      "elevationUnit": "METERS",
      "longitude": 143.3658
    },
    {
      "elevation": 165,
      "mindate": "1877-02-01",
      "maxdate": "2006-12-31",
      "latitude": -37.9633,
      "name": "BERRYBANK, AS",
      "datacoverage": 0.8435,
      "id": "GHCND:ASN00089006",
      "elevationUnit": "METERS",
      "longitude": 143.4672
    }
  ]
}
