{
  "metadata": {
    "resultset": {
      "offset": 38100,
      "count": 154115,
      "limit": 100
    }
  },
  "results": [
    {
      "elevation": 290,
      "mindate": "1907-01-01",
      "maxdate": "1988-03-31",
      "latitude": -41.6142,
      "name": "CAVESIDE, AS",
      "datacoverage": 0.918,
      "id": "GHCND:ASN00091016",
      "elevationUnit": "METERS",
      "longitude": 146.4592
    },
    {
      "elevation": 393.2,
      "mindate": "1907-05-01",
      "maxdate": "1951-10-31",
      "latitude": -41.3,
      "name": "CASTRA CENTRAL, AS",
      "datacoverage": 0.9868,
      "id": "GHCND:ASN00091017",
      "elevationUnit": "METERS",
      "longitude": 146.1
    },
    {
      "mindate": "1949-07-01",
      "maxdate": "1954-02-28",
      "latitude": -41.7333,
      "name": "CRESSY COBURG, AS",
      "datacoverage": 0.3037,
      "id": "GHCND:ASN00091018",
      "longitude": 147.1833
    },
    {
      "elevation": 165,
      "mindate": "1750-03-14",
      "maxdate": "2025-01-31",
      "latitude": -41.8142,
      "name": "CONNORVILLE LAKE RIVER, AS",
      "datacoverage": 0.9322,
      "id": "GHCND:ASN00091019",
      "elevationUnit": "METERS",
      "longitude": 147.0922
    },
    {
      "elevation": 160,
      "mindate": "1899-01-01",
      "maxdate": "1976-09-30",
      "latitude": -41.7,
      "name": "CRESSY POST OFFICE, AS",
      "datacoverage": 0.9282,
      "id": "GHCND:ASN00091020",
      "elevationUnit": "METERS",
      "longitude": 147.0833
    },
    {
      "elevation": 155,
      "mindate": "1750-05-02",
      "maxdate": "2024-08-31",
      "latitude": -41.6606,
      "name": "CRESSY HOUSE, AS",
      "datacoverage": 0.981,
      "id": "GHCND:ASN00091021",
      "elevationUnit": "METERS",
      "longitude": 147.1008
    },
    {
      "elevation": 148,
      "mindate": "1939-04-01",
      "maxdate": "2021-08-31",
      "latitude": -41.7219,
      "name": "CRESSY RESEARCH STATION MAIN, AS",
      "datacoverage": 0.9945,
      "id": "GHCND:ASN00091022",
      "elevationUnit": "METERS",
      "longitude": 147.0811
    },
    {
      "elevation": 30.5,
      "mindate": "1947-10-01",
      "maxdate": "1975-02-28",
      "latitude": -41.3833,
      "name": "RIVERSIDE NORTH DANBURY PARK, AS",
      "datacoverage": 0.9993,
      "id": "GHCND:ASN00091023",
      "elevationUnit": "METERS",
      "longitude": 147.05
    },
    {
      "elevation": 160,
      "mindate": "1936-04-01",
      "maxdate": "1995-12-31",
      "latitude": -41.145,
      "name": "DERBY POST OFFICE, AS",
      "datacoverage": 0.8856,
      "id": "GHCND:ASN00091024",
      "elevationUnit": "METERS",
      "longitude": 147.8
    },
    {
      "elevation": 8,
      "mindate": "1904-01-01",
      "maxdate": "1977-09-30",
      "latitude": -41.1667,
      "name": "DEVONPORT HARBOUR MASTER, AS",
      "datacoverage": 0.9627,
      "id": "GHCND:ASN00091025",
      "elevationUnit": "METERS",
      "longitude": 146.3617
    },
    {
      "elevation": 633,
      "mindate": "1940-06-01",
      "maxdate": "1981-07-31",
      "latitude": -41.3167,
      "name": "DIDDLEUM PLAINS, AS",
      "datacoverage": 0.8421,
      "id": "GHCND:ASN00091026",
      "elevationUnit": "METERS",
      "longitude": 147.5
    },
    {
      "mindate": "1951-01-01",
      "maxdate": "1953-11-30",
      "latitude": -41.1833,
      "name": "HAWTHORN DON, AS",
      "datacoverage": 1,
      "id": "GHCND:ASN00091027",
      "longitude": 146.3167
    },
    {
      "mindate": "1936-10-01",
      "maxdate": "1960-05-31",
      "latitude": -41.2833,
      "name": "DUNNE CREEK, AS",
      "datacoverage": 0.8979,
      "id": "GHCND:ASN00091028",
      "longitude": 147.7
    },
    {
      "elevation": 274,
      "mindate": "1750-03-14",
      "maxdate": "2024-07-27",
      "latitude": -41.4978,
      "name": "DUNORLAN SHARMANS ROAD, AS",
      "datacoverage": 0.8511,
      "id": "GHCND:ASN00091029",
      "elevationUnit": "METERS",
      "longitude": 146.535
    },
    {
      "elevation": 155,
      "mindate": "1914-09-01",
      "maxdate": "2010-09-10",
      "latitude": -41.0828,
      "name": "ELLIOTT RESEARCH STATION, AS",
      "datacoverage": 0.9298,
      "id": "GHCND:ASN00091030",
      "elevationUnit": "METERS",
      "longitude": 145.7725
    },
    {
      "elevation": 30.5,
      "mindate": "1933-02-01",
      "maxdate": "1971-12-02",
      "latitude": -40.85,
      "name": "FOREST VAN DIEMANS LAND COMPA, AS",
      "datacoverage": 0.9487,
      "id": "GHCND:ASN00091031",
      "elevationUnit": "METERS",
      "longitude": 145.25
    },
    {
      "elevation": 170,
      "mindate": "1750-07-01",
      "maxdate": "2024-12-31",
      "latitude": -41.7244,
      "name": "EPPING FOREST FORTON, AS",
      "datacoverage": 0.9887,
      "id": "GHCND:ASN00091032",
      "elevationUnit": "METERS",
      "longitude": 147.3208
    },
    {
      "elevation": 240,
      "mindate": "1893-01-01",
      "maxdate": "2019-05-31",
      "latitude": -41.3203,
      "name": "FRANKFORD ROSSVILLE, AS",
      "datacoverage": 0.9401,
      "id": "GHCND:ASN00091033",
      "elevationUnit": "METERS",
      "longitude": 146.7378
    },
    {
      "elevation": 60,
      "mindate": "1750-03-14",
      "maxdate": "2024-11-30",
      "latitude": -40.8842,
      "name": "SOUTH FOREST PLUMMERS ROAD, AS",
      "datacoverage": 0.998,
      "id": "GHCND:ASN00091034",
      "elevationUnit": "METERS",
      "longitude": 145.2161
    },
    {
      "mindate": "1930-11-01",
      "maxdate": "1949-09-30",
      "latitude": -41.3333,
      "name": "GLENGARRY POST OFFICE NO2, AS",
      "datacoverage": 1,
      "id": "GHCND:ASN00091035",
      "longitude": 146.8667
    },
    {
      "elevation": 125,
      "mindate": "1908-01-01",
      "maxdate": "1949-04-30",
      "latitude": -41.3,
      "name": "GLENGARRY WEST TAMAR, AS",
      "datacoverage": 1,
      "id": "GHCND:ASN00091036",
      "elevationUnit": "METERS",
      "longitude": 146.9
    },
    {
      "elevation": 100,
      "mindate": "1950-01-01",
      "maxdate": "1993-11-30",
      "latitude": -41.345,
      "name": "GLENGARRY NO3, AS",
      "datacoverage": 0.9993,
      "id": "GHCND:ASN00091037",
      "elevationUnit": "METERS",
      "longitude": 146.9483
    },
    {
      "elevation": 380,
      "mindate": "1916-11-01",
      "maxdate": "1978-06-30",
      "latitude": -41.6333,
      "name": "GOLDEN VALLEY, AS",
      "datacoverage": 0.9919,
      "id": "GHCND:ASN00091038",
      "elevationUnit": "METERS",
      "longitude": 146.7
    },
    {
      "elevation": 75,
      "mindate": "1750-03-14",
      "maxdate": "2025-02-14",
      "latitude": -41.1839,
      "name": "NORTHDOWN HAMLEY, AS",
      "datacoverage": 0.9961,
      "id": "GHCND:ASN00091039",
      "elevationUnit": "METERS",
      "longitude": 146.4817
    },
    {
      "elevation": 465,
      "mindate": "1916-11-01",
      "maxdate": "2024-01-31",
      "latitude": -41.2467,
      "name": "HAMPSHIRE NEENA ROAD, AS",
      "datacoverage": 0.7179,
      "id": "GHCND:ASN00091040",
      "elevationUnit": "METERS",
      "longitude": 145.7731
    },
    {
      "elevation": 72,
      "mindate": "1750-03-14",
      "maxdate": "2025-01-31",
      "latitude": -41.2383,
      "name": "HILLWOOD HILLWOODVILLE, AS",
      "datacoverage": 0.9941,
      "id": "GHCND:ASN00091041",
      "elevationUnit": "METERS",
      "longitude": 146.9953
    },
    {
      "elevation": 170.7,
      "mindate": "1907-01-01",
      "maxdate": "1970-10-31",
      "latitude": -41.2167,
      "name": "KINDRED INVERGORDON, AS",
      "datacoverage": 0.9739,
      "id": "GHCND:ASN00091042",
      "elevationUnit": "METERS",
      "longitude": 146.2333
    },
    {
      "mindate": "1931-04-01",
      "maxdate": "1949-04-30",
      "latitude": -41.4,
      "name": "INVERMAY, AS",
      "datacoverage": 0.9908,
      "id": "GHCND:ASN00091043",
      "longitude": 147.15
    },
    {
      "elevation": 51,
      "mindate": "1907-01-01",
      "maxdate": "2018-09-30",
      "latitude": -40.9153,
      "name": "IRISHTOWN, AS",
      "datacoverage": 0.9411,
      "id": "GHCND:ASN00091044",
      "elevationUnit": "METERS",
      "longitude": 145.1433
    },
    {
      "elevation": 135,
      "mindate": "1916-11-01",
      "maxdate": "2018-08-31",
      "latitude": -41.1328,
      "name": "JETSONVILLE MUSKFIELD, AS",
      "datacoverage": 0.8787,
      "id": "GHCND:ASN00091045",
      "elevationUnit": "METERS",
      "longitude": 147.4808
    },
    {
      "elevation": 45.7,
      "mindate": "1930-05-01",
      "maxdate": "1981-06-30",
      "latitude": -41.0833,
      "name": "KELSO, AS",
      "datacoverage": 0.9707,
      "id": "GHCND:ASN00091046",
      "elevationUnit": "METERS",
      "longitude": 146.7333
    },
    {
      "mindate": "1917-01-01",
      "maxdate": "1956-06-30",
      "latitude": -40.9667,
      "name": "LAPOINYA MYALLA, AS",
      "datacoverage": 0.7638,
      "id": "GHCND:ASN00091047",
      "longitude": 145.5833
    },
    {
      "elevation": 25,
      "mindate": "1888-04-01",
      "maxdate": "2017-03-31",
      "latitude": -41.2514,
      "name": "LATROBE COAL ROAD, AS",
      "datacoverage": 0.823,
      "id": "GHCND:ASN00091048",
      "elevationUnit": "METERS",
      "longitude": 146.3975
    },
    {
      "elevation": 24.4,
      "mindate": "1884-01-01",
      "maxdate": "1963-12-31",
      "latitude": -41.5,
      "name": "LAUNCESTON PUMPING STATION, AS",
      "datacoverage": 0.9397,
      "id": "GHCND:ASN00091049",
      "elevationUnit": "METERS",
      "longitude": 147.2
    },
    {
      "mindate": "1944-04-01",
      "maxdate": "1947-02-28",
      "latitude": -41.45,
      "name": "LAUNCESTON RIFLE RANGE, AS",
      "datacoverage": 0.944,
      "id": "GHCND:ASN00091050",
      "longitude": 147.1667
    },
    {
      "mindate": "1913-01-01",
      "maxdate": "1976-02-29",
      "latitude": -41.1,
      "name": "LEFROY, AS",
      "datacoverage": 0.7665,
      "id": "GHCND:ASN00091051",
      "longitude": 147
    },
    {
      "elevation": 270,
      "mindate": "1916-01-01",
      "maxdate": "1998-08-31",
      "latitude": -41.6847,
      "name": "LIFFEY, AS",
      "datacoverage": 0.8185,
      "id": "GHCND:ASN00091052",
      "elevationUnit": "METERS",
      "longitude": 146.8467
    },
    {
      "elevation": 158,
      "mindate": "1750-03-15",
      "maxdate": "2025-01-31",
      "latitude": -41.25,
      "name": "LILYDALE POST OFFICE, AS",
      "datacoverage": 0.887,
      "id": "GHCND:ASN00091053",
      "elevationUnit": "METERS",
      "longitude": 147.2169
    },
    {
      "elevation": 140,
      "mindate": "1888-02-01",
      "maxdate": "2017-10-31",
      "latitude": -41.5922,
      "name": "LONGFORD DENTON CLOSE, AS",
      "datacoverage": 0.8502,
      "id": "GHCND:ASN00091054",
      "elevationUnit": "METERS",
      "longitude": 147.12
    },
    {
      "elevation": 259,
      "mindate": "1750-03-14",
      "maxdate": "2025-02-24",
      "latitude": -41.5406,
      "name": "LORINNA, AS",
      "datacoverage": 0.6306,
      "id": "GHCND:ASN00091055",
      "elevationUnit": "METERS",
      "longitude": 146.1364
    },
    {
      "mindate": "1910-02-01",
      "maxdate": "1946-11-30",
      "latitude": -41.3,
      "name": "LOWANA, AS",
      "datacoverage": 0.672,
      "id": "GHCND:ASN00091056",
      "longitude": 146
    },
    {
      "elevation": 28,
      "mindate": "1877-07-01",
      "maxdate": "2001-12-06",
      "latitude": -41.0567,
      "name": "LOW HEAD COMPARISON, AS",
      "datacoverage": 0.971,
      "id": "GHCND:ASN00091057",
      "elevationUnit": "METERS",
      "longitude": 146.7883
    },
    {
      "mindate": "1907-01-01",
      "maxdate": "1950-11-30",
      "latitude": -40.95,
      "name": "MARRAWAH STATE SCHOOL, AS",
      "datacoverage": 0.8558,
      "id": "GHCND:ASN00091058",
      "longitude": 144.7
    },
    {
      "elevation": 102.1,
      "mindate": "1931-07-01",
      "maxdate": "1948-02-29",
      "latitude": -40.95,
      "name": "MARRAWAH GLENDONALD, AS",
      "datacoverage": 0.705,
      "id": "GHCND:ASN00091059",
      "elevationUnit": "METERS",
      "longitude": 144.7
    },
    {
      "elevation": 93,
      "mindate": "1750-03-20",
      "maxdate": "2024-12-31",
      "latitude": -40.905,
      "name": "MAWBANNA MAWBANNA ROAD, AS",
      "datacoverage": 0.9964,
      "id": "GHCND:ASN00091060",
      "elevationUnit": "METERS",
      "longitude": 145.3492
    },
    {
      "elevation": 291,
      "mindate": "1930-01-01",
      "maxdate": "2018-07-31",
      "latitude": -41.6489,
      "name": "MEANDER, AS",
      "datacoverage": 0.997,
      "id": "GHCND:ASN00091061",
      "elevationUnit": "METERS",
      "longitude": 146.6144
    },
    {
      "mindate": "1915-11-01",
      "maxdate": "1951-04-30",
      "latitude": -41.2167,
      "name": "MELROSE, AS",
      "datacoverage": 0.9993,
      "id": "GHCND:ASN00091062",
      "longitude": 146.3333
    },
    {
      "mindate": "1925-01-01",
      "maxdate": "1949-07-31",
      "latitude": -41.25,
      "name": "MELROSE QUARRIES, AS",
      "datacoverage": 0.9965,
      "id": "GHCND:ASN00091063",
      "longitude": 146.3
    },
    {
      "elevation": 504,
      "mindate": "1910-06-01",
      "maxdate": "2007-06-30",
      "latitude": -41.4842,
      "name": "MOINA, AS",
      "datacoverage": 0.5305,
      "id": "GHCND:ASN00091064",
      "elevationUnit": "METERS",
      "longitude": 146.0747
    },
    {
      "elevation": 240,
      "mindate": "1914-10-01",
      "maxdate": "2015-01-26",
      "latitude": -41.5553,
      "name": "MOLE CREEK, AS",
      "datacoverage": 0.9842,
      "id": "GHCND:ASN00091065",
      "elevationUnit": "METERS",
      "longitude": 146.3992
    },
    {
      "elevation": 150,
      "mindate": "1916-01-01",
      "maxdate": "2003-08-31",
      "latitude": -40.9936,
      "name": "MOORLEAH PREOLENNA ROAD, AS",
      "datacoverage": 0.9192,
      "id": "GHCND:ASN00091066",
      "elevationUnit": "METERS",
      "longitude": 145.6114
    },
    {
      "mindate": "1936-07-01",
      "maxdate": "1956-04-30",
      "latitude": -41.2,
      "name": "MOUNT PARIS DAM, AS",
      "datacoverage": 0.7059,
      "id": "GHCND:ASN00091067",
      "longitude": 147.8
    },
    {
      "elevation": 381,
      "mindate": "1926-08-01",
      "maxdate": "1965-12-31",
      "latitude": -41.45,
      "name": "MUSSELBORO APPLICO, AS",
      "datacoverage": 0.9999,
      "id": "GHCND:ASN00091068",
      "elevationUnit": "METERS",
      "longitude": 147.4333
    },
    {
      "elevation": 520,
      "mindate": "1930-11-01",
      "maxdate": "1984-06-30",
      "latitude": -41.2667,
      "name": "MYRTLE BANK LANOMA, AS",
      "datacoverage": 0.7857,
      "id": "GHCND:ASN00091069",
      "elevationUnit": "METERS",
      "longitude": 147.35
    },
    {
      "elevation": 129,
      "mindate": "1916-10-01",
      "maxdate": "1982-12-31",
      "latitude": -41.1667,
      "name": "NABOWLA, AS",
      "datacoverage": 0.7698,
      "id": "GHCND:ASN00091070",
      "elevationUnit": "METERS",
      "longitude": 147.3667
    },
    {
      "elevation": 396.2,
      "mindate": "1952-03-01",
      "maxdate": "1973-07-02",
      "latitude": -41.2333,
      "name": "UPPER NATONE, AS",
      "datacoverage": 1,
      "id": "GHCND:ASN00091071",
      "elevationUnit": "METERS",
      "longitude": 145.9
    },
    {
      "elevation": 67,
      "mindate": "1750-03-13",
      "maxdate": "2025-02-23",
      "latitude": -41.4678,
      "name": "LAUNCESTON KINGS MEADOWS, AS",
      "datacoverage": 0.9207,
      "id": "GHCND:ASN00091072",
      "elevationUnit": "METERS",
      "longitude": 147.1628
    },
    {
      "elevation": 560,
      "mindate": "1922-04-01",
      "maxdate": "1993-11-30",
      "latitude": -41.4083,
      "name": "SOUTH NIETTA, AS",
      "datacoverage": 0.9476,
      "id": "GHCND:ASN00091073",
      "elevationUnit": "METERS",
      "longitude": 146.0783
    },
    {
      "elevation": 57,
      "mindate": "1924-06-01",
      "maxdate": "2008-06-30",
      "latitude": -40.9911,
      "name": "EDITH CREEK, AS",
      "datacoverage": 0.9802,
      "id": "GHCND:ASN00091074",
      "elevationUnit": "METERS",
      "longitude": 145.0783
    },
    {
      "elevation": 350.5,
      "mindate": "1941-09-01",
      "maxdate": "1973-12-31",
      "latitude": -41.4,
      "name": "NUNAMARA, AS",
      "datacoverage": 0.9845,
      "id": "GHCND:ASN00091075",
      "elevationUnit": "METERS",
      "longitude": 147.2833
    },
    {
      "mindate": "1916-10-01",
      "maxdate": "1947-07-31",
      "latitude": -41.4,
      "name": "PARKHAM, AS",
      "datacoverage": 0.9839,
      "id": "GHCND:ASN00091076",
      "longitude": 146.6
    },
    {
      "elevation": 275,
      "mindate": "1920-07-01",
      "maxdate": "2022-11-30",
      "latitude": -41.575,
      "name": "DEDDINGTON MARATHON, AS",
      "datacoverage": 0.8739,
      "id": "GHCND:ASN00091077",
      "elevationUnit": "METERS",
      "longitude": 147.4508
    },
    {
      "mindate": "1936-10-01",
      "maxdate": "1945-12-31",
      "latitude": -41.1,
      "name": "PENGUIN",
      "datacoverage": 1,
      "id": "GHCND:ASN00091078",
      "longitude": 146.05
    },
    {
      "elevation": 260,
      "mindate": "1952-01-01",
      "maxdate": "2001-09-03",
      "latitude": -41.0867,
      "name": "PREOLENNA, AS",
      "datacoverage": 0.923,
      "id": "GHCND:ASN00091079",
      "elevationUnit": "METERS",
      "longitude": 145.5517
    },
    {
      "elevation": 11,
      "mindate": "1947-07-01",
      "maxdate": "1990-04-30",
      "latitude": -41.2083,
      "name": "QUOIBA, AS",
      "datacoverage": 0.9805,
      "id": "GHCND:ASN00091080",
      "elevationUnit": "METERS",
      "longitude": 146.3467
    },
    {
      "elevation": 60,
      "mindate": "1916-10-01",
      "maxdate": "2014-01-31",
      "latitude": -41.3317,
      "name": "RAILTON CEMENT AUSTRALIA, AS",
      "datacoverage": 0.9517,
      "id": "GHCND:ASN00091081",
      "elevationUnit": "METERS",
      "longitude": 146.415
    },
    {
      "elevation": 77,
      "mindate": "1952-01-01",
      "maxdate": "2018-06-29",
      "latitude": -40.9272,
      "name": "REDPA GREENES ROAD, AS",
      "datacoverage": 0.9974,
      "id": "GHCND:ASN00091082",
      "elevationUnit": "METERS",
      "longitude": 144.7489
    },
    {
      "elevation": 290,
      "mindate": "1916-06-01",
      "maxdate": "1951-12-31",
      "latitude": -41.1964,
      "name": "RIANA PINE ROAD, AS",
      "datacoverage": 0.8454,
      "id": "GHCND:ASN00091083",
      "elevationUnit": "METERS",
      "longitude": 145.9997
    },
    {
      "elevation": 85.3,
      "mindate": "1898-02-01",
      "maxdate": "1957-03-31",
      "latitude": -41.5,
      "name": "EVANDALE RIDGESIDE, AS",
      "datacoverage": 0.9993,
      "id": "GHCND:ASN00091084",
      "elevationUnit": "METERS",
      "longitude": 147.3
    },
    {
      "elevation": 277,
      "mindate": "1909-06-01",
      "maxdate": "1998-10-31",
      "latitude": -41.1497,
      "name": "RIDGLEY, AS",
      "datacoverage": 0.9711,
      "id": "GHCND:ASN00091085",
      "elevationUnit": "METERS",
      "longitude": 145.8339
    },
    {
      "elevation": 285,
      "mindate": "1750-03-14",
      "maxdate": "2024-12-31",
      "latitude": -41.2439,
      "name": "RINGAROOMA CHARLES STREET, AS",
      "datacoverage": 0.9072,
      "id": "GHCND:ASN00091086",
      "elevationUnit": "METERS",
      "longitude": 147.7353
    },
    {
      "elevation": 76.2,
      "mindate": "1893-08-01",
      "maxdate": "1967-06-30",
      "latitude": -41.3833,
      "name": "NEWNHAM ROCHERLEA, AS",
      "datacoverage": 0.916,
      "id": "GHCND:ASN00091087",
      "elevationUnit": "METERS",
      "longitude": 147.1167
    },
    {
      "elevation": 390,
      "mindate": "1907-01-01",
      "maxdate": "2019-07-20",
      "latitude": -41.3303,
      "name": "ST PATRICKS RIVER TARGA FARM, AS",
      "datacoverage": 0.9442,
      "id": "GHCND:ASN00091088",
      "elevationUnit": "METERS",
      "longitude": 147.355
    },
    {
      "mindate": "1888-04-01",
      "maxdate": "1953-12-31",
      "latitude": -41.15,
      "name": "SCOTTSDALE, AS",
      "datacoverage": 0.8591,
      "id": "GHCND:ASN00091089",
      "longitude": 147.5
    },
    {
      "elevation": 190,
      "mindate": "1750-03-14",
      "maxdate": "2025-01-31",
      "latitude": -41.4475,
      "name": "SELBOURNE KIRNBRAE, AS",
      "datacoverage": 0.9221,
      "id": "GHCND:ASN00091090",
      "elevationUnit": "METERS",
      "longitude": 146.8744
    },
    {
      "elevation": 280,
      "mindate": "1907-02-01",
      "maxdate": "1997-12-31",
      "latitude": -41.3831,
      "name": "SHEFFIELD, AS",
      "datacoverage": 0.988,
      "id": "GHCND:ASN00091091",
      "elevationUnit": "METERS",
      "longitude": 146.3278
    },
    {
      "elevation": 7,
      "mindate": "1911-08-01",
      "maxdate": "1997-10-31",
      "latitude": -40.8492,
      "name": "SMITHTON GRANT STREET, AS",
      "datacoverage": 0.999,
      "id": "GHCND:ASN00091092",
      "elevationUnit": "METERS",
      "longitude": 145.1125
    },
    {
      "elevation": 270,
      "mindate": "1908-09-01",
      "maxdate": "1982-01-31",
      "latitude": -41.2667,
      "name": "SOUTH SPRINGFIELD SOUTH SPRIN, AS",
      "datacoverage": 0.6413,
      "id": "GHCND:ASN00091093",
      "elevationUnit": "METERS",
      "longitude": 147.5
    },
    {
      "elevation": 10,
      "mindate": "1870-02-01",
      "maxdate": "1999-11-22",
      "latitude": -40.7642,
      "name": "STANLEY POST OFFICE, AS",
      "datacoverage": 0.7629,
      "id": "GHCND:ASN00091094",
      "elevationUnit": "METERS",
      "longitude": 145.2944
    },
    {
      "elevation": 55,
      "mindate": "1927-06-01",
      "maxdate": "2021-09-30",
      "latitude": -41.3128,
      "name": "WINDERMERE ACACIA HOUSE, AS",
      "datacoverage": 0.8325,
      "id": "GHCND:ASN00091095",
      "elevationUnit": "METERS",
      "longitude": 147.0281
    },
    {
      "mindate": "1926-12-01",
      "maxdate": "1967-01-31",
      "latitude": -41.2,
      "name": "WEST TAKONE, AS",
      "datacoverage": 1,
      "id": "GHCND:ASN00091096",
      "longitude": 145.5
    },
    {
      "elevation": 340,
      "mindate": "1927-08-01",
      "maxdate": "1985-02-28",
      "latitude": -41.1833,
      "name": "TAKONE, AS",
      "datacoverage": 0.5659,
      "id": "GHCND:ASN00091097",
      "elevationUnit": "METERS",
      "longitude": 145.6167
    },
    {
      "mindate": "1941-09-01",
      "maxdate": "1950-09-30",
      "latitude": -41.3667,
      "name": "TAYENE, AS",
      "datacoverage": 0.5781,
      "id": "GHCND:ASN00091098",
      "longitude": 147.45
    },
    {
      "elevation": 410,
      "mindate": "1934-02-01",
      "maxdate": "1995-08-31",
      "latitude": -41.2314,
      "name": "TEWKESBURY, AS",
      "datacoverage": 0.9771,
      "id": "GHCND:ASN00091099",
      "elevationUnit": "METERS",
      "longitude": 145.7061
    },
    {
      "elevation": 8,
      "mindate": "1941-01-01",
      "maxdate": "2025-02-27",
      "latitude": -40.4472,
      "name": "THREE HUMMOCK ISLAND, AS",
      "datacoverage": 0.3606,
      "id": "GHCND:ASN00091100",
      "elevationUnit": "METERS",
      "longitude": 144.84
    },
    {
      "mindate": "1923-12-01",
      "maxdate": "1959-01-31",
      "latitude": -41.1,
      "name": "TROWUTTA, AS",
      "datacoverage": 0.8056,
      "id": "GHCND:ASN00091101",
      "longitude": 145.1
    },
    {
      "elevation": 12,
      "mindate": "1889-01-01",
      "maxdate": "2017-09-13",
      "latitude": -41.1597,
      "name": "ULVERSTONE KNIGHTS ROAD",
      "datacoverage": 0.8973,
      "id": "GHCND:ASN00091102",
      "elevationUnit": "METERS",
      "longitude": 146.1453
    },
    {
      "elevation": 207,
      "mindate": "1900-09-01",
      "maxdate": "2014-04-30",
      "latitude": -41.5239,
      "name": "WESTBURY VALLEY VIEW, AS",
      "datacoverage": 0.9502,
      "id": "GHCND:ASN00091103",
      "elevationUnit": "METERS",
      "longitude": 146.8125
    },
    {
      "elevation": 166,
      "mindate": "1931-07-01",
      "maxdate": "2009-06-21",
      "latitude": -41.5397,
      "name": "LAUNCESTON AIRPORT COMPARISON, AS",
      "datacoverage": 0.9968,
      "id": "GHCND:ASN00091104",
      "elevationUnit": "METERS",
      "longitude": 147.2033
    },
    {
      "elevation": 351,
      "mindate": "1910-07-01",
      "maxdate": "2017-12-31",
      "latitude": -41.3567,
      "name": "WILMOT BACK ROAD, AS",
      "datacoverage": 0.9952,
      "id": "GHCND:ASN00091105",
      "elevationUnit": "METERS",
      "longitude": 146.1739
    },
    {
      "mindate": "1916-01-01",
      "maxdate": "1960-11-30",
      "latitude": -41.7,
      "name": "WOOLMERS SETTLEMENT, AS",
      "datacoverage": 0.9833,
      "id": "GHCND:ASN00091106",
      "longitude": 147.2
    },
    {
      "elevation": 12,
      "mindate": "1750-03-09",
      "maxdate": "2025-02-27",
      "latitude": -40.9972,
      "name": "WYNYARD AIRPORT, AS",
      "datacoverage": 0.6714,
      "id": "GHCND:ASN00091107",
      "elevationUnit": "METERS",
      "longitude": 145.7292
    },
    {
      "elevation": 18.6,
      "mindate": "1907-01-01",
      "maxdate": "1950-01-31",
      "latitude": -41,
      "name": "WYNYARD STATE SCHOOL, AS",
      "datacoverage": 0.9993,
      "id": "GHCND:ASN00091108",
      "elevationUnit": "METERS",
      "longitude": 145.7
    },
    {
      "elevation": 343,
      "mindate": "1750-03-11",
      "maxdate": "2025-02-27",
      "latitude": -41.1428,
      "name": "YOLLA SEA VIEW, AS",
      "datacoverage": 0.9932,
      "id": "GHCND:ASN00091109",
      "elevationUnit": "METERS",
      "longitude": 145.7058
    },
    {
      "mindate": "1954-04-01",
      "maxdate": "1967-04-30",
      "latitude": -40.9667,
      "name": "EIGHTEEN MILE CAMP, AS",
      "datacoverage": 1,
      "id": "GHCND:ASN00091110",
      "longitude": 144.8833
    },
    {
      "elevation": 12,
      "mindate": "1954-03-01",
      "maxdate": "1975-09-30",
      "latitude": -41.1833,
      "name": "DEVONPORT, AS",
      "datacoverage": 1,
      "id": "GHCND:ASN00091111",
      "elevationUnit": "METERS",
      "longitude": 146.3667
    },
    {
      "elevation": 9.4,
      "mindate": "1960-06-01",
      "maxdate": "1992-10-08",
      "latitude": -40.9942,
      "name": "WYNYARD JACKSON STREET, AS",
      "datacoverage": 0.928,
      "id": "GHCND:ASN00091112",
      "elevationUnit": "METERS",
      "longitude": 145.7292
    },
    {
      "mindate": "1954-07-01",
      "maxdate": "1956-01-31",
      "latitude": -41.3,
      "name": "PARRAWE, AS",
      "datacoverage": 0.998,
      "id": "GHCND:ASN00091114",
      "longitude": 145.6
    },
    {
      "elevation": 61,
      "mindate": "1954-09-01",
      "maxdate": "1955-07-31",
      "latitude": -40.7,
      "name": "ROBBINS ISLAND, AS",
      "datacoverage": 1,
      "id": "GHCND:ASN00091115",
      "elevationUnit": "METERS",
      "longitude": 144.9667
    },
    {
      "elevation": 199.9,
      "mindate": "1953-11-01",
      "maxdate": "1971-03-02",
      "latitude": -41.15,
      "name": "SCOTTSDALE KRAFT FOODS, AS",
      "datacoverage": 1,
      "id": "GHCND:ASN00091116",
      "elevationUnit": "METERS",
      "longitude": 147.5167
    }
  ]
}
