{
  "metadata": {
    "resultset": {
      "offset": 103700,
      "count": 154115,
      "limit": 100
    }
  },
  "results": [
    {
      "elevation": 3,
      "mindate": "2024-03-26",
      "maxdate": "2025-03-06",
      "latitude": 39.8190668,
      "name": "GREENWICH TWP 2.2 ESE, NJ US",
      "datacoverage": 1,
      "id": "GHCND:US1NJGL0058",
      "elevationUnit": "METERS",
      "longitude": -75.2501014
    },
    {
      "elevation": 29,
      "mindate": "2008-02-01",
      "maxdate": "2022-05-10",
      "latitude": 40.772892,
      "name": "KEARNY 1.7 NW, NJ US",
      "datacoverage": 1,
      "id": "GHCND:US1NJHD0002",
      "elevationUnit": "METERS",
      "longitude": -74.140926
    },
    {
      "elevation": 3.4,
      "mindate": "2022-04-01",
      "maxdate": "2023-12-08",
      "latitude": 40.7913,
      "name": "SECAUCUS 0.8 NNE, NJ US",
      "datacoverage": 0.9947,
      "id": "GHCND:US1NJHD0016",
      "elevationUnit": "METERS",
      "longitude": -74.06028
    },
    {
      "elevation": 16.5,
      "mindate": "2022-04-09",
      "maxdate": "2023-05-31",
      "latitude": 40.797,
      "name": "SECAUCUS 1.2 NNE, NJ US",
      "datacoverage": 0.9819,
      "id": "GHCND:US1NJHD0017",
      "elevationUnit": "METERS",
      "longitude": -74.05572
    },
    {
      "elevation": 25.6,
      "mindate": "2022-05-11",
      "maxdate": "2025-03-06",
      "latitude": 40.774342,
      "name": "KEARNY 1.7 NNW, NJ US",
      "datacoverage": 1,
      "id": "GHCND:US1NJHD0018",
      "elevationUnit": "METERS",
      "longitude": -74.137109
    },
    {
      "elevation": 30.2,
      "mindate": "2024-02-11",
      "maxdate": "2025-03-07",
      "latitude": 40.73255,
      "name": "JERSEY CITY 1.6 NNE, NJ US",
      "datacoverage": 1,
      "id": "GHCND:US1NJHD0023",
      "elevationUnit": "METERS",
      "longitude": -74.05098
    },
    {
      "elevation": 178.3,
      "mindate": "2008-01-01",
      "maxdate": "2025-03-06",
      "latitude": 40.726083,
      "name": "CALIFON 0.6 NW, NJ US",
      "datacoverage": 1,
      "id": "GHCND:US1NJHN0001",
      "elevationUnit": "METERS",
      "longitude": -74.843256
    },
    {
      "elevation": 143.6,
      "mindate": "2008-03-01",
      "maxdate": "2024-12-24",
      "latitude": 40.4547112591247,
      "name": "STOCKTON 4.4 NW, NJ US",
      "datacoverage": 0.7813,
      "id": "GHCND:US1NJHN0002",
      "elevationUnit": "METERS",
      "longitude": -75.0317984819412
    },
    {
      "elevation": 94.2,
      "mindate": "2008-02-01",
      "maxdate": "2025-03-05",
      "latitude": 40.641802,
      "name": "CLINTON 1.6 ENE, NJ US",
      "datacoverage": 0.9998,
      "id": "GHCND:US1NJHN0003",
      "elevationUnit": "METERS",
      "longitude": -74.88274
    },
    {
      "elevation": 77.4,
      "mindate": "2008-04-01",
      "maxdate": "2016-12-25",
      "latitude": 40.605478,
      "name": "FRANKLIN TWP 2.8 NNE, NJ US",
      "datacoverage": 0.9896,
      "id": "GHCND:US1NJHN0004",
      "elevationUnit": "METERS",
      "longitude": -74.922444
    },
    {
      "elevation": 57.9,
      "mindate": "2008-06-01",
      "maxdate": "2015-11-13",
      "latitude": 40.572411,
      "name": "READINGTON TWP 2.0 WSW, NJ US",
      "datacoverage": 1,
      "id": "GHCND:US1NJHN0005",
      "elevationUnit": "METERS",
      "longitude": -74.814701
    },
    {
      "elevation": 122.8,
      "mindate": "2008-03-01",
      "maxdate": "2009-01-05",
      "latitude": 40.57988,
      "name": "FRANKLIN TWP 1.6 NW, NJ US",
      "datacoverage": 0.9961,
      "id": "GHCND:US1NJHN0006",
      "elevationUnit": "METERS",
      "longitude": -74.960483
    },
    {
      "elevation": 283.8,
      "mindate": "1998-06-01",
      "maxdate": "2024-02-10",
      "latitude": 40.65995,
      "name": "BETHLEHEM TWP 0.6 S, NJ US",
      "datacoverage": 0.9104,
      "id": "GHCND:US1NJHN0007",
      "elevationUnit": "METERS",
      "longitude": -75.00803
    },
    {
      "elevation": 123.1,
      "mindate": "2008-04-01",
      "maxdate": "2012-10-11",
      "latitude": 40.672725,
      "name": "HIGH BRIDGE 0.6 WNW, NJ US",
      "datacoverage": 1,
      "id": "GHCND:US1NJHN0008",
      "elevationUnit": "METERS",
      "longitude": -74.903003
    },
    {
      "elevation": 196.6,
      "mindate": "2008-04-01",
      "maxdate": "2025-03-07",
      "latitude": 40.566331,
      "name": "FRANKLIN TWP 0.4 W, NJ US",
      "datacoverage": 0.7396,
      "id": "GHCND:US1NJHN0009",
      "elevationUnit": "METERS",
      "longitude": -74.944312
    },
    {
      "elevation": 45.1,
      "mindate": "2008-05-01",
      "maxdate": "2025-02-28",
      "latitude": 40.508304,
      "name": "FLEMINGTON 2.3 E, NJ US",
      "datacoverage": 0.9998,
      "id": "GHCND:US1NJHN0010",
      "elevationUnit": "METERS",
      "longitude": -74.815196
    },
    {
      "elevation": 64,
      "mindate": "2008-09-01",
      "maxdate": "2025-03-06",
      "latitude": 40.594,
      "name": "READINGTON TWP 1.8 ENE, NJ US",
      "datacoverage": 0.9997,
      "id": "GHCND:US1NJHN0011",
      "elevationUnit": "METERS",
      "longitude": -74.749
    },
    {
      "elevation": 239,
      "mindate": "2008-09-01",
      "maxdate": "2025-03-07",
      "latitude": 40.631683,
      "name": "HOLLAND TWP 2.6 NNE, NJ US",
      "datacoverage": 1,
      "id": "GHCND:US1NJHN0012",
      "elevationUnit": "METERS",
      "longitude": -75.104528
    },
    {
      "elevation": 54.6,
      "mindate": "2009-06-01",
      "maxdate": "2022-09-30",
      "latitude": 40.50913,
      "name": "FLEMINGTON 0.3 E, NJ US",
      "datacoverage": 0.9999,
      "id": "GHCND:US1NJHN0015",
      "elevationUnit": "METERS",
      "longitude": -74.85488
    },
    {
      "elevation": 186.8,
      "mindate": "2009-09-01",
      "maxdate": "2025-03-07",
      "latitude": 40.687173,
      "name": "CLINTON TWP 3.9 N, NJ US",
      "datacoverage": 1,
      "id": "GHCND:US1NJHN0018",
      "elevationUnit": "METERS",
      "longitude": -74.857478
    },
    {
      "elevation": 83.8,
      "mindate": "2009-09-01",
      "maxdate": "2024-09-24",
      "latitude": 40.606374,
      "name": "LEBANON 3.2 SW, NJ US",
      "datacoverage": 1,
      "id": "GHCND:US1NJHN0019",
      "elevationUnit": "METERS",
      "longitude": -74.871037
    },
    {
      "elevation": 193.9,
      "mindate": "2009-09-01",
      "maxdate": "2025-03-07",
      "latitude": 40.684138,
      "name": "LEBANON 2.8 N, NJ US",
      "datacoverage": 1,
      "id": "GHCND:US1NJHN0021",
      "elevationUnit": "METERS",
      "longitude": -74.838919
    },
    {
      "elevation": 157.3,
      "mindate": "2000-12-01",
      "maxdate": "2025-03-06",
      "latitude": 40.4549,
      "name": "KINGWOOD TWP 2.5 S, NJ US",
      "datacoverage": 0.7336,
      "id": "GHCND:US1NJHN0022",
      "elevationUnit": "METERS",
      "longitude": -75.012
    },
    {
      "elevation": 65.8,
      "mindate": "2011-05-01",
      "maxdate": "2025-03-06",
      "latitude": 40.641803,
      "name": "LEBANON 0.5 E, NJ US",
      "datacoverage": 1,
      "id": "GHCND:US1NJHN0025",
      "elevationUnit": "METERS",
      "longitude": -74.824909
    },
    {
      "elevation": 134.1,
      "mindate": "2011-11-01",
      "maxdate": "2014-04-01",
      "latitude": 40.572648,
      "name": "ALEXANDRIA TWP 1.5 SE, NJ US",
      "datacoverage": 0.9679,
      "id": "GHCND:US1NJHN0026",
      "elevationUnit": "METERS",
      "longitude": -75.012337
    },
    {
      "elevation": 121.9,
      "mindate": "2011-11-01",
      "maxdate": "2013-01-21",
      "latitude": 40.567721,
      "name": "ALEXANDRIA TWP 1.5 SSE, NJ US",
      "datacoverage": 1,
      "id": "GHCND:US1NJHN0027",
      "elevationUnit": "METERS",
      "longitude": -75.022772
    },
    {
      "elevation": 44.5,
      "mindate": "2012-04-01",
      "maxdate": "2019-02-26",
      "latitude": 40.554819,
      "name": "FLEMINGTON 5.2 NE, NJ US",
      "datacoverage": 1,
      "id": "GHCND:US1NJHN0029",
      "elevationUnit": "METERS",
      "longitude": -74.78193
    },
    {
      "elevation": 88.4,
      "mindate": "2012-07-01",
      "maxdate": "2025-02-26",
      "latitude": 40.5342,
      "name": "FRENCHTOWN 0.5 N, NJ US",
      "datacoverage": 0.9998,
      "id": "GHCND:US1NJHN0031",
      "elevationUnit": "METERS",
      "longitude": -75.0559
    },
    {
      "elevation": 156.7,
      "mindate": "2012-07-01",
      "maxdate": "2025-03-06",
      "latitude": 40.6202239990234,
      "name": "UNION TWP 1.2 SW, NJ US",
      "datacoverage": 0.8443,
      "id": "GHCND:US1NJHN0032",
      "elevationUnit": "METERS",
      "longitude": -74.982780456543
    },
    {
      "elevation": 132,
      "mindate": "2013-01-01",
      "maxdate": "2018-07-13",
      "latitude": 40.5841751098633,
      "name": "FRANKLIN TWP 1.8 NE, NJ US",
      "datacoverage": 0.8726,
      "id": "GHCND:US1NJHN0033",
      "elevationUnit": "METERS",
      "longitude": -74.9096374511719
    },
    {
      "elevation": 74.4,
      "mindate": "2014-01-01",
      "maxdate": "2024-11-28",
      "latitude": 40.6397552490234,
      "name": "LEBANON 0.4 SE, NJ US",
      "datacoverage": 0.9268,
      "id": "GHCND:US1NJHN0035",
      "elevationUnit": "METERS",
      "longitude": -74.8296661376953
    },
    {
      "elevation": 81.4,
      "mindate": "2015-08-01",
      "maxdate": "2025-03-07",
      "latitude": 40.361061,
      "name": "LAMBERTVILLE 0.6 SSE, NJ US",
      "datacoverage": 0.8732,
      "id": "GHCND:US1NJHN0042",
      "elevationUnit": "METERS",
      "longitude": -74.939004
    },
    {
      "elevation": 254.2,
      "mindate": "2016-01-17",
      "maxdate": "2019-04-23",
      "latitude": 40.740459,
      "name": "GLEN GARDNER 3.0 NNE, NJ US",
      "datacoverage": 0.5482,
      "id": "GHCND:US1NJHN0043",
      "elevationUnit": "METERS",
      "longitude": -74.917779
    },
    {
      "elevation": 54.3,
      "mindate": "2016-03-14",
      "maxdate": "2020-07-26",
      "latitude": 40.560921,
      "name": "READINGTON TWP 2.2 SE, NJ US",
      "datacoverage": 0.9947,
      "id": "GHCND:US1NJHN0044",
      "elevationUnit": "METERS",
      "longitude": -74.748683
    },
    {
      "elevation": 159.1,
      "mindate": "2016-03-16",
      "maxdate": "2020-05-27",
      "latitude": 40.714045,
      "name": "HAMPTON 0.5 N, NJ US",
      "datacoverage": 0.1799,
      "id": "GHCND:US1NJHN0045",
      "elevationUnit": "METERS",
      "longitude": -74.963436
    },
    {
      "elevation": 113.4,
      "mindate": "2016-11-26",
      "maxdate": "2025-03-07",
      "latitude": 40.669415,
      "name": "CLINTON 2.4 NNW, NJ US",
      "datacoverage": 0.8156,
      "id": "GHCND:US1NJHN0047",
      "elevationUnit": "METERS",
      "longitude": -74.929518
    },
    {
      "elevation": 59.7,
      "mindate": "2016-10-31",
      "maxdate": "2025-03-01",
      "latitude": 40.4923,
      "name": "FLEMINGTON 1.9 SE, NJ US",
      "datacoverage": 0.8679,
      "id": "GHCND:US1NJHN0048",
      "elevationUnit": "METERS",
      "longitude": -74.8305
    },
    {
      "elevation": 26.2,
      "mindate": "2016-10-31",
      "maxdate": "2019-03-23",
      "latitude": 40.370091,
      "name": "LAMBERTVILLE 0.1 N, NJ US",
      "datacoverage": 0.4279,
      "id": "GHCND:US1NJHN0049",
      "elevationUnit": "METERS",
      "longitude": -74.942793
    },
    {
      "elevation": 146.3,
      "mindate": "2017-06-11",
      "maxdate": "2025-02-01",
      "latitude": 40.45998,
      "name": "STOCKTON 3.8 NNW, NJ US",
      "datacoverage": 0.295,
      "id": "GHCND:US1NJHN0052",
      "elevationUnit": "METERS",
      "longitude": -74.996931
    },
    {
      "elevation": 87.5,
      "mindate": "2017-09-07",
      "maxdate": "2022-09-27",
      "latitude": 40.660942,
      "name": "CLINTON 1.7 N, NJ US",
      "datacoverage": 0.998,
      "id": "GHCND:US1NJHN0053",
      "elevationUnit": "METERS",
      "longitude": -74.915219
    },
    {
      "elevation": 126.5,
      "mindate": "2018-11-10",
      "maxdate": "2022-02-20",
      "latitude": 40.54053,
      "name": "RARITAN TWP 2.4 N, NJ US",
      "datacoverage": 0.8691,
      "id": "GHCND:US1NJHN0057",
      "elevationUnit": "METERS",
      "longitude": -74.874509
    },
    {
      "elevation": 68,
      "mindate": "2018-11-08",
      "maxdate": "2024-01-06",
      "latitude": 40.49844,
      "name": "FLEMINGTON 2.9 ESE, NJ US",
      "datacoverage": 0.8765,
      "id": "GHCND:US1NJHN0058",
      "elevationUnit": "METERS",
      "longitude": -74.80698
    },
    {
      "elevation": 55.2,
      "mindate": "2018-11-11",
      "maxdate": "2021-11-17",
      "latitude": 40.48576,
      "name": "FLEMINGTON 4.2 ESE, NJ US",
      "datacoverage": 0.7588,
      "id": "GHCND:US1NJHN0059",
      "elevationUnit": "METERS",
      "longitude": -74.7858
    },
    {
      "elevation": 163.7,
      "mindate": "2020-04-10",
      "maxdate": "2025-01-08",
      "latitude": 40.5485476571946,
      "name": "FRANKLIN TWP 3.1 WSW, NJ US",
      "datacoverage": 0.7839,
      "id": "GHCND:US1NJHN0062",
      "elevationUnit": "METERS",
      "longitude": -74.9881907473624
    },
    {
      "elevation": 118.9,
      "mindate": "2021-03-16",
      "maxdate": "2022-06-24",
      "latitude": 40.4569904,
      "name": "FRENCHTOWN 4.8 S, NJ US",
      "datacoverage": 0.998,
      "id": "GHCND:US1NJHN0065",
      "elevationUnit": "METERS",
      "longitude": -75.0629309
    },
    {
      "elevation": 122.8,
      "mindate": "2022-07-28",
      "maxdate": "2025-02-12",
      "latitude": 40.613337,
      "name": "LEBANON 2.8 SW, NJ US",
      "datacoverage": 0.4866,
      "id": "GHCND:US1NJHN0069",
      "elevationUnit": "METERS",
      "longitude": -74.870273
    },
    {
      "elevation": 148.4,
      "mindate": "2023-06-13",
      "maxdate": "2025-03-06",
      "latitude": 40.585162,
      "name": "ALEXANDRIA TWP 1.1 ESE, NJ US",
      "datacoverage": 0.5055,
      "id": "GHCND:US1NJHN0072",
      "elevationUnit": "METERS",
      "longitude": -75.010452
    },
    {
      "elevation": 54.9,
      "mindate": "2024-08-17",
      "maxdate": "2025-03-06",
      "latitude": 40.622102,
      "name": "READINGTON TWP 2.9 NNE, NJ US",
      "datacoverage": 0.9947,
      "id": "GHCND:US1NJHN0074",
      "elevationUnit": "METERS",
      "longitude": -74.760858
    },
    {
      "elevation": 53.6,
      "mindate": "2008-02-01",
      "maxdate": "2021-10-31",
      "latitude": 40.329517,
      "name": "PENNINGTON 0.5 ENE, NJ US",
      "datacoverage": 1,
      "id": "GHCND:US1NJMC0001",
      "elevationUnit": "METERS",
      "longitude": -74.781978
    },
    {
      "elevation": 24.7,
      "mindate": "2008-01-01",
      "maxdate": "2025-03-06",
      "latitude": 40.2286263784272,
      "name": "HAMILTON TWP 2.3 NE, NJ US",
      "datacoverage": 0.9992,
      "id": "GHCND:US1NJMC0002",
      "elevationUnit": "METERS",
      "longitude": -74.6471536159515
    },
    {
      "elevation": 29.9,
      "mindate": "2008-02-01",
      "maxdate": "2018-04-11",
      "latitude": 40.329375,
      "name": "WEST WINDSOR TWP 3.0 NNW, NJ US",
      "datacoverage": 1,
      "id": "GHCND:US1NJMC0003",
      "elevationUnit": "METERS",
      "longitude": -74.648208
    },
    {
      "elevation": 32,
      "mindate": "2008-05-01",
      "maxdate": "2011-03-12",
      "latitude": 40.224222,
      "name": "HAMILTON TWP 2.2 NE, NJ US",
      "datacoverage": 0.8574,
      "id": "GHCND:US1NJMC0004",
      "elevationUnit": "METERS",
      "longitude": -74.644287
    },
    {
      "elevation": 49.1,
      "mindate": "2008-02-01",
      "maxdate": "2016-08-13",
      "latitude": 40.31,
      "name": "LAWRENCE TWP 1.0 NNW, NJ US",
      "datacoverage": 1,
      "id": "GHCND:US1NJMC0005",
      "elevationUnit": "METERS",
      "longitude": -74.7243
    },
    {
      "elevation": 71,
      "mindate": "2008-03-01",
      "maxdate": "2013-10-20",
      "latitude": 40.324012,
      "name": "HOPEWELL TWP 2.8 WSW, NJ US",
      "datacoverage": 0.485,
      "id": "GHCND:US1NJMC0008",
      "elevationUnit": "METERS",
      "longitude": -74.852322
    },
    {
      "elevation": 30.8,
      "mindate": "2008-03-01",
      "maxdate": "2023-03-21",
      "latitude": 40.270706,
      "name": "LAWRENCE TWP 1.8 SSW, NJ US",
      "datacoverage": 0.9998,
      "id": "GHCND:US1NJMC0009",
      "elevationUnit": "METERS",
      "longitude": -74.729514
    },
    {
      "elevation": 32.3,
      "mindate": "2008-03-01",
      "maxdate": "2025-03-07",
      "latitude": 40.25189,
      "name": "EWING TWP 1.6 SE, NJ US",
      "datacoverage": 0.9998,
      "id": "GHCND:US1NJMC0011",
      "elevationUnit": "METERS",
      "longitude": -74.77509
    },
    {
      "elevation": 25.9,
      "mindate": "2008-06-01",
      "maxdate": "2009-08-23",
      "latitude": 40.2528,
      "name": "LAWRENCE TWP 3.0 S, NJ US",
      "datacoverage": 0.991,
      "id": "GHCND:US1NJMC0012",
      "elevationUnit": "METERS",
      "longitude": -74.7251
    },
    {
      "elevation": 36.9,
      "mindate": "2008-08-01",
      "maxdate": "2010-10-12",
      "latitude": 40.300247,
      "name": "LAWRENCE TWP 0.5 WNW, NJ US",
      "datacoverage": 0.4814,
      "id": "GHCND:US1NJMC0013",
      "elevationUnit": "METERS",
      "longitude": -74.728517
    },
    {
      "elevation": 32.3,
      "mindate": "2008-07-01",
      "maxdate": "2012-05-01",
      "latitude": 40.270346,
      "name": "LAWRENCE TWP 1.8 SSW, NJ US",
      "datacoverage": 1,
      "id": "GHCND:US1NJMC0015",
      "elevationUnit": "METERS",
      "longitude": -74.72747
    },
    {
      "elevation": 38.7,
      "mindate": "2008-08-01",
      "maxdate": "2018-02-19",
      "latitude": 40.2104,
      "name": "ROBBINSVILLE TWP 1.7 WSW, NJ US",
      "datacoverage": 1,
      "id": "GHCND:US1NJMC0016",
      "elevationUnit": "METERS",
      "longitude": -74.6204
    },
    {
      "elevation": 17.4,
      "mindate": "2011-06-01",
      "maxdate": "2015-12-15",
      "latitude": 40.1918420869083,
      "name": "HAMILTON TWP 0.9 S, NJ US",
      "datacoverage": 1,
      "id": "GHCND:US1NJMC0021",
      "elevationUnit": "METERS",
      "longitude": -74.6786440908909
    },
    {
      "elevation": 23.8,
      "mindate": "2011-10-01",
      "maxdate": "2020-08-18",
      "latitude": 40.2733,
      "name": "LAWRENCE TWP 1.6 S, NJ US",
      "datacoverage": 0.9998,
      "id": "GHCND:US1NJMC0022",
      "elevationUnit": "METERS",
      "longitude": -74.7175
    },
    {
      "elevation": 18.3,
      "mindate": "2013-07-01",
      "maxdate": "2023-09-12",
      "latitude": 40.3018413,
      "name": "HOPEWELL TWP 4.6 SW, NJ US",
      "datacoverage": 0.9994,
      "id": "GHCND:US1NJMC0023",
      "elevationUnit": "METERS",
      "longitude": -74.8728855
    },
    {
      "elevation": 80.8,
      "mindate": "2012-07-01",
      "maxdate": "2025-03-06",
      "latitude": 40.373523,
      "name": "HOPEWELL TWP 2.4 NW, NJ US",
      "datacoverage": 0.9998,
      "id": "GHCND:US1NJMC0027",
      "elevationUnit": "METERS",
      "longitude": -74.834657
    },
    {
      "elevation": 46.3,
      "mindate": "2012-08-01",
      "maxdate": "2025-02-25",
      "latitude": 40.277759552002,
      "name": "EWING TWP 1.2 N, NJ US",
      "datacoverage": 1,
      "id": "GHCND:US1NJMC0029",
      "elevationUnit": "METERS",
      "longitude": -74.7925872802734
    },
    {
      "elevation": 61.3,
      "mindate": "1998-06-17",
      "maxdate": "2025-03-07",
      "latitude": 40.304615020752,
      "name": "HOPEWELL TWP 3.9 SE, NJ US",
      "datacoverage": 0.8299,
      "id": "GHCND:US1NJMC0030",
      "elevationUnit": "METERS",
      "longitude": -74.7579803466797
    },
    {
      "elevation": 16.2,
      "mindate": "2013-05-01",
      "maxdate": "2016-06-07",
      "latitude": 40.1950492858887,
      "name": "HAMILTON TWP 2.8 WSW, NJ US",
      "datacoverage": 0.9708,
      "id": "GHCND:US1NJMC0032",
      "elevationUnit": "METERS",
      "longitude": -74.7291946411133
    },
    {
      "elevation": 33.2,
      "mindate": "2014-02-01",
      "maxdate": "2024-12-31",
      "latitude": 40.2628,
      "name": "EAST WINDSOR TWP 1.6 W, NJ US",
      "datacoverage": 1,
      "id": "GHCND:US1NJMC0038",
      "elevationUnit": "METERS",
      "longitude": -74.5593
    },
    {
      "elevation": 57,
      "mindate": "2014-10-01",
      "maxdate": "2020-09-19",
      "latitude": 40.299427,
      "name": "LAWRENCE TWP 1.2 WNW, NJ US",
      "datacoverage": 0.611,
      "id": "GHCND:US1NJMC0039",
      "elevationUnit": "METERS",
      "longitude": -74.742249
    },
    {
      "elevation": 26.2,
      "mindate": "2015-09-01",
      "maxdate": "2018-11-02",
      "latitude": 40.292407,
      "name": "LAWRENCE TWP 0.8 ESE, NJ US",
      "datacoverage": 1,
      "id": "GHCND:US1NJMC0040",
      "elevationUnit": "METERS",
      "longitude": -74.706168
    },
    {
      "elevation": 12.8,
      "mindate": "2016-07-15",
      "maxdate": "2019-01-20",
      "latitude": 40.241512298584,
      "name": "TRENTON 2.8 WNW, NJ US",
      "datacoverage": 0.5739,
      "id": "GHCND:US1NJMC0042",
      "elevationUnit": "METERS",
      "longitude": -74.8128509521484
    },
    {
      "elevation": 53.6,
      "mindate": "2016-06-09",
      "maxdate": "2023-10-10",
      "latitude": 40.354941,
      "name": "PRINCETON 0.7 ESE, NJ US",
      "datacoverage": 0.6896,
      "id": "GHCND:US1NJMC0043",
      "elevationUnit": "METERS",
      "longitude": -74.657362
    },
    {
      "elevation": 24.1,
      "mindate": "2016-08-07",
      "maxdate": "2025-03-06",
      "latitude": 40.3634,
      "name": "PRINCETON 2.3 E, NJ US",
      "datacoverage": 0.9451,
      "id": "GHCND:US1NJMC0044",
      "elevationUnit": "METERS",
      "longitude": -74.6281
    },
    {
      "elevation": 64.6,
      "mindate": "2016-08-31",
      "maxdate": "2025-03-07",
      "latitude": 40.384569,
      "name": "HOPEWELL 0.4 SSW, NJ US",
      "datacoverage": 0.8676,
      "id": "GHCND:US1NJMC0046",
      "elevationUnit": "METERS",
      "longitude": -74.767333
    },
    {
      "elevation": 62.2,
      "mindate": "2017-04-02",
      "maxdate": "2021-04-24",
      "latitude": 40.311618,
      "name": "HOPEWELL TWP 3.2 SW, NJ US",
      "datacoverage": 0.3511,
      "id": "GHCND:US1NJMC0047",
      "elevationUnit": "METERS",
      "longitude": -74.847594
    },
    {
      "elevation": 64.9,
      "mindate": "2018-06-14",
      "maxdate": "2025-03-07",
      "latitude": 40.3083,
      "name": "PENNINGTON 1.7 SE, NJ US",
      "datacoverage": 1,
      "id": "GHCND:US1NJMC0049",
      "elevationUnit": "METERS",
      "longitude": -74.7693
    },
    {
      "elevation": 33.5,
      "mindate": "2010-08-09",
      "maxdate": "2020-09-04",
      "latitude": 40.241326,
      "name": "EWING TWP 2.1 SE, NJ US",
      "datacoverage": 0.1151,
      "id": "GHCND:US1NJMC0050",
      "elevationUnit": "METERS",
      "longitude": -74.775514
    },
    {
      "elevation": 25,
      "mindate": "2019-01-07",
      "maxdate": "2025-03-07",
      "latitude": 40.32654,
      "name": "WEST WINDSOR TWP 2.6 N, NJ US",
      "datacoverage": 0.7216,
      "id": "GHCND:US1NJMC0056",
      "elevationUnit": "METERS",
      "longitude": -74.63114
    },
    {
      "elevation": 29.9,
      "mindate": "2019-06-14",
      "maxdate": "2025-03-06",
      "latitude": 40.333415,
      "name": "PRINCETON 1.7 SSE, NJ US",
      "datacoverage": 0.5695,
      "id": "GHCND:US1NJMC0057",
      "elevationUnit": "METERS",
      "longitude": -74.659508
    },
    {
      "elevation": 43.9,
      "mindate": "2020-06-01",
      "maxdate": "2021-04-13",
      "latitude": 40.360244,
      "name": "PRINCETON 1.3 E, NJ US",
      "datacoverage": 1,
      "id": "GHCND:US1NJMC0059",
      "elevationUnit": "METERS",
      "longitude": -74.646574
    },
    {
      "elevation": 41.5,
      "mindate": "2020-07-24",
      "maxdate": "2021-05-07",
      "latitude": 40.350125,
      "name": "PRINCETON 1.6 ESE, NJ US",
      "datacoverage": 0.9925,
      "id": "GHCND:US1NJMC0061",
      "elevationUnit": "METERS",
      "longitude": -74.640518
    },
    {
      "elevation": 57.9,
      "mindate": "2020-08-29",
      "maxdate": "2025-03-07",
      "latitude": 40.323963,
      "name": "PENNINGTON 0.5 ESE, NJ US",
      "datacoverage": 0.9038,
      "id": "GHCND:US1NJMC0062",
      "elevationUnit": "METERS",
      "longitude": -74.780688
    },
    {
      "elevation": 18.3,
      "mindate": "2021-08-10",
      "maxdate": "2022-11-15",
      "latitude": 40.305539,
      "name": "HOPEWELL TWP 4.6 SW, NJ US",
      "datacoverage": 0.998,
      "id": "GHCND:US1NJMC0064",
      "elevationUnit": "METERS",
      "longitude": -74.877457
    },
    {
      "elevation": 27.1,
      "mindate": "2021-07-01",
      "maxdate": "2025-03-07",
      "latitude": 40.2361489316549,
      "name": "HAMILTON TWP 2.6 NNE, NJ US",
      "datacoverage": 1,
      "id": "GHCND:US1NJMC0065",
      "elevationUnit": "METERS",
      "longitude": -74.6502706307096
    },
    {
      "elevation": 31.4,
      "mindate": "2008-01-01",
      "maxdate": "2008-09-07",
      "latitude": 40.524461,
      "name": "PERTH AMBOY 1.2 WNW, NJ US",
      "datacoverage": 0.9998,
      "id": "GHCND:US1NJMD0001",
      "elevationUnit": "METERS",
      "longitude": -74.2921
    },
    {
      "elevation": 32.6,
      "mindate": "2008-01-01",
      "maxdate": "2025-03-07",
      "latitude": 40.447,
      "name": "NORTH BRUNSWICK TWP 1.5 W, NJ US",
      "datacoverage": 1,
      "id": "GHCND:US1NJMD0002",
      "elevationUnit": "METERS",
      "longitude": -74.508
    },
    {
      "elevation": 29,
      "mindate": "2008-02-01",
      "maxdate": "2017-05-16",
      "latitude": 40.3003,
      "name": "CRANBURY TWP 0.9 SSW, NJ US",
      "datacoverage": 0.9493,
      "id": "GHCND:US1NJMD0006",
      "elevationUnit": "METERS",
      "longitude": -74.5286
    },
    {
      "elevation": 36.6,
      "mindate": "2008-03-01",
      "maxdate": "2010-07-28",
      "latitude": 40.339185,
      "name": "MONROE TWP 1.6 NNW, NJ US",
      "datacoverage": 0.9996,
      "id": "GHCND:US1NJMD0007",
      "elevationUnit": "METERS",
      "longitude": -74.446102
    },
    {
      "elevation": 67.1,
      "mindate": "2008-03-01",
      "maxdate": "2025-01-22",
      "latitude": 40.4099,
      "name": "SOUTH BRUNSWICK TWP 3.1 NW, NJ US",
      "datacoverage": 0.9998,
      "id": "GHCND:US1NJMD0009",
      "elevationUnit": "METERS",
      "longitude": -74.573
    },
    {
      "elevation": 15.8,
      "mindate": "2008-04-01",
      "maxdate": "2008-10-06",
      "latitude": 40.4871095530118,
      "name": "SOUTH AMBOY 0.9 W, NJ US",
      "datacoverage": 0.9956,
      "id": "GHCND:US1NJMD0011",
      "elevationUnit": "METERS",
      "longitude": -74.2950063943863
    },
    {
      "elevation": 29,
      "mindate": "2008-07-01",
      "maxdate": "2016-01-16",
      "latitude": 40.4030718772118,
      "name": "SOUTH BRUNSWICK TWP 1.3 NNE, NJ US",
      "datacoverage": 0.6165,
      "id": "GHCND:US1NJMD0015",
      "elevationUnit": "METERS",
      "longitude": -74.5199203491211
    },
    {
      "elevation": 24.4,
      "mindate": "2008-10-01",
      "maxdate": "2011-08-05",
      "latitude": 40.496988,
      "name": "HIGHLAND PARK 0.2 S, NJ US",
      "datacoverage": 0.343,
      "id": "GHCND:US1NJMD0018",
      "elevationUnit": "METERS",
      "longitude": -74.429122
    },
    {
      "elevation": 22.3,
      "mindate": "2009-10-01",
      "maxdate": "2014-11-25",
      "latitude": 40.578894,
      "name": "SOUTH PLAINFIELD 0.8 ENE, NJ US",
      "datacoverage": 0.9355,
      "id": "GHCND:US1NJMD0023",
      "elevationUnit": "METERS",
      "longitude": -74.401399
    },
    {
      "elevation": 29.3,
      "mindate": "2009-09-01",
      "maxdate": "2025-02-20",
      "latitude": 40.539152,
      "name": "PISCATAWAY TWP 1.0 WSW, NJ US",
      "datacoverage": 0.9876,
      "id": "GHCND:US1NJMD0024",
      "elevationUnit": "METERS",
      "longitude": -74.479538
    },
    {
      "elevation": 34.7,
      "mindate": "2009-10-01",
      "maxdate": "2011-05-25",
      "latitude": 40.469777,
      "name": "NORTH BRUNSWICK TWP 1.7 NE, NJ US",
      "datacoverage": 0.801,
      "id": "GHCND:US1NJMD0025",
      "elevationUnit": "METERS",
      "longitude": -74.460693
    },
    {
      "elevation": 12.5,
      "mindate": "2010-09-01",
      "maxdate": "2025-03-06",
      "latitude": 40.4896492,
      "name": "NEW BRUNSWICK 0.3 NE, NJ US",
      "datacoverage": 1,
      "id": "GHCND:US1NJMD0028",
      "elevationUnit": "METERS",
      "longitude": -74.4408766
    },
    {
      "elevation": 33.2,
      "mindate": "2011-05-01",
      "maxdate": "2012-10-08",
      "latitude": 40.451308,
      "name": "OLD BRIDGE TWP 3.3 N, NJ US",
      "datacoverage": 0.9961,
      "id": "GHCND:US1NJMD0031",
      "elevationUnit": "METERS",
      "longitude": -74.312877
    },
    {
      "elevation": 18.9,
      "mindate": "2011-10-01",
      "maxdate": "2014-07-15",
      "latitude": 40.5835267,
      "name": "SOUTH PLAINFIELD 0.9 NW, NJ US",
      "datacoverage": 0.8234,
      "id": "GHCND:US1NJMD0033",
      "elevationUnit": "METERS",
      "longitude": -74.428423
    },
    {
      "elevation": 35.4,
      "mindate": "2011-08-01",
      "maxdate": "2024-12-20",
      "latitude": 40.5628918,
      "name": "EDISON TWP 1.9 N, NJ US",
      "datacoverage": 0.8569,
      "id": "GHCND:US1NJMD0038",
      "elevationUnit": "METERS",
      "longitude": -74.3669021
    },
    {
      "elevation": 16.2,
      "mindate": "2011-12-01",
      "maxdate": "2022-07-30",
      "latitude": 40.473863,
      "name": "EAST BRUNSWICK TWP 3.3 NNE, NJ US",
      "datacoverage": 0.9998,
      "id": "GHCND:US1NJMD0039",
      "elevationUnit": "METERS",
      "longitude": -74.400046
    }
  ]
}
