{
  "metadata": {
    "resultset": {
      "offset": 140700,
      "count": 154115,
      "limit": 100
    }
  },
  "results": [
    {
      "elevation": 271,
      "mindate": "1951-07-01",
      "maxdate": "1962-03-31",
      "latitude": 35.78333,
      "name": "WILDWOOD, TN US",
      "datacoverage": 0.9992,
      "id": "GHCND:USC00409760",
      "elevationUnit": "METERS",
      "longitude": -83.88333
    },
    {
      "elevation": 302.1,
      "mindate": "1956-01-01",
      "maxdate": "1962-03-31",
      "latitude": 35.18333,
      "name": "WINCHESTER, TN US",
      "datacoverage": 1,
      "id": "GHCND:USC00409780",
      "elevationUnit": "METERS",
      "longitude": -86.11667
    },
    {
      "elevation": 292.9,
      "mindate": "1949-01-01",
      "maxdate": "1962-03-31",
      "latitude": 35.23333,
      "name": "WINCHESTER SUBSTN, TN US",
      "datacoverage": 1,
      "id": "GHCND:USC00409785",
      "elevationUnit": "METERS",
      "longitude": -86.1
    },
    {
      "elevation": 286.8,
      "mindate": "1985-01-01",
      "maxdate": "2025-01-31",
      "latitude": 35.1615,
      "name": "WINCHESTER 5 SE, TN US",
      "datacoverage": 1,
      "id": "GHCND:USC00409800",
      "elevationUnit": "METERS",
      "longitude": -86.0315
    },
    {
      "elevation": 366.1,
      "mindate": "1949-01-01",
      "maxdate": "1962-03-31",
      "latitude": 35.91667,
      "name": "WOLF CREEK, TN US",
      "datacoverage": 0.994,
      "id": "GHCND:USC00409847",
      "elevationUnit": "METERS",
      "longitude": -82.93333
    },
    {
      "elevation": 367.9,
      "mindate": "1954-07-01",
      "maxdate": "2025-03-06",
      "latitude": 35.7764,
      "name": "WOODBURY 1 WNW, TN US",
      "datacoverage": 1,
      "id": "GHCND:USC00409866",
      "elevationUnit": "METERS",
      "longitude": -86.0172
    },
    {
      "elevation": 167.9,
      "mindate": "1901-12-01",
      "maxdate": "1944-12-31",
      "latitude": 36.33333,
      "name": "WORSHAM, TN US",
      "datacoverage": 0.9864,
      "id": "GHCND:USC00409907",
      "elevationUnit": "METERS",
      "longitude": -86.68333
    },
    {
      "elevation": 1211.9,
      "mindate": "2021-01-01",
      "maxdate": "2025-03-06",
      "latitude": 36.0542,
      "name": "DALHART 2 SE, TX US",
      "datacoverage": 1,
      "id": "GHCND:USC00410011",
      "elevationUnit": "METERS",
      "longitude": -102.5028
    },
    {
      "elevation": 1023.8,
      "mindate": "1943-11-01",
      "maxdate": "2025-03-07",
      "latitude": 33.84105,
      "name": "ABERNATHY, TX US",
      "datacoverage": 1,
      "id": "GHCND:USC00410012",
      "elevationUnit": "METERS",
      "longitude": -101.85083
    },
    {
      "elevation": 549.2,
      "mindate": "2001-01-01",
      "maxdate": "2025-03-07",
      "latitude": 32.43176,
      "name": "ABILENE 6 ESE, TX US",
      "datacoverage": 1,
      "id": "GHCND:USC00410013",
      "elevationUnit": "METERS",
      "longitude": -99.63262
    },
    {
      "elevation": 132.6,
      "mindate": "1978-01-01",
      "maxdate": "2010-12-31",
      "latitude": 28.1569,
      "name": "LOMA ALTA, TX US",
      "datacoverage": 1,
      "id": "GHCND:USC00410025",
      "elevationUnit": "METERS",
      "longitude": -98.5141
    },
    {
      "elevation": 809.2,
      "mindate": "1940-08-01",
      "maxdate": "2002-01-31",
      "latitude": 32.50972,
      "name": "ACKERLY 4 SE, TX US",
      "datacoverage": 0.9444,
      "id": "GHCND:USC00410034",
      "elevationUnit": "METERS",
      "longitude": -101.67472
    },
    {
      "elevation": 612.6,
      "mindate": "1992-01-01",
      "maxdate": "2025-03-04",
      "latitude": 30.33696,
      "name": "ACTON RANCH, TX US",
      "datacoverage": 1,
      "id": "GHCND:USC00410040",
      "elevationUnit": "METERS",
      "longitude": -101.2503
    },
    {
      "elevation": 313.9,
      "mindate": "1963-09-01",
      "maxdate": "1987-12-31",
      "latitude": 31.28333,
      "name": "ADAMSVILLE, TX US",
      "datacoverage": 0.9315,
      "id": "GHCND:USC00410050",
      "elevationUnit": "METERS",
      "longitude": -98.15
    },
    {
      "elevation": 196.3,
      "mindate": "2021-03-18",
      "maxdate": "2025-03-06",
      "latitude": 32.96861,
      "name": "DALLAS ADDISON AIRPORT, TX US",
      "datacoverage": 0.9993,
      "id": "GHCND:USC00410058",
      "elevationUnit": "METERS",
      "longitude": -96.83639
    },
    {
      "elevation": 1232,
      "mindate": "1938-05-01",
      "maxdate": "1948-08-31",
      "latitude": 35.28333,
      "name": "ADRIAN, TX US",
      "datacoverage": 0.7658,
      "id": "GHCND:USC00410068",
      "elevationUnit": "METERS",
      "longitude": -102.66667
    },
    {
      "elevation": 787,
      "mindate": "1974-01-01",
      "maxdate": "1978-03-31",
      "latitude": 35.51667,
      "name": "ADOBE WELLS SCOUT CAMP, TX US",
      "datacoverage": 1,
      "id": "GHCND:USC00410070",
      "elevationUnit": "METERS",
      "longitude": -100.36667
    },
    {
      "elevation": 1229,
      "mindate": "2007-05-01",
      "maxdate": "2025-03-05",
      "latitude": 35.3489,
      "name": "ADRIAN 6 N, TX US",
      "datacoverage": 1,
      "id": "GHCND:USC00410071",
      "elevationUnit": "METERS",
      "longitude": -102.647
    },
    {
      "elevation": 25.9,
      "mindate": "1987-03-01",
      "maxdate": "1987-09-30",
      "latitude": 27.78333,
      "name": "AGUA DULCE, TX US",
      "datacoverage": 1,
      "id": "GHCND:USC00410073",
      "elevationUnit": "METERS",
      "longitude": -97.9
    },
    {
      "elevation": 999.1,
      "mindate": "2009-01-01",
      "maxdate": "2014-03-31",
      "latitude": 29.548,
      "name": "AGUA FRIA, TX US",
      "datacoverage": 0.9991,
      "id": "GHCND:USC00410077",
      "elevationUnit": "METERS",
      "longitude": -103.5863
    },
    {
      "elevation": 139.9,
      "mindate": "1940-04-01",
      "maxdate": "1964-12-31",
      "latitude": 26.9,
      "name": "AGUA NUEVA, TX US",
      "datacoverage": 0.9898,
      "id": "GHCND:USC00410081",
      "elevationUnit": "METERS",
      "longitude": -98.6
    },
    {
      "elevation": 441.4,
      "mindate": "1893-01-01",
      "maxdate": "2025-03-07",
      "latitude": 32.7047,
      "name": "ALBANY, TX US",
      "datacoverage": 1,
      "id": "GHCND:USC00410120",
      "elevationUnit": "METERS",
      "longitude": -99.3012
    },
    {
      "elevation": 240.8,
      "mindate": "1960-09-01",
      "maxdate": "2010-12-31",
      "latitude": 32.64444,
      "name": "ALEDO 4 SE, TX US",
      "datacoverage": 1,
      "id": "GHCND:USC00410129",
      "elevationUnit": "METERS",
      "longitude": -97.56167
    },
    {
      "elevation": 61.3,
      "mindate": "1893-01-01",
      "maxdate": "2010-12-31",
      "latitude": 27.72833,
      "name": "ALICE, TX US",
      "datacoverage": 1,
      "id": "GHCND:USC00410144",
      "elevationUnit": "METERS",
      "longitude": -98.06778
    },
    {
      "elevation": 792.5,
      "mindate": "2001-08-01",
      "maxdate": "2024-10-31",
      "latitude": 35.6103,
      "name": "ALLISON, TX US",
      "datacoverage": 1,
      "id": "GHCND:USC00410157",
      "elevationUnit": "METERS",
      "longitude": -100.1022
    },
    {
      "elevation": 694.9,
      "mindate": "1964-10-01",
      "maxdate": "1965-04-30",
      "latitude": 30.08333,
      "name": "ALLISON RANCH, TX US",
      "datacoverage": 0.5802,
      "id": "GHCND:USC00410160",
      "elevationUnit": "METERS",
      "longitude": -100.38333
    },
    {
      "elevation": 1356.4,
      "mindate": "1900-01-01",
      "maxdate": "2020-02-06",
      "latitude": 30.3763,
      "name": "ALPINE, TX US",
      "datacoverage": 1,
      "id": "GHCND:USC00410174",
      "elevationUnit": "METERS",
      "longitude": -103.66
    },
    {
      "elevation": 1500.2,
      "mindate": "2009-01-01",
      "maxdate": "2025-03-06",
      "latitude": 30.3703,
      "name": "ALPINE 7 NW, TX US",
      "datacoverage": 1,
      "id": "GHCND:USC00410176",
      "elevationUnit": "METERS",
      "longitude": -103.7808
    },
    {
      "elevation": 4.3,
      "mindate": "1944-01-01",
      "maxdate": "1945-07-31",
      "latitude": 29.383333,
      "name": "ALTA LOMA, TX US",
      "datacoverage": 1,
      "id": "GHCND:USC00410183",
      "elevationUnit": "METERS",
      "longitude": -95.066667
    },
    {
      "elevation": 134.1,
      "mindate": "1940-04-01",
      "maxdate": "1942-05-31",
      "latitude": 31.65,
      "name": "ALTO, TX US",
      "datacoverage": 0.962,
      "id": "GHCND:USC00410185",
      "elevationUnit": "METERS",
      "longitude": -95.083333
    },
    {
      "elevation": 85.3,
      "mindate": "1941-09-01",
      "maxdate": "2010-12-31",
      "latitude": 31.60944,
      "name": "ALTO 5 SW, TX US",
      "datacoverage": 1,
      "id": "GHCND:USC00410190",
      "elevationUnit": "METERS",
      "longitude": -95.13417
    },
    {
      "elevation": 210,
      "mindate": "1940-06-01",
      "maxdate": "1964-10-31",
      "latitude": 32.41667,
      "name": "ALVARADO, TX US",
      "datacoverage": 0.9999,
      "id": "GHCND:USC00410201",
      "elevationUnit": "METERS",
      "longitude": -97.21667
    },
    {
      "elevation": 215.2,
      "mindate": "1987-01-01",
      "maxdate": "2020-08-14",
      "latitude": 32.4644,
      "name": "ALVARADO 4 NE, TX US",
      "datacoverage": 1,
      "id": "GHCND:USC00410202",
      "elevationUnit": "METERS",
      "longitude": -97.183
    },
    {
      "elevation": 8.5,
      "mindate": "1898-01-01",
      "maxdate": "2013-09-01",
      "latitude": 29.3653,
      "name": "ALVIN, TX US",
      "datacoverage": 1,
      "id": "GHCND:USC00410204",
      "elevationUnit": "METERS",
      "longitude": -95.2337
    },
    {
      "elevation": 307.8,
      "mindate": "1948-06-01",
      "maxdate": "2020-10-31",
      "latitude": 33.3866,
      "name": "ALVORD 3 N, TX US",
      "datacoverage": 1,
      "id": "GHCND:USC00410206",
      "elevationUnit": "METERS",
      "longitude": -97.7163
    },
    {
      "elevation": 1094.2,
      "mindate": "2018-07-01",
      "maxdate": "2025-03-04",
      "latitude": 35.2327,
      "name": "AMARILLO 7 ENE, TX US",
      "datacoverage": 0.9991,
      "id": "GHCND:USC00410213",
      "elevationUnit": "METERS",
      "longitude": -101.7092
    },
    {
      "elevation": 164,
      "mindate": "2003-11-01",
      "maxdate": "2009-12-31",
      "latitude": 33.67667,
      "name": "AMBROSE, TX US",
      "datacoverage": 0.9997,
      "id": "GHCND:USC00410219",
      "elevationUnit": "METERS",
      "longitude": -96.37583
    },
    {
      "elevation": 352.7,
      "mindate": "1964-05-01",
      "maxdate": "2025-03-06",
      "latitude": 29.4608,
      "name": "AMISTAD DAM, TX US",
      "datacoverage": 1,
      "id": "GHCND:USC00410225",
      "elevationUnit": "METERS",
      "longitude": -101.0286
    },
    {
      "elevation": 7.3,
      "mindate": "1909-01-01",
      "maxdate": "2019-04-14",
      "latitude": 29.7878,
      "name": "ANAHUAC, TX US",
      "datacoverage": 1,
      "id": "GHCND:USC00410235",
      "elevationUnit": "METERS",
      "longitude": -94.6343
    },
    {
      "elevation": 107,
      "mindate": "1914-01-01",
      "maxdate": "1972-09-30",
      "latitude": 30.48333,
      "name": "ANDERSON, TX US",
      "datacoverage": 0.9771,
      "id": "GHCND:USC00410244",
      "elevationUnit": "METERS",
      "longitude": -95.98333
    },
    {
      "elevation": 326.7,
      "mindate": "1968-02-01",
      "maxdate": "2023-01-31",
      "latitude": 30.7579,
      "name": "ANDICE 2 SW, TX US",
      "datacoverage": 1,
      "id": "GHCND:USC00410246",
      "elevationUnit": "METERS",
      "longitude": -97.8615
    },
    {
      "elevation": 972.9,
      "mindate": "1914-01-01",
      "maxdate": "2010-12-31",
      "latitude": 32.34833,
      "name": "ANDREWS, TX US",
      "datacoverage": 1,
      "id": "GHCND:USC00410248",
      "elevationUnit": "METERS",
      "longitude": -102.55167
    },
    {
      "elevation": 980.2,
      "mindate": "2008-11-01",
      "maxdate": "2019-01-01",
      "latitude": 32.3123,
      "name": "ANDREWS 2, TX US",
      "datacoverage": 0.9779,
      "id": "GHCND:USC00410250",
      "elevationUnit": "METERS",
      "longitude": -102.5606
    },
    {
      "elevation": 8.2,
      "mindate": "1895-06-01",
      "maxdate": "2024-01-31",
      "latitude": 29.1573,
      "name": "ANGLETON 2 W, TX US",
      "datacoverage": 1,
      "id": "GHCND:USC00410257",
      "elevationUnit": "METERS",
      "longitude": -95.4593
    },
    {
      "elevation": 207.3,
      "mindate": "1898-01-01",
      "maxdate": "2010-12-31",
      "latitude": 33.35,
      "name": "ANNA, TX US",
      "datacoverage": 1,
      "id": "GHCND:USC00410262",
      "elevationUnit": "METERS",
      "longitude": -96.51667
    },
    {
      "elevation": 523.3,
      "mindate": "1898-01-01",
      "maxdate": "2025-03-07",
      "latitude": 32.76678,
      "name": "ANSON, TX US",
      "datacoverage": 1,
      "id": "GHCND:USC00410268",
      "elevationUnit": "METERS",
      "longitude": -99.89013
    },
    {
      "elevation": 312.4,
      "mindate": "1910-09-01",
      "maxdate": "2025-03-07",
      "latitude": 33.4413,
      "name": "ANTELOPE, TX US",
      "datacoverage": 1,
      "id": "GHCND:USC00410271",
      "elevationUnit": "METERS",
      "longitude": -98.3688
    },
    {
      "elevation": 1427.1,
      "mindate": "1943-08-01",
      "maxdate": "1944-08-31",
      "latitude": 30.18333,
      "name": "ANTELOPE SPRINGS RAN, TX US",
      "datacoverage": 1,
      "id": "GHCND:USC00410273",
      "elevationUnit": "METERS",
      "longitude": -103.91667
    },
    {
      "elevation": 136.9,
      "mindate": "1940-01-01",
      "maxdate": "1947-07-31",
      "latitude": 31.7,
      "name": "APPLEBY, TX US",
      "datacoverage": 0.6705,
      "id": "GHCND:USC00410293",
      "elevationUnit": "METERS",
      "longitude": -94.61667
    },
    {
      "elevation": 156.4,
      "mindate": "1992-01-01",
      "maxdate": "2025-03-05",
      "latitude": 31.83894,
      "name": "AQUILLA 1 SSE, TX US",
      "datacoverage": 1,
      "id": "GHCND:USC00410297",
      "elevationUnit": "METERS",
      "longitude": -97.21084
    },
    {
      "elevation": 6.1,
      "mindate": "1897-06-01",
      "maxdate": "1971-07-31",
      "latitude": 27.91667,
      "name": "ARANSAS PASS 2, TX US",
      "datacoverage": 0.7237,
      "id": "GHCND:USC00410302",
      "elevationUnit": "METERS",
      "longitude": -97.13333
    },
    {
      "elevation": 4.6,
      "mindate": "1971-01-01",
      "maxdate": "2013-11-30",
      "latitude": 28.30806,
      "name": "ARANSAS WILDLIFE REFUGE, TX US",
      "datacoverage": 1,
      "id": "GHCND:USC00410305",
      "elevationUnit": "METERS",
      "longitude": -96.80472
    },
    {
      "elevation": 305.1,
      "mindate": "1910-01-01",
      "maxdate": "2017-07-31",
      "latitude": 33.59878,
      "name": "ARCHER CITY 2 W, TX US",
      "datacoverage": 1,
      "id": "GHCND:USC00410313",
      "elevationUnit": "METERS",
      "longitude": -98.6544
    },
    {
      "elevation": 163.4,
      "mindate": "1893-01-01",
      "maxdate": "2020-12-13",
      "latitude": 32.7572,
      "name": "ARLINGTON SIX FLAGS, TX US",
      "datacoverage": 1,
      "id": "GHCND:USC00410337",
      "elevationUnit": "METERS",
      "longitude": -97.0736
    },
    {
      "elevation": 7.6,
      "mindate": "1942-08-01",
      "maxdate": "1978-11-30",
      "latitude": 26.93333,
      "name": "ARMSTRONG, TX US",
      "datacoverage": 0.7959,
      "id": "GHCND:USC00410342",
      "elevationUnit": "METERS",
      "longitude": -97.8
    },
    {
      "elevation": 7.6,
      "mindate": "2005-04-01",
      "maxdate": "2025-03-07",
      "latitude": 26.8338,
      "name": "ARMSTRONG 4 SE, TX US",
      "datacoverage": 1,
      "id": "GHCND:USC00410345",
      "elevationUnit": "METERS",
      "longitude": -97.7077
    },
    {
      "elevation": 129.5,
      "mindate": "1891-01-01",
      "maxdate": "1970-06-30",
      "latitude": 33.87556,
      "name": "ARTHUR CITY, OK US",
      "datacoverage": 0.9307,
      "id": "GHCND:USC00410367",
      "elevationUnit": "METERS",
      "longitude": -95.50222
    },
    {
      "elevation": 167.9,
      "mindate": "1948-06-01",
      "maxdate": "1951-09-30",
      "latitude": 28.43333,
      "name": "ASHERTON, TX US",
      "datacoverage": 0.8003,
      "id": "GHCND:USC00410380",
      "elevationUnit": "METERS",
      "longitude": -99.75
    },
    {
      "elevation": 534.6,
      "mindate": "1911-07-01",
      "maxdate": "2025-03-07",
      "latitude": 33.15251,
      "name": "ASPERMONT, TX US",
      "datacoverage": 1,
      "id": "GHCND:USC00410394",
      "elevationUnit": "METERS",
      "longitude": -100.23319
    },
    {
      "elevation": 136.6,
      "mindate": "1903-12-01",
      "maxdate": "2025-03-06",
      "latitude": 32.1633,
      "name": "ATHENS, TX US",
      "datacoverage": 1,
      "id": "GHCND:USC00410404",
      "elevationUnit": "METERS",
      "longitude": -95.83
    },
    {
      "elevation": 96,
      "mindate": "1930-01-01",
      "maxdate": "2025-03-07",
      "latitude": 33.1244,
      "name": "ATLANTA, TX US",
      "datacoverage": 1,
      "id": "GHCND:USC00410408",
      "elevationUnit": "METERS",
      "longitude": -94.1661
    },
    {
      "elevation": 189,
      "mindate": "1941-08-01",
      "maxdate": "1941-12-31",
      "latitude": 33.016667,
      "name": "AUBREY NEAR, TX US",
      "datacoverage": 1,
      "id": "GHCND:USC00410415",
      "elevationUnit": "METERS",
      "longitude": -97.066667
    },
    {
      "elevation": 180.1,
      "mindate": "1893-02-01",
      "maxdate": "1942-07-31",
      "latitude": 30.28333,
      "name": "AUSTIN, TX US",
      "datacoverage": 0.9614,
      "id": "GHCND:USC00410420",
      "elevationUnit": "METERS",
      "longitude": -97.73333
    },
    {
      "elevation": 152.4,
      "mindate": "1996-09-01",
      "maxdate": "1997-07-31",
      "latitude": 30.28056,
      "name": "AUSTIN WATER TREATMENT PLANT, TX US",
      "datacoverage": 0.9113,
      "id": "GHCND:USC00410427",
      "elevationUnit": "METERS",
      "longitude": -97.65361
    },
    {
      "elevation": 161.8,
      "mindate": "1948-03-01",
      "maxdate": "1965-12-31",
      "latitude": 30.3,
      "name": "AUSTIN DAM, TX US",
      "datacoverage": 0.9767,
      "id": "GHCND:USC00410430",
      "elevationUnit": "METERS",
      "longitude": -97.78333
    },
    {
      "elevation": 173.7,
      "mindate": "2004-01-01",
      "maxdate": "2019-01-31",
      "latitude": 30.2247,
      "name": "AUSTIN 6 S, TX US",
      "datacoverage": 1,
      "id": "GHCND:USC00410431",
      "elevationUnit": "METERS",
      "longitude": -97.7327
    },
    {
      "elevation": 156.1,
      "mindate": "1903-01-01",
      "maxdate": "1963-07-31",
      "latitude": 30.25,
      "name": "AUSTIN MONTOPOLIS BR, TX US",
      "datacoverage": 0.9889,
      "id": "GHCND:USC00410432",
      "elevationUnit": "METERS",
      "longitude": -97.68333
    },
    {
      "elevation": 268.2,
      "mindate": "2005-06-01",
      "maxdate": "2025-03-07",
      "latitude": 30.4144,
      "name": "AUSTIN GREAT HILLS, TX US",
      "datacoverage": 1,
      "id": "GHCND:USC00410433",
      "elevationUnit": "METERS",
      "longitude": -97.7664
    },
    {
      "elevation": 7,
      "mindate": "1897-01-01",
      "maxdate": "2025-03-07",
      "latitude": 28.389,
      "name": "AUSTWELL, TX US",
      "datacoverage": 0.5116,
      "id": "GHCND:USC00410436",
      "elevationUnit": "METERS",
      "longitude": -96.8388
    },
    {
      "elevation": 4.6,
      "mindate": "1940-01-01",
      "maxdate": "1970-12-31",
      "latitude": 28.30806,
      "name": "ARANSAS WILDLIFE REFUGE, TX US",
      "datacoverage": 0.9836,
      "id": "GHCND:USC00410437",
      "elevationUnit": "METERS",
      "longitude": -96.80472
    },
    {
      "elevation": 161.5,
      "mindate": "1964-12-01",
      "maxdate": "2003-12-31",
      "latitude": 32.20667,
      "name": "AVALON, TX US",
      "datacoverage": 0.9744,
      "id": "GHCND:USC00410440",
      "elevationUnit": "METERS",
      "longitude": -96.79583
    },
    {
      "elevation": 118.9,
      "mindate": "2001-01-01",
      "maxdate": "2025-03-06",
      "latitude": 33.6247,
      "name": "AVERY 5 NNW, TX US",
      "datacoverage": 1,
      "id": "GHCND:USC00410443",
      "elevationUnit": "METERS",
      "longitude": -94.8075
    },
    {
      "elevation": 91.4,
      "mindate": "1940-06-01",
      "maxdate": "1941-12-31",
      "latitude": 28.716667,
      "name": "BAINVILLE NEAR SOIL CONSERVATION SERVICE NUMBER 1, TX US",
      "datacoverage": 0.9462,
      "id": "GHCND:USC00410474",
      "elevationUnit": "METERS",
      "longitude": -97.933333
    },
    {
      "elevation": 527.9,
      "mindate": "1948-03-01",
      "maxdate": "1980-04-30",
      "latitude": 32.4,
      "name": "BAIRD, TX US",
      "datacoverage": 0.8471,
      "id": "GHCND:USC00410478",
      "elevationUnit": "METERS",
      "longitude": -99.4
    },
    {
      "elevation": 460.2,
      "mindate": "1981-01-01",
      "maxdate": "1987-12-31",
      "latitude": 29.95,
      "name": "BAKERS CROSSING, TX US",
      "datacoverage": 0.9765,
      "id": "GHCND:USC00410479",
      "elevationUnit": "METERS",
      "longitude": -101.15
    },
    {
      "elevation": 776.3,
      "mindate": "1942-01-01",
      "maxdate": "2020-05-19",
      "latitude": 30.8878,
      "name": "BAKERSFIELD, TX US",
      "datacoverage": 1,
      "id": "GHCND:USC00410482",
      "elevationUnit": "METERS",
      "longitude": -102.3008
    },
    {
      "elevation": 939.1,
      "mindate": "1980-07-01",
      "maxdate": "1982-05-31",
      "latitude": 30.71667,
      "name": "BAKERSFIELD 11 SSE, TX US",
      "datacoverage": 0.8696,
      "id": "GHCND:USC00410484",
      "elevationUnit": "METERS",
      "longitude": -102.21667
    },
    {
      "elevation": 518.2,
      "mindate": "1897-01-01",
      "maxdate": "2025-03-06",
      "latitude": 31.7413,
      "name": "BALLINGER 2 NW, TX US",
      "datacoverage": 1,
      "id": "GHCND:USC00410493",
      "elevationUnit": "METERS",
      "longitude": -99.9763
    },
    {
      "elevation": 972.9,
      "mindate": "1949-03-01",
      "maxdate": "1951-06-03",
      "latitude": 30.98333,
      "name": "BALMORHEA, TX US",
      "datacoverage": 0.7502,
      "id": "GHCND:USC00410495",
      "elevationUnit": "METERS",
      "longitude": -103.73333
    },
    {
      "elevation": 1524.9,
      "mindate": "1953-03-01",
      "maxdate": "1953-10-31",
      "latitude": 30.85,
      "name": "BALMORHEA CIRCLE H R, TX US",
      "datacoverage": 0.9939,
      "id": "GHCND:USC00410497",
      "elevationUnit": "METERS",
      "longitude": -103.98333
    },
    {
      "elevation": 970.8,
      "mindate": "1923-01-01",
      "maxdate": "2023-10-31",
      "latitude": 30.9839,
      "name": "BALMORHEA, TX US",
      "datacoverage": 1,
      "id": "GHCND:USC00410498",
      "elevationUnit": "METERS",
      "longitude": -103.7408
    },
    {
      "elevation": 1007.1,
      "mindate": "1953-03-01",
      "maxdate": "1958-11-30",
      "latitude": 30.93333,
      "name": "BALMORHEA GRAEF RANC, TX US",
      "datacoverage": 0.9706,
      "id": "GHCND:USC00410499",
      "elevationUnit": "METERS",
      "longitude": -103.51667
    },
    {
      "elevation": 533.4,
      "mindate": "1948-06-01",
      "maxdate": "2012-06-20",
      "latitude": 30.14,
      "name": "BANKERSMITH, TX US",
      "datacoverage": 1,
      "id": "GHCND:USC00410509",
      "elevationUnit": "METERS",
      "longitude": -98.8188
    },
    {
      "elevation": 592.8,
      "mindate": "2013-01-01",
      "maxdate": "2018-09-22",
      "latitude": 30.1196,
      "name": "BANKERSMITH 2 SE, TX US",
      "datacoverage": 1,
      "id": "GHCND:USC00410510",
      "elevationUnit": "METERS",
      "longitude": -98.7868
    },
    {
      "elevation": 22.9,
      "mindate": "1978-07-01",
      "maxdate": "1986-10-31",
      "latitude": 27.8,
      "name": "BANQUETE, TX US",
      "datacoverage": 0.7996,
      "id": "GHCND:USC00410511",
      "elevationUnit": "METERS",
      "longitude": -97.8
    },
    {
      "elevation": 140.5,
      "mindate": "1965-04-01",
      "maxdate": "2025-01-31",
      "latitude": 32.263,
      "name": "BARDWELL DAM, TX US",
      "datacoverage": 1,
      "id": "GHCND:USC00410518",
      "elevationUnit": "METERS",
      "longitude": -96.6369
    },
    {
      "elevation": 38.7,
      "mindate": "1948-01-01",
      "maxdate": "1948-05-31",
      "latitude": 29.8142,
      "name": "HOUSTON BARKER, TX US",
      "datacoverage": 1,
      "id": "GHCND:USC00410520",
      "elevationUnit": "METERS",
      "longitude": -95.7276
    },
    {
      "elevation": 780.9,
      "mindate": "1948-03-01",
      "maxdate": "1965-04-30",
      "latitude": 31.13333,
      "name": "BARNHART, TX US",
      "datacoverage": 0.8352,
      "id": "GHCND:USC00410528",
      "elevationUnit": "METERS",
      "longitude": -101.16667
    },
    {
      "elevation": 783.9,
      "mindate": "1906-05-01",
      "maxdate": "1919-12-31",
      "latitude": 31.46667,
      "name": "BARSTOW, TX US",
      "datacoverage": 0.9876,
      "id": "GHCND:USC00410538",
      "elevationUnit": "METERS",
      "longitude": -103.4
    },
    {
      "elevation": 173.7,
      "mindate": "1940-01-01",
      "maxdate": "1943-08-31",
      "latitude": 30.8,
      "name": "BARTLETT SOIL CONSERVATION SERVICE NUMBER 1, TX US",
      "datacoverage": 0.932,
      "id": "GHCND:USC00410540",
      "elevationUnit": "METERS",
      "longitude": -97.433333
    },
    {
      "elevation": 116.1,
      "mindate": "1900-12-01",
      "maxdate": "1915-02-28",
      "latitude": 30.1,
      "name": "BASTROP, TX US",
      "datacoverage": 0.2855,
      "id": "GHCND:USC00410542",
      "elevationUnit": "METERS",
      "longitude": -97.33333
    },
    {
      "elevation": 552,
      "mindate": "1971-05-01",
      "maxdate": "1973-05-31",
      "latitude": 33.58333,
      "name": "BATEMAN RANCH, TX US",
      "datacoverage": 1,
      "id": "GHCND:USC00410556",
      "elevationUnit": "METERS",
      "longitude": -100.15
    },
    {
      "elevation": 544.1,
      "mindate": "1974-11-01",
      "maxdate": "1988-10-31",
      "latitude": 33.6,
      "name": "BATEMAN RANCH 2, TX US",
      "datacoverage": 0.863,
      "id": "GHCND:USC00410558",
      "elevationUnit": "METERS",
      "longitude": -100.21667
    },
    {
      "elevation": 227.1,
      "mindate": "1965-06-01",
      "maxdate": "2010-12-31",
      "latitude": 28.95667,
      "name": "BATESVILLE, TX US",
      "datacoverage": 1,
      "id": "GHCND:USC00410560",
      "elevationUnit": "METERS",
      "longitude": -99.62278
    },
    {
      "mindate": "1941-01-01",
      "maxdate": "1942-12-20",
      "latitude": 35.733333,
      "name": "BAUTISTA NEAR SOIL CONSERVATION SERVICE NUMBER 35, TX US",
      "datacoverage": 0.7509,
      "id": "GHCND:USC00410566",
      "longitude": -102.016667
    },
    {
      "elevation": 15.8,
      "mindate": "1909-01-01",
      "maxdate": "2025-01-31",
      "latitude": 28.9798,
      "name": "BAY CITY WATERWORKS, TX US",
      "datacoverage": 1,
      "id": "GHCND:USC00410569",
      "elevationUnit": "METERS",
      "longitude": -95.9749
    },
    {
      "elevation": 14.9,
      "mindate": "1948-06-01",
      "maxdate": "1951-09-21",
      "latitude": 29,
      "name": "BAY CITY 2 N, TX US",
      "datacoverage": 1,
      "id": "GHCND:USC00410572",
      "elevationUnit": "METERS",
      "longitude": -95.96667
    },
    {
      "elevation": 6.1,
      "mindate": "1948-06-01",
      "maxdate": "1950-05-25",
      "latitude": 26.13333,
      "name": "BAY VIEW, TX US",
      "datacoverage": 1,
      "id": "GHCND:USC00410576",
      "elevationUnit": "METERS",
      "longitude": -97.4
    },
    {
      "elevation": 121.9,
      "mindate": "1947-07-01",
      "maxdate": "1951-09-30",
      "latitude": 28.3,
      "name": "BAYLOR RANCH, TX US",
      "datacoverage": 0.784,
      "id": "GHCND:USC00410580",
      "elevationUnit": "METERS",
      "longitude": -98.98333
    },
    {
      "elevation": 7.9,
      "mindate": "1946-01-01",
      "maxdate": "2025-01-31",
      "latitude": 29.9142,
      "name": "BAYTOWN, TX US",
      "datacoverage": 1,
      "id": "GHCND:USC00410586",
      "elevationUnit": "METERS",
      "longitude": -94.9908
    }
  ]
}
