{
  "metadata": {
    "resultset": {
      "offset": 8300,
      "count": 154115,
      "limit": 100
    }
  },
  "results": [
    {
      "elevation": 355.7,
      "mindate": "1948-07-01",
      "maxdate": "2015-11-01",
      "latitude": 44.55608,
      "name": "MINNEOTA, MN US",
      "datacoverage": 0.937,
      "id": "COOP:215482",
      "elevationUnit": "METERS",
      "longitude": -95.98042
    },
    {
      "elevation": 204.2,
      "mindate": "1948-07-01",
      "maxdate": "2015-11-01",
      "latitude": 44.1601,
      "name": "MINNESOTA CITY DAM 5, MN US",
      "datacoverage": 0.9839,
      "id": "COOP:215488",
      "elevationUnit": "METERS",
      "longitude": -91.81247
    },
    {
      "elevation": 430.1,
      "mindate": "1932-01-01",
      "maxdate": "1940-03-01",
      "latitude": 47.95,
      "name": "MIZPAH, MN US",
      "datacoverage": 0.8991,
      "id": "COOP:215533",
      "elevationUnit": "METERS",
      "longitude": -94.21667
    },
    {
      "elevation": 301.8,
      "mindate": "1931-01-01",
      "maxdate": "2015-11-01",
      "latitude": 44.9341,
      "name": "MONTEVIDEO 1 SW, MN US",
      "datacoverage": 0.9912,
      "id": "COOP:215563",
      "elevationUnit": "METERS",
      "longitude": -95.74597
    },
    {
      "elevation": 335.3,
      "mindate": "1948-08-01",
      "maxdate": "2013-12-01",
      "latitude": 44.4597,
      "name": "MONTGOMERY, MN US",
      "datacoverage": 0.7414,
      "id": "COOP:215571",
      "elevationUnit": "METERS",
      "longitude": -93.6631
    },
    {
      "elevation": 275.5,
      "mindate": "1991-06-01",
      "maxdate": "2015-11-01",
      "latitude": 46.8876,
      "name": "MOORHEAD, MN US",
      "datacoverage": 0.8265,
      "id": "COOP:215586",
      "elevationUnit": "METERS",
      "longitude": -96.7482
    },
    {
      "elevation": 287.1,
      "mindate": "1931-01-01",
      "maxdate": "1953-07-01",
      "latitude": 46.86667,
      "name": "MOORHEAD ST TEACHERS, MN US",
      "datacoverage": 0.9595,
      "id": "COOP:215589",
      "elevationUnit": "METERS",
      "longitude": -96.75
    },
    {
      "elevation": 317,
      "mindate": "2004-02-01",
      "maxdate": "2010-12-01",
      "latitude": 44.4175,
      "name": "MORGAN, MN US",
      "datacoverage": 1,
      "id": "COOP:215590",
      "elevationUnit": "METERS",
      "longitude": -94.92167
    },
    {
      "elevation": 338.3,
      "mindate": "1938-08-01",
      "maxdate": "2015-11-01",
      "latitude": 46.4378,
      "name": "MOOSE LAKE 1 SSE, MN US",
      "datacoverage": 0.9903,
      "id": "COOP:215598",
      "elevationUnit": "METERS",
      "longitude": -92.7578
    },
    {
      "elevation": 323.1,
      "mindate": "1948-08-01",
      "maxdate": "1960-02-01",
      "latitude": 46.45,
      "name": "MOOSE LAKE RANGER ST, MN US",
      "datacoverage": 0.7555,
      "id": "COOP:215603",
      "elevationUnit": "METERS",
      "longitude": -92.76667
    },
    {
      "elevation": 310.3,
      "mindate": "1931-01-01",
      "maxdate": "2015-11-01",
      "latitude": 45.8776,
      "name": "MORA, MN US",
      "datacoverage": 0.9863,
      "id": "COOP:215615",
      "elevationUnit": "METERS",
      "longitude": -93.3147
    },
    {
      "elevation": 347.5,
      "mindate": "1931-01-01",
      "maxdate": "2015-11-01",
      "latitude": 45.5901,
      "name": "MORRIS WEST CENTRAL RESEARCH AND OUTREACH CENTER, MN US",
      "datacoverage": 0.9932,
      "id": "COOP:215638",
      "elevationUnit": "METERS",
      "longitude": -95.8745
    },
    {
      "elevation": 285,
      "mindate": "1990-11-01",
      "maxdate": "2003-04-01",
      "latitude": 44.95,
      "name": "MOUND, MN US",
      "datacoverage": 0.807,
      "id": "COOP:215665",
      "elevationUnit": "METERS",
      "longitude": -93.65
    },
    {
      "elevation": 348.1,
      "mindate": "1957-04-01",
      "maxdate": "1961-07-01",
      "latitude": 48.3005,
      "name": "AGASSIZ REFUGE, MN US",
      "datacoverage": 0.9998,
      "id": "COOP:215693",
      "elevationUnit": "METERS",
      "longitude": -95.9816
    },
    {
      "elevation": 411.5,
      "mindate": "1972-05-01",
      "maxdate": "1973-12-01",
      "latitude": 48.1,
      "name": "NETT LAKE, MN US",
      "datacoverage": 0.998,
      "id": "COOP:215819",
      "elevationUnit": "METERS",
      "longitude": -93.08333
    },
    {
      "elevation": 277.4,
      "mindate": "1991-05-01",
      "maxdate": "2015-11-01",
      "latitude": 45.01,
      "name": "NEW HOPE, MN US",
      "datacoverage": 0.9796,
      "id": "COOP:215838",
      "elevationUnit": "METERS",
      "longitude": -93.3792
    },
    {
      "elevation": 381,
      "mindate": "1931-01-01",
      "maxdate": "2009-07-01",
      "latitude": 45.3049,
      "name": "NEW LONDON, MN US",
      "datacoverage": 0.93,
      "id": "COOP:215842",
      "elevationUnit": "METERS",
      "longitude": -94.9393
    },
    {
      "elevation": 364.8,
      "mindate": "2009-10-01",
      "maxdate": "2010-10-01",
      "latitude": 45.2597,
      "name": "NEW LONDON SPICER, MN US",
      "datacoverage": 0.9992,
      "id": "COOP:215845",
      "elevationUnit": "METERS",
      "longitude": -94.9461
    },
    {
      "elevation": 271.3,
      "mindate": "1931-01-01",
      "maxdate": "2010-10-01",
      "latitude": 44.3006,
      "name": "NEW ULM 2 SE, MN US",
      "datacoverage": 0.9927,
      "id": "COOP:215887",
      "elevationUnit": "METERS",
      "longitude": -94.4896
    },
    {
      "elevation": 281.9,
      "mindate": "2011-01-01",
      "maxdate": "2015-11-01",
      "latitude": 44.29451,
      "name": "NEW ULM 3 SE, MN US",
      "datacoverage": 1,
      "id": "COOP:215888",
      "elevationUnit": "METERS",
      "longitude": -94.40842
    },
    {
      "elevation": 431.3,
      "mindate": "1993-03-01",
      "maxdate": "2015-11-01",
      "latitude": 46.52017,
      "name": "NEW YORK MILLS, MN US",
      "datacoverage": 0.9816,
      "id": "COOP:215902",
      "elevationUnit": "METERS",
      "longitude": -95.33735
    },
    {
      "elevation": 271.3,
      "mindate": "1948-08-01",
      "maxdate": "2014-01-01",
      "latitude": 44.4753,
      "name": "NORTHFIELD 2 NNE, MN US",
      "datacoverage": 0.9191,
      "id": "COOP:215987",
      "elevationUnit": "METERS",
      "longitude": -93.1486
    },
    {
      "elevation": 431.3,
      "mindate": "2008-10-01",
      "maxdate": "2015-11-01",
      "latitude": 47.8359,
      "name": "NORTHOME 3 S, MN US",
      "datacoverage": 0.9886,
      "id": "COOP:215989",
      "elevationUnit": "METERS",
      "longitude": -94.2555
    },
    {
      "elevation": 304.2,
      "mindate": "2007-01-01",
      "maxdate": "2007-08-01",
      "latitude": 44.7775,
      "name": "NORWOOD YOUNG AMERICA 1 W, MN US",
      "datacoverage": 1,
      "id": "COOP:215990",
      "elevationUnit": "METERS",
      "longitude": -93.93
    },
    {
      "elevation": 259.1,
      "mindate": "1954-09-01",
      "maxdate": "1984-08-01",
      "latitude": 44.1543,
      "name": "MANKATO, MN US",
      "datacoverage": 0.9749,
      "id": "COOP:216007",
      "elevationUnit": "METERS",
      "longitude": -94.0212
    },
    {
      "elevation": 304.8,
      "mindate": "2011-01-01",
      "maxdate": "2014-12-01",
      "latitude": 44.1709,
      "name": "NORTH MANKATO 2, MN US",
      "datacoverage": 1,
      "id": "COOP:216008",
      "elevationUnit": "METERS",
      "longitude": -94.0385
    },
    {
      "elevation": 350.5,
      "mindate": "1948-08-01",
      "maxdate": "1996-06-01",
      "latitude": 47.83333,
      "name": "OKLEE, MN US",
      "datacoverage": 0.9339,
      "id": "COOP:216148",
      "elevationUnit": "METERS",
      "longitude": -95.85
    },
    {
      "elevation": 335.3,
      "mindate": "1976-06-01",
      "maxdate": "2014-12-01",
      "latitude": 44.7629,
      "name": "OLIVIA 3 E, MN US",
      "datacoverage": 0.9849,
      "id": "COOP:216152",
      "elevationUnit": "METERS",
      "longitude": -94.9298
    },
    {
      "elevation": 384,
      "mindate": "1948-08-01",
      "maxdate": "2015-11-01",
      "latitude": 46.06773,
      "name": "ONAMIA RANGER STATION, MN US",
      "datacoverage": 0.4121,
      "id": "COOP:216166",
      "elevationUnit": "METERS",
      "longitude": -93.66663
    },
    {
      "elevation": 411.5,
      "mindate": "1970-09-01",
      "maxdate": "1971-06-01",
      "latitude": 48.1,
      "name": "NETT LAKE, MN US",
      "datacoverage": 0.9041,
      "id": "COOP:216210",
      "elevationUnit": "METERS",
      "longitude": -93.08333
    },
    {
      "elevation": 400.8,
      "mindate": "2007-08-01",
      "maxdate": "2015-11-01",
      "latitude": 48.0508,
      "name": "ORR 3 E, MN US",
      "datacoverage": 0.9699,
      "id": "COOP:216211",
      "elevationUnit": "METERS",
      "longitude": -92.7636
    },
    {
      "elevation": 411.5,
      "mindate": "1961-11-01",
      "maxdate": "1972-05-01",
      "latitude": 48.1,
      "name": "NETT LAKE, MN US",
      "datacoverage": 0.6457,
      "id": "COOP:216212",
      "elevationUnit": "METERS",
      "longitude": -93.08333
    },
    {
      "elevation": 423.7,
      "mindate": "1931-01-01",
      "maxdate": "2005-10-01",
      "latitude": 48.0553,
      "name": "ORR, MN US",
      "datacoverage": 0.9718,
      "id": "COOP:216213",
      "elevationUnit": "METERS",
      "longitude": -92.8425
    },
    {
      "elevation": 299,
      "mindate": "1948-08-01",
      "maxdate": "1983-03-01",
      "latitude": 45.3,
      "name": "ORTONVILLE, MN US",
      "datacoverage": 0.9664,
      "id": "COOP:216224",
      "elevationUnit": "METERS",
      "longitude": -96.45
    },
    {
      "elevation": 335,
      "mindate": "2005-01-01",
      "maxdate": "2015-11-01",
      "latitude": 45.30858,
      "name": "ORTONVILLE 1 N, MN US",
      "datacoverage": 0.9922,
      "id": "COOP:216225",
      "elevationUnit": "METERS",
      "longitude": -96.42961
    },
    {
      "elevation": 331,
      "mindate": "1953-03-01",
      "maxdate": "2015-11-01",
      "latitude": 46.2154,
      "name": "ORWELL DAM, MN US",
      "datacoverage": 0.9809,
      "id": "COOP:216228",
      "elevationUnit": "METERS",
      "longitude": -96.178
    },
    {
      "elevation": 411.2,
      "mindate": "1948-08-01",
      "maxdate": "2015-11-01",
      "latitude": 46.4145,
      "name": "OTTERTAIL, MN US",
      "datacoverage": 0.8837,
      "id": "COOP:216276",
      "elevationUnit": "METERS",
      "longitude": -95.5464
    },
    {
      "elevation": 347.5,
      "mindate": "1961-03-01",
      "maxdate": "2015-11-01",
      "latitude": 44.0976,
      "name": "OWATONNA, MN US",
      "datacoverage": 0.9984,
      "id": "COOP:216287",
      "elevationUnit": "METERS",
      "longitude": -93.2318
    },
    {
      "elevation": 439.3,
      "mindate": "1893-01-01",
      "maxdate": "1999-05-01",
      "latitude": 46.89967,
      "name": "PARK RAPIDS MUNICIPAL AIRPORT, MN US",
      "datacoverage": 0.9883,
      "id": "COOP:216360",
      "elevationUnit": "METERS",
      "longitude": -95.06682
    },
    {
      "elevation": 360,
      "mindate": "1970-11-01",
      "maxdate": "1973-12-01",
      "latitude": 45.38333,
      "name": "PAYNESVILLE, MN US",
      "datacoverage": 0.9997,
      "id": "COOP:216386",
      "elevationUnit": "METERS",
      "longitude": -94.73333
    },
    {
      "elevation": 395.9,
      "mindate": "1948-08-01",
      "maxdate": "2014-12-01",
      "latitude": 46.569,
      "name": "PELICAN RAPIDS, MN US",
      "datacoverage": 0.8595,
      "id": "COOP:216405",
      "elevationUnit": "METERS",
      "longitude": -96.0894
    },
    {
      "elevation": 289.9,
      "mindate": "1931-01-01",
      "maxdate": "1950-06-29",
      "latitude": 48,
      "name": "PIGEON RIVER BRIDGE, MN US",
      "datacoverage": 0.9959,
      "id": "COOP:216505",
      "elevationUnit": "METERS",
      "longitude": -89.7
    },
    {
      "elevation": 381,
      "mindate": "1931-01-01",
      "maxdate": "2015-11-01",
      "latitude": 46.6694,
      "name": "PINE RIVER DAM, MN US",
      "datacoverage": 0.9873,
      "id": "COOP:216547",
      "elevationUnit": "METERS",
      "longitude": -94.1089
    },
    {
      "elevation": 505.4,
      "mindate": "1931-01-01",
      "maxdate": "2015-11-01",
      "latitude": 44.01377,
      "name": "PIPESTONE, MN US",
      "datacoverage": 0.9941,
      "id": "COOP:216565",
      "elevationUnit": "METERS",
      "longitude": -96.32533
    },
    {
      "elevation": 390.1,
      "mindate": "1931-01-01",
      "maxdate": "2015-11-01",
      "latitude": 47.2508,
      "name": "POKEGAMA DAM, MN US",
      "datacoverage": 0.9725,
      "id": "COOP:216612",
      "elevationUnit": "METERS",
      "longitude": -93.5861
    },
    {
      "elevation": 283.5,
      "mindate": "1952-06-01",
      "maxdate": "2015-11-01",
      "latitude": 43.6725,
      "name": "PRESTON, MN US",
      "datacoverage": 0.9842,
      "id": "COOP:216654",
      "elevationUnit": "METERS",
      "longitude": -92.0747
    },
    {
      "elevation": 392.9,
      "mindate": "1956-03-01",
      "maxdate": "1969-06-29",
      "latitude": 43.6,
      "name": "PRESTON 6 SW, MN US",
      "datacoverage": 0.0493,
      "id": "COOP:216659",
      "elevationUnit": "METERS",
      "longitude": -92.13333
    },
    {
      "elevation": 378,
      "mindate": "1956-01-01",
      "maxdate": "1969-06-29",
      "latitude": 43.56667,
      "name": "PRESTON 8 SW, MN US",
      "datacoverage": 0.0545,
      "id": "COOP:216660",
      "elevationUnit": "METERS",
      "longitude": -92.16667
    },
    {
      "elevation": 392.9,
      "mindate": "1956-01-01",
      "maxdate": "1969-06-29",
      "latitude": 43.58333,
      "name": "PRESTON 4 S, MN US",
      "datacoverage": 0.051,
      "id": "COOP:216661",
      "elevationUnit": "METERS",
      "longitude": -92.08333
    },
    {
      "elevation": 228.9,
      "mindate": "1931-01-01",
      "maxdate": "1956-01-01",
      "latitude": 44.4,
      "name": "READS LANDING, MN US",
      "datacoverage": 0.9966,
      "id": "COOP:216777",
      "elevationUnit": "METERS",
      "longitude": -92.08333
    },
    {
      "elevation": 316.4,
      "mindate": "1931-11-01",
      "maxdate": "2015-11-01",
      "latitude": 47.87945,
      "name": "RED LAKE FALLS, MN US",
      "datacoverage": 0.9871,
      "id": "COOP:216787",
      "elevationUnit": "METERS",
      "longitude": -96.28446
    },
    {
      "elevation": 370.6,
      "mindate": "1893-12-01",
      "maxdate": "2015-11-01",
      "latitude": 47.8761,
      "name": "RED LAKE INDIAN AGCY, MN US",
      "datacoverage": 0.8381,
      "id": "COOP:216795",
      "elevationUnit": "METERS",
      "longitude": -95.0167
    },
    {
      "elevation": 209.7,
      "mindate": "1931-01-01",
      "maxdate": "2015-11-01",
      "latitude": 44.57136,
      "name": "RED WING, MN US",
      "datacoverage": 0.9804,
      "id": "COOP:216817",
      "elevationUnit": "METERS",
      "longitude": -92.52835
    },
    {
      "elevation": 208.2,
      "mindate": "1948-07-01",
      "maxdate": "2015-11-01",
      "latitude": 44.60981,
      "name": "RED WING DAM 3, MN US",
      "datacoverage": 0.9777,
      "id": "COOP:216822",
      "elevationUnit": "METERS",
      "longitude": -92.6098
    },
    {
      "elevation": 312.7,
      "mindate": "1931-01-01",
      "maxdate": "2009-05-01",
      "latitude": 44.54827,
      "name": "REDWOOD FALLS MUNICIPAL AIRPORT, MN US",
      "datacoverage": 0.9883,
      "id": "COOP:216835",
      "elevationUnit": "METERS",
      "longitude": -95.08042
    },
    {
      "elevation": 312.4,
      "mindate": "1990-04-01",
      "maxdate": "2015-11-01",
      "latitude": 44.5485,
      "name": "REDWOOD FALLS, MN US",
      "datacoverage": 0.9805,
      "id": "COOP:216839",
      "elevationUnit": "METERS",
      "longitude": -95.09968
    },
    {
      "elevation": 312.7,
      "mindate": "2009-08-01",
      "maxdate": "2015-11-01",
      "latitude": 44.54827,
      "name": "REDWOOD FALLS MUNICIPAL AIRPORT, MN US",
      "datacoverage": 1,
      "id": "COOP:216841",
      "elevationUnit": "METERS",
      "longitude": -95.08042
    },
    {
      "elevation": 410,
      "mindate": "1948-08-01",
      "maxdate": "1956-12-01",
      "latitude": 47.06222,
      "name": "REMER NUMBER 2, MN US",
      "datacoverage": 0.7523,
      "id": "COOP:216848",
      "elevationUnit": "METERS",
      "longitude": -93.915
    },
    {
      "elevation": 410,
      "mindate": "1957-01-01",
      "maxdate": "2000-05-01",
      "latitude": 47.06222,
      "name": "REMER NUMBER 2, MN US",
      "datacoverage": 0.8311,
      "id": "COOP:216849",
      "elevationUnit": "METERS",
      "longitude": -93.915
    },
    {
      "elevation": 323.1,
      "mindate": "2006-06-01",
      "maxdate": "2015-11-01",
      "latitude": 45.7576,
      "name": "RICE, MN US",
      "datacoverage": 0.9912,
      "id": "COOP:216920",
      "elevationUnit": "METERS",
      "longitude": -94.2072
    },
    {
      "elevation": 381,
      "mindate": "1992-12-01",
      "maxdate": "2006-02-01",
      "latitude": 46.5381,
      "name": "RICE LAKE NWR, MN US",
      "datacoverage": 0.9689,
      "id": "COOP:216929",
      "elevationUnit": "METERS",
      "longitude": -93.2844
    },
    {
      "elevation": 353.9,
      "mindate": "1948-08-01",
      "maxdate": "1989-12-01",
      "latitude": 46.46667,
      "name": "RIVERTON, MN US",
      "datacoverage": 0.8611,
      "id": "COOP:216972",
      "elevationUnit": "METERS",
      "longitude": -94.05
    },
    {
      "elevation": 397.9,
      "mindate": "1948-01-01",
      "maxdate": "2015-11-01",
      "latitude": 43.904,
      "name": "ROCHESTER INTERNATIONAL AIRPORT, MN US",
      "datacoverage": 0.9939,
      "id": "COOP:217004",
      "elevationUnit": "METERS",
      "longitude": -92.49207
    },
    {
      "elevation": 376.1,
      "mindate": "2000-04-01",
      "maxdate": "2015-11-01",
      "latitude": 43.9336,
      "name": "ROCHESTER AIRPORT 2 NE, MN US",
      "datacoverage": 0.9947,
      "id": "COOP:217011",
      "elevationUnit": "METERS",
      "longitude": -92.4729
    },
    {
      "elevation": 457.2,
      "mindate": "2000-10-01",
      "maxdate": "2006-12-01",
      "latitude": 43.6556,
      "name": "ROCK CO SHERIFF, MN US",
      "datacoverage": 0.9999,
      "id": "COOP:217012",
      "elevationUnit": "METERS",
      "longitude": -96.2058
    },
    {
      "elevation": 289.6,
      "mindate": "1978-08-01",
      "maxdate": "2015-11-01",
      "latitude": 45.0896,
      "name": "ROCKFORD, MN US",
      "datacoverage": 0.9754,
      "id": "COOP:217020",
      "elevationUnit": "METERS",
      "longitude": -93.7399
    },
    {
      "elevation": 319.1,
      "mindate": "1931-01-01",
      "maxdate": "2006-12-01",
      "latitude": 48.84861,
      "name": "ROSEAU, MN US",
      "datacoverage": 0.9507,
      "id": "COOP:217087",
      "elevationUnit": "METERS",
      "longitude": -95.7675
    },
    {
      "elevation": 288,
      "mindate": "1951-01-01",
      "maxdate": "2015-11-01",
      "latitude": 44.71673,
      "name": "ROSEMOUNT RESEARCH AND OUTREACH CENTER, MN US",
      "datacoverage": 0.9769,
      "id": "COOP:217107",
      "elevationUnit": "METERS",
      "longitude": -93.09798
    },
    {
      "elevation": 367,
      "mindate": "1959-07-01",
      "maxdate": "2015-11-01",
      "latitude": 46.4808,
      "name": "ROTHSAY, MN US",
      "datacoverage": 0.9674,
      "id": "COOP:217149",
      "elevationUnit": "METERS",
      "longitude": -96.2869
    },
    {
      "elevation": 332.2,
      "mindate": "1986-01-01",
      "maxdate": "2003-08-01",
      "latitude": 45.83333,
      "name": "ROYALTON 5 W, MN US",
      "datacoverage": 1,
      "id": "COOP:217157",
      "elevationUnit": "METERS",
      "longitude": -94.36667
    },
    {
      "elevation": 234.7,
      "mindate": "1948-08-01",
      "maxdate": "2015-11-01",
      "latitude": 43.8052,
      "name": "RUSHFORD, MN US",
      "datacoverage": 0.3911,
      "id": "COOP:217184",
      "elevationUnit": "METERS",
      "longitude": -91.7501
    },
    {
      "elevation": 310.2,
      "mindate": "1948-01-01",
      "maxdate": "2015-11-01",
      "latitude": 45.54416,
      "name": "ST. CLOUD REGIONAL AIRPORT, MN US",
      "datacoverage": 0.9939,
      "id": "COOP:217294",
      "elevationUnit": "METERS",
      "longitude": -94.0516
    },
    {
      "elevation": 262.1,
      "mindate": "1954-11-01",
      "maxdate": "1990-03-01",
      "latitude": 45.33333,
      "name": "ST FRANCIS 4 S, MN US",
      "datacoverage": 0.7977,
      "id": "COOP:217308",
      "elevationUnit": "METERS",
      "longitude": -93.36667
    },
    {
      "elevation": 274.3,
      "mindate": "1990-04-01",
      "maxdate": "2012-12-01",
      "latitude": 45.3878,
      "name": "ST FRANCIS, MN US",
      "datacoverage": 0.9632,
      "id": "COOP:217309",
      "elevationUnit": "METERS",
      "longitude": -93.3591
    },
    {
      "elevation": 326.1,
      "mindate": "1948-08-01",
      "maxdate": "2015-11-01",
      "latitude": 43.9904,
      "name": "ST. JAMES WWTP, MN US",
      "datacoverage": 0.9518,
      "id": "COOP:217326",
      "elevationUnit": "METERS",
      "longitude": -94.6123
    },
    {
      "elevation": 213.3,
      "mindate": "2009-08-01",
      "maxdate": "2015-11-01",
      "latitude": 44.93234,
      "name": "ST. PAUL DOWNTOWN AIRPORT, MN US",
      "datacoverage": 1,
      "id": "COOP:217370",
      "elevationUnit": "METERS",
      "longitude": -93.05586
    },
    {
      "elevation": 274.3,
      "mindate": "1956-12-01",
      "maxdate": "2006-05-01",
      "latitude": 44.94611,
      "name": "ST PAUL, MN US",
      "datacoverage": 0.9697,
      "id": "COOP:217377",
      "elevationUnit": "METERS",
      "longitude": -93.03
    },
    {
      "elevation": 281.9,
      "mindate": "2006-07-01",
      "maxdate": "2015-11-01",
      "latitude": 44.9312,
      "name": "ST. PAUL 3 SW, MN US",
      "datacoverage": 0.9998,
      "id": "COOP:217379",
      "elevationUnit": "METERS",
      "longitude": -93.154
    },
    {
      "elevation": 289.9,
      "mindate": "1948-08-01",
      "maxdate": "1949-12-01",
      "latitude": 45,
      "name": "ST PAUL UNIVERSITY FARM, MN US",
      "datacoverage": 0.7859,
      "id": "COOP:217381",
      "elevationUnit": "METERS",
      "longitude": -93.16667
    },
    {
      "elevation": 213.3,
      "mindate": "1948-01-01",
      "maxdate": "1953-05-29",
      "latitude": 44.93234,
      "name": "ST. PAUL DOWNTOWN AIRPORT, MN US",
      "datacoverage": 1,
      "id": "COOP:217386",
      "elevationUnit": "METERS",
      "longitude": -93.05586
    },
    {
      "elevation": 242.3,
      "mindate": "1931-01-01",
      "maxdate": "2015-11-01",
      "latitude": 44.32233,
      "name": "ST. PETER, MN US",
      "datacoverage": 0.9775,
      "id": "COOP:217405",
      "elevationUnit": "METERS",
      "longitude": -93.96561
    },
    {
      "elevation": 376.1,
      "mindate": "1931-01-01",
      "maxdate": "2015-11-01",
      "latitude": 46.7953,
      "name": "SANDY LAKE DAM LIBBY, MN US",
      "datacoverage": 0.9853,
      "id": "COOP:217460",
      "elevationUnit": "METERS",
      "longitude": -93.3211
    },
    {
      "elevation": 307.8,
      "mindate": "1959-10-01",
      "maxdate": "2015-11-01",
      "latitude": 45.5459,
      "name": "SANTIAGO 3 E, MN US",
      "datacoverage": 0.9777,
      "id": "COOP:217502",
      "elevationUnit": "METERS",
      "longitude": -93.7571
    },
    {
      "elevation": 256,
      "mindate": "1990-07-01",
      "maxdate": "1997-02-01",
      "latitude": 47.41667,
      "name": "SHELLY 4 SE, MN US",
      "datacoverage": 0.975,
      "id": "COOP:217594",
      "elevationUnit": "METERS",
      "longitude": -96.76667
    },
    {
      "elevation": 402.3,
      "mindate": "1948-08-01",
      "maxdate": "2015-11-01",
      "latitude": 43.6304,
      "name": "SHERBURN 3 WSW, MN US",
      "datacoverage": 0.1411,
      "id": "COOP:217602",
      "elevationUnit": "METERS",
      "longitude": -94.7744
    },
    {
      "elevation": 458.1,
      "mindate": "1948-08-01",
      "maxdate": "1951-10-01",
      "latitude": 47.65,
      "name": "SIDE LAKE RANGER STATION, MN US",
      "datacoverage": 0.359,
      "id": "COOP:217657",
      "elevationUnit": "METERS",
      "longitude": -93.03333
    },
    {
      "elevation": 481.9,
      "mindate": "1956-12-01",
      "maxdate": "1973-04-01",
      "latitude": 43.9,
      "name": "SLAYTON 9 SW, MN US",
      "datacoverage": 1,
      "id": "COOP:217740",
      "elevationUnit": "METERS",
      "longitude": -95.88333
    },
    {
      "elevation": 324.9,
      "mindate": "1937-05-01",
      "maxdate": "2014-01-01",
      "latitude": 44.247,
      "name": "SPRINGFIELD 1 NW, MN US",
      "datacoverage": 0.9858,
      "id": "COOP:217907",
      "elevationUnit": "METERS",
      "longitude": -94.9865
    },
    {
      "elevation": 419.1,
      "mindate": "1935-04-01",
      "maxdate": "2001-04-30",
      "latitude": 43.56194,
      "name": "SPRING GROVE, MN US",
      "datacoverage": 0.9193,
      "id": "COOP:217915",
      "elevationUnit": "METERS",
      "longitude": -91.64472
    },
    {
      "elevation": 349,
      "mindate": "2002-02-01",
      "maxdate": "2015-11-01",
      "latitude": 43.61255,
      "name": "SPRING GROVE 4 N, MN US",
      "datacoverage": 1,
      "id": "COOP:217917",
      "elevationUnit": "METERS",
      "longitude": -91.62232
    },
    {
      "elevation": 309.7,
      "mindate": "2002-09-01",
      "maxdate": "2012-12-01",
      "latitude": 44.9346,
      "name": "SPRING PARK, MN US",
      "datacoverage": 0.9192,
      "id": "COOP:217935",
      "elevationUnit": "METERS",
      "longitude": -93.6275
    },
    {
      "elevation": 388.6,
      "mindate": "1948-08-01",
      "maxdate": "2015-11-01",
      "latitude": 43.6933,
      "name": "SPRING VALLEY, MN US",
      "datacoverage": 0.202,
      "id": "COOP:217941",
      "elevationUnit": "METERS",
      "longitude": -92.3926
    },
    {
      "elevation": 317,
      "mindate": "1957-05-01",
      "maxdate": "2003-08-01",
      "latitude": 44.73444,
      "name": "STEWART, MN US",
      "datacoverage": 0.9496,
      "id": "COOP:218025",
      "elevationUnit": "METERS",
      "longitude": -94.3425
    },
    {
      "elevation": 216.4,
      "mindate": "1944-07-01",
      "maxdate": "2006-01-01",
      "latitude": 45.0417,
      "name": "STILLWATER 1 SE, MN US",
      "datacoverage": 0.9769,
      "id": "COOP:218037",
      "elevationUnit": "METERS",
      "longitude": -92.7975
    },
    {
      "elevation": 273.7,
      "mindate": "2006-07-01",
      "maxdate": "2015-11-01",
      "latitude": 45.0455,
      "name": "STILLWATER 2 SW, MN US",
      "datacoverage": 0.991,
      "id": "COOP:218039",
      "elevationUnit": "METERS",
      "longitude": -92.8522
    },
    {
      "elevation": 387.1,
      "mindate": "1959-07-01",
      "maxdate": "1961-01-01",
      "latitude": 46.63333,
      "name": "TAMARACK, MN US",
      "datacoverage": 0.8906,
      "id": "COOP:218187",
      "elevationUnit": "METERS",
      "longitude": -93.13333
    },
    {
      "elevation": 459.6,
      "mindate": "1977-06-01",
      "maxdate": "2015-11-01",
      "latitude": 46.958,
      "name": "TAMARAC WILDLIFE REF, MN US",
      "datacoverage": 0.8939,
      "id": "COOP:218191",
      "elevationUnit": "METERS",
      "longitude": -95.6546
    },
    {
      "elevation": 232,
      "mindate": "1931-01-01",
      "maxdate": "1949-06-01",
      "latitude": 45.41667,
      "name": "TAYLORS FALLS 1 NE, MN US",
      "datacoverage": 1,
      "id": "COOP:218204",
      "elevationUnit": "METERS",
      "longitude": -92.65
    },
    {
      "elevation": 216.1,
      "mindate": "2015-04-01",
      "maxdate": "2015-11-01",
      "latitude": 47.339,
      "name": "TETTEGOUCHE STATE PARK, MN US",
      "datacoverage": 0.998,
      "id": "COOP:218215",
      "elevationUnit": "METERS",
      "longitude": -91.1959
    },
    {
      "elevation": 229.5,
      "mindate": "1948-08-01",
      "maxdate": "2015-11-01",
      "latitude": 44.28118,
      "name": "THEILMAN 1 SSW, MN US",
      "datacoverage": 0.9344,
      "id": "COOP:218227",
      "elevationUnit": "METERS",
      "longitude": -92.19434
    }
  ]
}
