{
  "metadata": {
    "resultset": {
      "offset": 29600,
      "count": 154115,
      "limit": 100
    }
  },
  "results": [
    {
      "elevation": 20,
      "mindate": "1997-09-01",
      "maxdate": "2025-01-31",
      "latitude": -27.8429,
      "name": "COOMERA FOXWELL ROAD, AS",
      "datacoverage": 0.9912,
      "id": "GHCND:ASN00040516",
      "elevationUnit": "METERS",
      "longitude": 153.3502
    },
    {
      "elevation": 104,
      "mindate": "1750-03-09",
      "maxdate": "2025-01-31",
      "latitude": -27.1953,
      "name": "MCKENZIE CREEK, AS",
      "datacoverage": 1,
      "id": "GHCND:ASN00040517",
      "elevationUnit": "METERS",
      "longitude": 152.7539
    },
    {
      "elevation": 230,
      "mindate": "1900-10-01",
      "maxdate": "1979-12-31",
      "latitude": -26.05,
      "name": "WINDERA, AS",
      "datacoverage": 0.9993,
      "id": "GHCND:ASN00040522",
      "elevationUnit": "METERS",
      "longitude": 151.8333
    },
    {
      "elevation": 668,
      "mindate": "1958-12-01",
      "maxdate": "2007-11-30",
      "latitude": -28.2653,
      "name": "BOONAH BORDER GATE, AS",
      "datacoverage": 0.9864,
      "id": "GHCND:ASN00040523",
      "elevationUnit": "METERS",
      "longitude": 152.5356
    },
    {
      "elevation": 177,
      "mindate": "1750-03-11",
      "maxdate": "2024-07-30",
      "latitude": -28.1444,
      "name": "LITTLE NERANG DAM, AS",
      "datacoverage": 0.9953,
      "id": "GHCND:ASN00040524",
      "elevationUnit": "METERS",
      "longitude": 153.2858
    },
    {
      "elevation": 154,
      "mindate": "1952-09-01",
      "maxdate": "2014-01-31",
      "latitude": -26.5936,
      "name": "KIAMBA, AS",
      "datacoverage": 0.8846,
      "id": "GHCND:ASN00040525",
      "elevationUnit": "METERS",
      "longitude": 152.9036
    },
    {
      "mindate": "1974-11-01",
      "maxdate": "1991-09-30",
      "latitude": -27.6167,
      "name": "ACACIA RIDGE BCC, AS",
      "datacoverage": 1,
      "id": "GHCND:ASN00040527",
      "longitude": 153.0433
    },
    {
      "mindate": "1974-01-01",
      "maxdate": "1989-12-31",
      "latitude": -27.5403,
      "name": "MOUNT GRAVATT EAST BCC, AS",
      "datacoverage": 1,
      "id": "GHCND:ASN00040529",
      "longitude": 153.0983
    },
    {
      "elevation": 10,
      "mindate": "1975-01-01",
      "maxdate": "2002-09-30",
      "latitude": -27.5853,
      "name": "INALA BCC, AS",
      "datacoverage": 1,
      "id": "GHCND:ASN00040530",
      "elevationUnit": "METERS",
      "longitude": 152.9883
    },
    {
      "elevation": 6,
      "mindate": "1975-01-01",
      "maxdate": "2016-08-19",
      "latitude": -27.3486,
      "name": "BOONDALL, AS",
      "datacoverage": 0.8215,
      "id": "GHCND:ASN00040531",
      "elevationUnit": "METERS",
      "longitude": 153.0647
    },
    {
      "elevation": 20,
      "mindate": "1974-03-01",
      "maxdate": "1997-01-31",
      "latitude": -27.4247,
      "name": "WYNNUM BCC, AS",
      "datacoverage": 0.9997,
      "id": "GHCND:ASN00040532",
      "elevationUnit": "METERS",
      "longitude": 153.1614
    },
    {
      "elevation": 260,
      "mindate": "1971-10-01",
      "maxdate": "1994-06-30",
      "latitude": -27.4664,
      "name": "MOUNT COOT THA ABQ 2 BCC, AS",
      "datacoverage": 0.9992,
      "id": "GHCND:ASN00040533",
      "elevationUnit": "METERS",
      "longitude": 152.945
    },
    {
      "elevation": 566,
      "mindate": "1750-03-09",
      "maxdate": "2024-12-15",
      "latitude": -28.1629,
      "name": "WUNBURRA, AS",
      "datacoverage": 0.9493,
      "id": "GHCND:ASN00040534",
      "elevationUnit": "METERS",
      "longitude": 153.2641
    },
    {
      "elevation": 162,
      "mindate": "1932-01-01",
      "maxdate": "1974-08-31",
      "latitude": -28.1167,
      "name": "CAINBABLE, AS",
      "datacoverage": 0.8966,
      "id": "GHCND:ASN00040535",
      "elevationUnit": "METERS",
      "longitude": 153.0833
    },
    {
      "elevation": 460,
      "mindate": "1956-01-01",
      "maxdate": "2005-05-31",
      "latitude": -27.1375,
      "name": "OCEAN VIEW, AS",
      "datacoverage": 0.8837,
      "id": "GHCND:ASN00040536",
      "elevationUnit": "METERS",
      "longitude": 152.8078
    },
    {
      "elevation": 17,
      "mindate": "1750-03-09",
      "maxdate": "2024-06-30",
      "latitude": -27.4973,
      "name": "DUNWICH, AS",
      "datacoverage": 0.8311,
      "id": "GHCND:ASN00040537",
      "elevationUnit": "METERS",
      "longitude": 153.4078
    },
    {
      "elevation": 76,
      "mindate": "1906-04-01",
      "maxdate": "1993-01-14",
      "latitude": -27.9833,
      "name": "TABRAGALBA, AS",
      "datacoverage": 0.9681,
      "id": "GHCND:ASN00040538",
      "elevationUnit": "METERS",
      "longitude": 153.0775
    },
    {
      "elevation": 27,
      "mindate": "1983-01-01",
      "maxdate": "2019-04-30",
      "latitude": -27.7866,
      "name": "MACLEAN BRIDGE, AS",
      "datacoverage": 1,
      "id": "GHCND:ASN00040542",
      "elevationUnit": "METERS",
      "longitude": 153.0153
    },
    {
      "elevation": 76,
      "mindate": "1994-08-01",
      "maxdate": "2005-11-24",
      "latitude": -26.4592,
      "name": "IMBIL, AS",
      "datacoverage": 0.7585,
      "id": "GHCND:ASN00040543",
      "elevationUnit": "METERS",
      "longitude": 152.6792
    },
    {
      "elevation": 57,
      "mindate": "1994-09-01",
      "maxdate": "2013-06-30",
      "latitude": -27.9125,
      "name": "BROMFLEET, AS",
      "datacoverage": 0.8098,
      "id": "GHCND:ASN00040544",
      "elevationUnit": "METERS",
      "longitude": 153.1022
    },
    {
      "elevation": 15,
      "mindate": "1937-01-31",
      "maxdate": "2001-10-31",
      "latitude": -26.6267,
      "name": "MORETON SUGAR MILL, AS",
      "datacoverage": 0.9999,
      "id": "GHCND:ASN00040547",
      "elevationUnit": "METERS",
      "longitude": 152.9567
    },
    {
      "elevation": 355,
      "mindate": "1750-03-09",
      "maxdate": "2025-01-31",
      "latitude": -28.2452,
      "name": "NUMINBAH, AS",
      "datacoverage": 0.9982,
      "id": "GHCND:ASN00040550",
      "elevationUnit": "METERS",
      "longitude": 153.2369
    },
    {
      "elevation": 115,
      "mindate": "2003-04-01",
      "maxdate": "2008-11-30",
      "latitude": -27.4111,
      "name": "WIVENHOE POCKET, AS",
      "datacoverage": 0.9553,
      "id": "GHCND:ASN00040552",
      "elevationUnit": "METERS",
      "longitude": 152.6144
    },
    {
      "elevation": 30,
      "mindate": "1973-11-01",
      "maxdate": "1983-04-04",
      "latitude": -26.8425,
      "name": "BEERWAH CSIRO RES STATION, AS",
      "datacoverage": 1,
      "id": "GHCND:ASN00040553",
      "elevationUnit": "METERS",
      "longitude": 153.0261
    },
    {
      "mindate": "1974-02-01",
      "maxdate": "1977-02-28",
      "latitude": -27.6167,
      "name": "CLOVERDALE LAWNS, AS",
      "datacoverage": 0.9478,
      "id": "GHCND:ASN00040554",
      "longitude": 152.9833
    },
    {
      "elevation": 80,
      "mindate": "1997-11-01",
      "maxdate": "2015-01-19",
      "latitude": -25.9714,
      "name": "TOOLARA KELLY, AS",
      "datacoverage": 0.9999,
      "id": "GHCND:ASN00040555",
      "elevationUnit": "METERS",
      "longitude": 152.8608
    },
    {
      "elevation": 410,
      "mindate": "1943-06-01",
      "maxdate": "1981-04-30",
      "latitude": -26.5167,
      "name": "WEENS BRIDGE, AS",
      "datacoverage": 0.9518,
      "id": "GHCND:ASN00040556",
      "elevationUnit": "METERS",
      "longitude": 151.7667
    },
    {
      "mindate": "1919-09-01",
      "maxdate": "1986-12-31",
      "latitude": -26.1167,
      "name": "ILLAVALE, AS",
      "datacoverage": 0.9388,
      "id": "GHCND:ASN00040557",
      "longitude": 152.4333
    },
    {
      "elevation": 229,
      "mindate": "1998-01-01",
      "maxdate": "2010-11-30",
      "latitude": -28.2157,
      "name": "GLENGAVEN, AS",
      "datacoverage": 0.9937,
      "id": "GHCND:ASN00040558",
      "elevationUnit": "METERS",
      "longitude": 153.2347
    },
    {
      "elevation": 92,
      "mindate": "1957-12-01",
      "maxdate": "1979-02-28",
      "latitude": -26.2667,
      "name": "MOFFATDALE, AS",
      "datacoverage": 0.8747,
      "id": "GHCND:ASN00040559",
      "elevationUnit": "METERS",
      "longitude": 151.9833
    },
    {
      "mindate": "1897-01-01",
      "maxdate": "1902-08-31",
      "latitude": -27.6,
      "name": "WALLOON, AS",
      "datacoverage": 0.9579,
      "id": "GHCND:ASN00040560",
      "longitude": 152.6667
    },
    {
      "elevation": 112,
      "mindate": "1907-10-01",
      "maxdate": "2008-11-30",
      "latitude": -26.5139,
      "name": "BELLI PARK, AS",
      "datacoverage": 0.2652,
      "id": "GHCND:ASN00040561",
      "elevationUnit": "METERS",
      "longitude": 152.8314
    },
    {
      "mindate": "1899-08-01",
      "maxdate": "1913-03-31",
      "latitude": -27.0833,
      "name": "BULWER SIGNAL STATION",
      "datacoverage": 1,
      "id": "GHCND:ASN00040562",
      "longitude": 153.3667
    },
    {
      "mindate": "1910-01-01",
      "maxdate": "1916-07-31",
      "latitude": -26.6333,
      "name": "WAKEFIELD, AS",
      "datacoverage": 1,
      "id": "GHCND:ASN00040563",
      "longitude": 151.7
    },
    {
      "mindate": "1920-03-01",
      "maxdate": "1934-01-31",
      "latitude": -26.3833,
      "name": "SKYRING CREEK, AS",
      "datacoverage": 1,
      "id": "GHCND:ASN00040566",
      "longitude": 152.8
    },
    {
      "mindate": "1909-05-01",
      "maxdate": "1916-05-31",
      "latitude": -27.9,
      "name": "INGRAM, AS",
      "datacoverage": 1,
      "id": "GHCND:ASN00040567",
      "longitude": 152.95
    },
    {
      "mindate": "1894-07-01",
      "maxdate": "1928-05-31",
      "latitude": -27.5667,
      "name": "WOODLANDS, AS",
      "datacoverage": 0.5711,
      "id": "GHCND:ASN00040568",
      "longitude": 152.6167
    },
    {
      "mindate": "1920-01-01",
      "maxdate": "1937-06-30",
      "latitude": -26.4333,
      "name": "JOHNSTOWN, AS",
      "datacoverage": 1,
      "id": "GHCND:ASN00040569",
      "longitude": 152.05
    },
    {
      "elevation": 125,
      "mindate": "1998-01-01",
      "maxdate": "2004-12-08",
      "latitude": -27.6964,
      "name": "MULGOWIE, AS",
      "datacoverage": 0.9995,
      "id": "GHCND:ASN00040570",
      "elevationUnit": "METERS",
      "longitude": 152.3569
    },
    {
      "mindate": "1908-10-01",
      "maxdate": "1926-04-30",
      "latitude": -27.8167,
      "name": "PIMPAMA STATE SCHOOL, AS",
      "datacoverage": 0.9433,
      "id": "GHCND:ASN00040571",
      "longitude": 153.2833
    },
    {
      "elevation": 120,
      "mindate": "1893-06-01",
      "maxdate": "1929-05-31",
      "latitude": -26.9667,
      "name": "HOLMWOOD, AS",
      "datacoverage": 0.0648,
      "id": "GHCND:ASN00040572",
      "elevationUnit": "METERS",
      "longitude": 152.7
    },
    {
      "mindate": "1897-04-01",
      "maxdate": "1902-04-30",
      "latitude": -27.6167,
      "name": "GABBINBAR, AS",
      "datacoverage": 1,
      "id": "GHCND:ASN00040573",
      "longitude": 151.9667
    },
    {
      "mindate": "1897-07-01",
      "maxdate": "1916-08-23",
      "latitude": -27.4667,
      "name": "CHIEFSWOOD, AS",
      "datacoverage": 0.5348,
      "id": "GHCND:ASN00040574",
      "longitude": 152.95
    },
    {
      "mindate": "1911-07-01",
      "maxdate": "1931-12-31",
      "latitude": -28.1167,
      "name": "TAMROOKUM, AS",
      "datacoverage": 0.6663,
      "id": "GHCND:ASN00040575",
      "longitude": 152.9167
    },
    {
      "elevation": 150,
      "mindate": "1947-01-01",
      "maxdate": "1970-03-31",
      "latitude": -28,
      "name": "RANGEVIEW FARM, AS",
      "datacoverage": 0.7614,
      "id": "GHCND:ASN00040576",
      "elevationUnit": "METERS",
      "longitude": 152.5
    },
    {
      "elevation": 150,
      "mindate": "1919-09-01",
      "maxdate": "1967-01-31",
      "latitude": -26.4333,
      "name": "BOLLIER, AS",
      "datacoverage": 0.9736,
      "id": "GHCND:ASN00040577",
      "elevationUnit": "METERS",
      "longitude": 152.7167
    },
    {
      "elevation": 80,
      "mindate": "1920-03-01",
      "maxdate": "2005-10-31",
      "latitude": -27.2133,
      "name": "DAYBORO, AS",
      "datacoverage": 0.1128,
      "id": "GHCND:ASN00040578",
      "elevationUnit": "METERS",
      "longitude": 152.8067
    },
    {
      "mindate": "1952-01-01",
      "maxdate": "1957-12-31",
      "latitude": -27.6833,
      "name": "BETHANIA, AS",
      "datacoverage": 1,
      "id": "GHCND:ASN00040579",
      "longitude": 153.15
    },
    {
      "mindate": "1911-07-01",
      "maxdate": "1915-01-31",
      "latitude": -27.5,
      "name": "LOCKROSE, AS",
      "datacoverage": 1,
      "id": "GHCND:ASN00040580",
      "longitude": 152.45
    },
    {
      "mindate": "1912-08-01",
      "maxdate": "1918-07-31",
      "latitude": -26.1167,
      "name": "CINNIBAR, AS",
      "datacoverage": 1,
      "id": "GHCND:ASN00040581",
      "longitude": 152.1833
    },
    {
      "mindate": "1920-01-01",
      "maxdate": "1929-02-28",
      "latitude": -27.0333,
      "name": "YELLOW PATCH LIGHT, AS",
      "datacoverage": 1,
      "id": "GHCND:ASN00040582",
      "longitude": 153.45
    },
    {
      "elevation": 240,
      "mindate": "1929-01-01",
      "maxdate": "2017-10-31",
      "latitude": -28.2714,
      "name": "WIDGEE, AS",
      "datacoverage": 0.9353,
      "id": "GHCND:ASN00040583",
      "elevationUnit": "METERS",
      "longitude": 153.0742
    },
    {
      "elevation": 110,
      "mindate": "1750-03-09",
      "maxdate": "2024-08-31",
      "latitude": -28.0481,
      "name": "HINZE DAM, AS",
      "datacoverage": 0.996,
      "id": "GHCND:ASN00040584",
      "elevationUnit": "METERS",
      "longitude": 153.2875
    },
    {
      "mindate": "1940-04-01",
      "maxdate": "1968-12-31",
      "latitude": -26.7333,
      "name": "BROOKLANDS, AS",
      "datacoverage": 0.9992,
      "id": "GHCND:ASN00040585",
      "longitude": 151.8167
    },
    {
      "mindate": "1888-10-01",
      "maxdate": "1918-12-31",
      "latitude": -27.9167,
      "name": "MILLBROOK, AS",
      "datacoverage": 0.2865,
      "id": "GHCND:ASN00040586",
      "longitude": 151.75
    },
    {
      "mindate": "1922-04-01",
      "maxdate": "1930-12-31",
      "latitude": -26.5,
      "name": "COOINDA, AS",
      "datacoverage": 0.9809,
      "id": "GHCND:ASN00040587",
      "longitude": 151.4333
    },
    {
      "mindate": "1923-08-01",
      "maxdate": "1948-01-31",
      "latitude": -26.1,
      "name": "MARSHLANDS, AS",
      "datacoverage": 0.0547,
      "id": "GHCND:ASN00040588",
      "longitude": 151.7667
    },
    {
      "mindate": "1924-07-01",
      "maxdate": "1948-07-31",
      "latitude": -26.8,
      "name": "CEDAR VIEW, AS",
      "datacoverage": 0.8176,
      "id": "GHCND:ASN00040589",
      "longitude": 152.5833
    },
    {
      "mindate": "1910-08-01",
      "maxdate": "1967-03-31",
      "latitude": -26.4,
      "name": "MANUMBAR MILL, AS",
      "datacoverage": 0.8744,
      "id": "GHCND:ASN00040590",
      "longitude": 152.3667
    },
    {
      "mindate": "1940-07-01",
      "maxdate": "1965-03-31",
      "latitude": -27.3167,
      "name": "MOUNT HALLON, AS",
      "datacoverage": 0.0678,
      "id": "GHCND:ASN00040593",
      "longitude": 152.4167
    },
    {
      "elevation": 34,
      "mindate": "1898-06-01",
      "maxdate": "1924-02-29",
      "latitude": -26.6667,
      "name": "WOOMBYE, AS",
      "datacoverage": 0.9969,
      "id": "GHCND:ASN00040594",
      "elevationUnit": "METERS",
      "longitude": 152.9667
    },
    {
      "mindate": "1890-02-01",
      "maxdate": "1904-11-30",
      "latitude": -27.0833,
      "name": "CRESSBROOK, AS",
      "datacoverage": 0.9947,
      "id": "GHCND:ASN00040595",
      "longitude": 152.45
    },
    {
      "mindate": "1922-04-01",
      "maxdate": "1969-12-31",
      "latitude": -28.2,
      "name": "BOONAH FOREST HOME, AS",
      "datacoverage": 0.545,
      "id": "GHCND:ASN00040597",
      "longitude": 152.7333
    },
    {
      "elevation": 277,
      "mindate": "1919-03-01",
      "maxdate": "1942-05-31",
      "latitude": -28.0833,
      "name": "CLUMBER, AS",
      "datacoverage": 0.9249,
      "id": "GHCND:ASN00040598",
      "elevationUnit": "METERS",
      "longitude": 152.5667
    },
    {
      "mindate": "1927-05-01",
      "maxdate": "1973-12-31",
      "latitude": -28.2,
      "name": "CAMBERRA, AS",
      "datacoverage": 0.3395,
      "id": "GHCND:ASN00040599",
      "longitude": 153.3833
    },
    {
      "elevation": 137,
      "mindate": "1926-12-01",
      "maxdate": "1949-02-28",
      "latitude": -28.2333,
      "name": "GLEN ELLEN, AS",
      "datacoverage": 0.9851,
      "id": "GHCND:ASN00040600",
      "elevationUnit": "METERS",
      "longitude": 153.3667
    },
    {
      "mindate": "1912-05-01",
      "maxdate": "1965-03-31",
      "latitude": -27.3333,
      "name": "BELLEVUE, AS",
      "datacoverage": 0.9991,
      "id": "GHCND:ASN00040601",
      "longitude": 152.55
    },
    {
      "elevation": 21,
      "mindate": "1923-11-01",
      "maxdate": "1968-03-31",
      "latitude": -28.0333,
      "name": "GILSTON STATE SCHOOL, AS",
      "datacoverage": 0.9287,
      "id": "GHCND:ASN00040602",
      "elevationUnit": "METERS",
      "longitude": 153.3
    },
    {
      "mindate": "1936-08-01",
      "maxdate": "1964-10-31",
      "latitude": -26.9,
      "name": "OAKVALE, AS",
      "datacoverage": 0.7996,
      "id": "GHCND:ASN00040603",
      "longitude": 152.5833
    },
    {
      "elevation": 128,
      "mindate": "1974-11-01",
      "maxdate": "2021-07-05",
      "latitude": -28.1056,
      "name": "UPPER MUDGEERABA WATER, AS",
      "datacoverage": 0.9959,
      "id": "GHCND:ASN00040606",
      "elevationUnit": "METERS",
      "longitude": 153.3286
    },
    {
      "elevation": 681,
      "mindate": "1750-03-09",
      "maxdate": "2025-02-26",
      "latitude": -28.2031,
      "name": "SPRINGBROOK ROAD, AS",
      "datacoverage": 1,
      "id": "GHCND:ASN00040607",
      "elevationUnit": "METERS",
      "longitude": 153.2719
    },
    {
      "elevation": 6,
      "mindate": "1974-11-01",
      "maxdate": "1990-11-30",
      "latitude": -28.0039,
      "name": "BENOWA WATER TREAT, AS",
      "datacoverage": 0.9379,
      "id": "GHCND:ASN00040608",
      "elevationUnit": "METERS",
      "longitude": 153.4008
    },
    {
      "elevation": 4,
      "mindate": "1750-03-09",
      "maxdate": "2024-12-31",
      "latitude": -28.1178,
      "name": "ELANORA WATER TREATMENT PLANT, AS",
      "datacoverage": 0.9993,
      "id": "GHCND:ASN00040609",
      "elevationUnit": "METERS",
      "longitude": 153.4457
    },
    {
      "elevation": 253,
      "mindate": "1975-01-01",
      "maxdate": "2012-11-11",
      "latitude": -28.2529,
      "name": "DARLINGTON, AS",
      "datacoverage": 0.9934,
      "id": "GHCND:ASN00040610",
      "elevationUnit": "METERS",
      "longitude": 153.0872
    },
    {
      "elevation": 545,
      "mindate": "1920-05-01",
      "maxdate": "2000-03-31",
      "latitude": -28.3256,
      "name": "YABBA CREEK, AS",
      "datacoverage": 0.8134,
      "id": "GHCND:ASN00040611",
      "elevationUnit": "METERS",
      "longitude": 152.3422
    },
    {
      "mindate": "1928-08-01",
      "maxdate": "1971-06-30",
      "latitude": -26.6,
      "name": "GLEN ELGIN, AS",
      "datacoverage": 0.8177,
      "id": "GHCND:ASN00040612",
      "longitude": 151.9833
    },
    {
      "mindate": "1935-06-01",
      "maxdate": "1968-03-31",
      "latitude": -26.6167,
      "name": "KIDAMAN, AS",
      "datacoverage": 0.7996,
      "id": "GHCND:ASN00040613",
      "longitude": 152.7667
    },
    {
      "elevation": 419,
      "mindate": "1919-05-01",
      "maxdate": "1972-06-30",
      "latitude": -28.35,
      "name": "MOUNT LINDSAY, AS",
      "datacoverage": 0.9452,
      "id": "GHCND:ASN00040614",
      "elevationUnit": "METERS",
      "longitude": 152.7333
    },
    {
      "elevation": 100,
      "mindate": "1928-09-01",
      "maxdate": "1959-09-30",
      "latitude": -28.2167,
      "name": "ROTTINGTON, AS",
      "datacoverage": 0.8328,
      "id": "GHCND:ASN00040615",
      "elevationUnit": "METERS",
      "longitude": 153.35
    },
    {
      "elevation": 360,
      "mindate": "1922-01-01",
      "maxdate": "1968-11-30",
      "latitude": -26.6333,
      "name": "COOLABUNIA, AS",
      "datacoverage": 0.945,
      "id": "GHCND:ASN00040616",
      "elevationUnit": "METERS",
      "longitude": 151.9333
    },
    {
      "elevation": 140,
      "mindate": "1953-01-01",
      "maxdate": "1970-12-31",
      "latitude": -27.25,
      "name": "RAYNBIRD CREEK, AS",
      "datacoverage": 1,
      "id": "GHCND:ASN00040617",
      "elevationUnit": "METERS",
      "longitude": 152.7333
    },
    {
      "elevation": 157,
      "mindate": "1916-01-01",
      "maxdate": "1931-11-30",
      "latitude": -26.2167,
      "name": "MONKLAND STATE SCHOOL, AS",
      "datacoverage": 0.7645,
      "id": "GHCND:ASN00040618",
      "elevationUnit": "METERS",
      "longitude": 152.6833
    },
    {
      "elevation": 340,
      "mindate": "1920-01-01",
      "maxdate": "1973-12-31",
      "latitude": -28.3183,
      "name": "RATHDOWNEY, AS",
      "datacoverage": 0.5278,
      "id": "GHCND:ASN00040619",
      "elevationUnit": "METERS",
      "longitude": 152.7269
    },
    {
      "mindate": "1951-07-01",
      "maxdate": "1968-12-31",
      "latitude": -28.2333,
      "name": "LENORE VALE, AS",
      "datacoverage": 0.9991,
      "id": "GHCND:ASN00040620",
      "longitude": 153.2333
    },
    {
      "elevation": 40,
      "mindate": "1941-10-01",
      "maxdate": "1960-09-30",
      "latitude": -28.1667,
      "name": "INGLESIDE, AS",
      "datacoverage": 1,
      "id": "GHCND:ASN00040621",
      "elevationUnit": "METERS",
      "longitude": 153.3833
    },
    {
      "elevation": 229,
      "mindate": "1934-06-01",
      "maxdate": "1962-09-30",
      "latitude": -28.15,
      "name": "ROCKVILLE, AS",
      "datacoverage": 0.8413,
      "id": "GHCND:ASN00040622",
      "elevationUnit": "METERS",
      "longitude": 152.5167
    },
    {
      "elevation": 40,
      "mindate": "1975-02-01",
      "maxdate": "1992-11-30",
      "latitude": -27.6911,
      "name": "GREENBANK ARMY CAMP, AS",
      "datacoverage": 0.9992,
      "id": "GHCND:ASN00040623",
      "elevationUnit": "METERS",
      "longitude": 152.9917
    },
    {
      "elevation": 146,
      "mindate": "1965-02-01",
      "maxdate": "1979-02-17",
      "latitude": -25.3167,
      "name": "GIGOOM POST OFFICE, AS",
      "datacoverage": 0.9994,
      "id": "GHCND:ASN00040624",
      "elevationUnit": "METERS",
      "longitude": 152.2
    },
    {
      "elevation": 90,
      "mindate": "1977-11-01",
      "maxdate": "1995-12-31",
      "latitude": -26.9425,
      "name": "WOODFORD BCC, AS",
      "datacoverage": 0.9588,
      "id": "GHCND:ASN00040628",
      "elevationUnit": "METERS",
      "longitude": 152.7608
    },
    {
      "elevation": 40,
      "mindate": "1889-01-01",
      "maxdate": "1906-02-28",
      "latitude": -27.5333,
      "name": "CORINDA, AS",
      "datacoverage": 0.9276,
      "id": "GHCND:ASN00040629",
      "elevationUnit": "METERS",
      "longitude": 152.9833
    },
    {
      "elevation": 400,
      "mindate": "1920-10-01",
      "maxdate": "1941-06-30",
      "latitude": -26.45,
      "name": "BELLA VALE, AS",
      "datacoverage": 0.9994,
      "id": "GHCND:ASN00040630",
      "elevationUnit": "METERS",
      "longitude": 152.1833
    },
    {
      "mindate": "1976-04-01",
      "maxdate": "1980-12-31",
      "latitude": -27.7333,
      "name": "CHAMBERS FLAT, AS",
      "datacoverage": 1,
      "id": "GHCND:ASN00040631",
      "longitude": 153.1
    },
    {
      "elevation": 52,
      "mindate": "2005-01-01",
      "maxdate": "2007-05-31",
      "latitude": -26.7592,
      "name": "GLENVIEW ISAMBERT RD, AS",
      "datacoverage": 1,
      "id": "GHCND:ASN00040632",
      "elevationUnit": "METERS",
      "longitude": 153.0239
    },
    {
      "elevation": 18,
      "mindate": "1975-09-01",
      "maxdate": "2012-05-31",
      "latitude": -27.2831,
      "name": "LAWNTON COLONIAL DRIVE, AS",
      "datacoverage": 0.9614,
      "id": "GHCND:ASN00040633",
      "elevationUnit": "METERS",
      "longitude": 152.9583
    },
    {
      "elevation": 70,
      "mindate": "1999-09-01",
      "maxdate": "2001-02-28",
      "latitude": -28.2058,
      "name": "CURRUMBIN VALLEY, AS",
      "datacoverage": 0.7234,
      "id": "GHCND:ASN00040634",
      "elevationUnit": "METERS",
      "longitude": 153.3936
    },
    {
      "elevation": 172,
      "mindate": "1750-03-09",
      "maxdate": "2024-12-31",
      "latitude": -26.8369,
      "name": "DANEWOOD VALE, AS",
      "datacoverage": 0.9623,
      "id": "GHCND:ASN00040635",
      "elevationUnit": "METERS",
      "longitude": 152.4914
    },
    {
      "elevation": 265,
      "mindate": "1975-10-01",
      "maxdate": "1979-08-31",
      "latitude": -26.75,
      "name": "CHENREZIG INSTITUTE, AS",
      "datacoverage": 0.6594,
      "id": "GHCND:ASN00040636",
      "elevationUnit": "METERS",
      "longitude": 152.9
    },
    {
      "elevation": 533,
      "mindate": "1970-01-01",
      "maxdate": "2001-05-31",
      "latitude": -27.0958,
      "name": "MOUNT MEE FOREST STATION, AS",
      "datacoverage": 0.8807,
      "id": "GHCND:ASN00040637",
      "elevationUnit": "METERS",
      "longitude": 152.7011
    },
    {
      "elevation": 53,
      "mindate": "1999-01-01",
      "maxdate": "2019-10-31",
      "latitude": -25.7275,
      "name": "TIARO POST OFFICE, AS",
      "datacoverage": 1,
      "id": "GHCND:ASN00040644",
      "elevationUnit": "METERS",
      "longitude": 152.5825
    },
    {
      "elevation": 80,
      "mindate": "1912-10-01",
      "maxdate": "1919-10-31",
      "latitude": -28.0833,
      "name": "LARAVALE, AS",
      "datacoverage": 1,
      "id": "GHCND:ASN00040648",
      "elevationUnit": "METERS",
      "longitude": 152.9333
    }
  ]
}
