{
  "metadata": {
    "resultset": {
      "offset": 18500,
      "count": 154115,
      "limit": 100
    }
  },
  "results": [
    {
      "elevation": 64,
      "mindate": "1957-08-01",
      "maxdate": "1963-08-01",
      "latitude": 47.46667,
      "name": "AMANDA PARK, WA US",
      "datacoverage": 0.9726,
      "id": "COOP:450158",
      "elevationUnit": "METERS",
      "longitude": -123.88333
    },
    {
      "elevation": 6.1,
      "mindate": "1919-01-01",
      "maxdate": "2015-11-01",
      "latitude": 48.5119,
      "name": "ANACORTES, WA US",
      "datacoverage": 0.9777,
      "id": "COOP:450176",
      "elevationUnit": "METERS",
      "longitude": -122.6136
    },
    {
      "elevation": 1089.1,
      "mindate": "1919-01-01",
      "maxdate": "1981-12-01",
      "latitude": 46.13333,
      "name": "ANATONE, WA US",
      "datacoverage": 0.8942,
      "id": "COOP:450184",
      "elevationUnit": "METERS",
      "longitude": -117.13333
    },
    {
      "elevation": 712,
      "mindate": "1959-06-01",
      "maxdate": "2006-10-01",
      "latitude": 45.8091,
      "name": "APPLETON, WA US",
      "datacoverage": 0.9806,
      "id": "COOP:450217",
      "elevationUnit": "METERS",
      "longitude": -121.2812
    },
    {
      "elevation": 68.3,
      "mindate": "1930-02-01",
      "maxdate": "1970-12-01",
      "latitude": 45.9551,
      "name": "MERWIN DAM, WA US",
      "datacoverage": 0.9247,
      "id": "COOP:450242",
      "elevationUnit": "METERS",
      "longitude": -122.5625
    },
    {
      "elevation": 30.5,
      "mindate": "1922-12-01",
      "maxdate": "2015-11-01",
      "latitude": 48.2005,
      "name": "ARLINGTON, WA US",
      "datacoverage": 0.8844,
      "id": "COOP:450257",
      "elevationUnit": "METERS",
      "longitude": -122.128
    },
    {
      "elevation": 1037.2,
      "mindate": "1976-07-01",
      "maxdate": "2015-11-01",
      "latitude": 46.20394,
      "name": "ASOTIN 14 SW, WA US",
      "datacoverage": 0.981,
      "id": "COOP:450294",
      "elevationUnit": "METERS",
      "longitude": -117.2471
    },
    {
      "elevation": 24.1,
      "mindate": "1954-08-01",
      "maxdate": "1977-02-01",
      "latitude": 47.31667,
      "name": "AUBURN, WA US",
      "datacoverage": 0.12,
      "id": "COOP:450324",
      "elevationUnit": "METERS",
      "longitude": -122.23333
    },
    {
      "elevation": 667.5,
      "mindate": "1982-10-01",
      "maxdate": "1989-04-01",
      "latitude": 46.1,
      "name": "BALDY MOUNTAIN, WA US",
      "datacoverage": 0.0885,
      "id": "COOP:450400",
      "elevationUnit": "METERS",
      "longitude": -122.7
    },
    {
      "elevation": 236.8,
      "mindate": "1970-01-01",
      "maxdate": "2015-11-01",
      "latitude": 47.77222,
      "name": "BARING, WA US",
      "datacoverage": 0.9747,
      "id": "COOP:450456",
      "elevationUnit": "METERS",
      "longitude": -121.4825
    },
    {
      "elevation": 86.6,
      "mindate": "1928-06-01",
      "maxdate": "2015-11-01",
      "latitude": 45.7716,
      "name": "BATTLE GROUND, WA US",
      "datacoverage": 0.9152,
      "id": "COOP:450482",
      "elevationUnit": "METERS",
      "longitude": -122.5286
    },
    {
      "elevation": 43,
      "mindate": "1919-01-01",
      "maxdate": "1985-04-01",
      "latitude": 48.78333,
      "name": "BELLINGHAM 2 N, WA US",
      "datacoverage": 0.9963,
      "id": "COOP:450564",
      "elevationUnit": "METERS",
      "longitude": -122.48333
    },
    {
      "elevation": 91.4,
      "mindate": "1998-04-01",
      "maxdate": "2006-12-01",
      "latitude": 48.7422,
      "name": "BELLINGHAM KVOS, WA US",
      "datacoverage": 0.9521,
      "id": "COOP:450566",
      "elevationUnit": "METERS",
      "longitude": -122.4725
    },
    {
      "elevation": 49.1,
      "mindate": "1931-01-01",
      "maxdate": "1941-06-01",
      "latitude": 48.75,
      "name": "BELLINGHAM, WA US",
      "datacoverage": 1,
      "id": "COOP:450569",
      "elevationUnit": "METERS",
      "longitude": -122.48333
    },
    {
      "elevation": 45.9,
      "mindate": "1948-07-04",
      "maxdate": "1996-05-01",
      "latitude": 48.7991,
      "name": "BELLINGHAM INTERNATIONAL AIRPORT, WA US",
      "datacoverage": 1,
      "id": "COOP:450574",
      "elevationUnit": "METERS",
      "longitude": -122.54069
    },
    {
      "elevation": 9.8,
      "mindate": "1985-08-01",
      "maxdate": "2015-11-01",
      "latitude": 48.71696,
      "name": "BELLINGHAM 3 SSW, WA US",
      "datacoverage": 0.9973,
      "id": "COOP:450587",
      "elevationUnit": "METERS",
      "longitude": -122.51429
    },
    {
      "elevation": 207,
      "mindate": "1919-01-01",
      "maxdate": "1964-01-01",
      "latitude": 46.28333,
      "name": "BENTON CITY 2 NW, WA US",
      "datacoverage": 0.9316,
      "id": "COOP:450628",
      "elevationUnit": "METERS",
      "longitude": -119.5
    },
    {
      "elevation": 860.1,
      "mindate": "1931-01-01",
      "maxdate": "1939-04-01",
      "latitude": 47.76667,
      "name": "BERNE, WA US",
      "datacoverage": 0.6304,
      "id": "COOP:450641",
      "elevationUnit": "METERS",
      "longitude": -120.98333
    },
    {
      "elevation": 919,
      "mindate": "1927-07-01",
      "maxdate": "2015-11-01",
      "latitude": 45.9981,
      "name": "BICKLETON, WA US",
      "datacoverage": 0.9104,
      "id": "COOP:450668",
      "elevationUnit": "METERS",
      "longitude": -120.3006
    },
    {
      "elevation": 534,
      "mindate": "1931-01-01",
      "maxdate": "1942-04-01",
      "latitude": 48.06667,
      "name": "BIG FOUR, WA US",
      "datacoverage": 0.6179,
      "id": "COOP:450672",
      "elevationUnit": "METERS",
      "longitude": -121.5
    },
    {
      "elevation": 5.2,
      "mindate": "1919-01-01",
      "maxdate": "2015-11-01",
      "latitude": 48.99459,
      "name": "BLAINE, WA US",
      "datacoverage": 0.9622,
      "id": "COOP:450729",
      "elevationUnit": "METERS",
      "longitude": -122.76205
    },
    {
      "elevation": 1241.1,
      "mindate": "1927-01-01",
      "maxdate": "1949-12-01",
      "latitude": 47.35,
      "name": "BLEWETT PASS, WA US",
      "datacoverage": 0.7427,
      "id": "COOP:450749",
      "elevationUnit": "METERS",
      "longitude": -120.66667
    },
    {
      "elevation": 2104.9,
      "mindate": "1957-08-01",
      "maxdate": "1963-09-01",
      "latitude": 47.81667,
      "name": "BLUE GLACIER, WA US",
      "datacoverage": 0.3514,
      "id": "COOP:450770",
      "elevationUnit": "METERS",
      "longitude": -123.76667
    },
    {
      "elevation": 34.1,
      "mindate": "1931-01-01",
      "maxdate": "1959-05-01",
      "latitude": 47.76667,
      "name": "BOTHELL, WA US",
      "datacoverage": 0.962,
      "id": "COOP:450826",
      "elevationUnit": "METERS",
      "longitude": -122.21667
    },
    {
      "elevation": 424,
      "mindate": "1948-07-05",
      "maxdate": "1959-05-01",
      "latitude": 49,
      "name": "BOUNDARY, WA US",
      "datacoverage": 0.6416,
      "id": "COOP:450839",
      "elevationUnit": "METERS",
      "longitude": -117.63333
    },
    {
      "elevation": 559.9,
      "mindate": "1965-06-01",
      "maxdate": "2015-11-01",
      "latitude": 48.99444,
      "name": "BOUNDARY DAM, WA US",
      "datacoverage": 0.934,
      "id": "COOP:450844",
      "elevationUnit": "METERS",
      "longitude": -117.35407
    },
    {
      "elevation": 793.1,
      "mindate": "1971-01-01",
      "maxdate": "1973-12-01",
      "latitude": 48.98333,
      "name": "BOUNDARY DAM 1 W, WA US",
      "datacoverage": 0.9998,
      "id": "COOP:450845",
      "elevationUnit": "METERS",
      "longitude": -117.35
    },
    {
      "elevation": 783.9,
      "mindate": "1971-01-01",
      "maxdate": "2014-01-01",
      "latitude": 48.98057,
      "name": "BOUNDARY SWITCHYARD, WA US",
      "datacoverage": 0.0223,
      "id": "COOP:450849",
      "elevationUnit": "METERS",
      "longitude": -117.35867
    },
    {
      "elevation": 36.6,
      "mindate": "1919-01-01",
      "maxdate": "2015-11-01",
      "latitude": 47.5688,
      "name": "BREMERTON, WA US",
      "datacoverage": 0.9777,
      "id": "COOP:450872",
      "elevationUnit": "METERS",
      "longitude": -122.6827
    },
    {
      "elevation": 57.9,
      "mindate": "1927-12-01",
      "maxdate": "1974-03-01",
      "latitude": 46.78333,
      "name": "BROOKLYN, WA US",
      "datacoverage": 0.9676,
      "id": "COOP:450917",
      "elevationUnit": "METERS",
      "longitude": -123.5
    },
    {
      "elevation": 73.2,
      "mindate": "1964-03-01",
      "maxdate": "1966-06-28",
      "latitude": 46.78333,
      "name": "BROOKLYN 2 E, WA US",
      "datacoverage": 0.1677,
      "id": "COOP:450920",
      "elevationUnit": "METERS",
      "longitude": -123.46667
    },
    {
      "elevation": 208.8,
      "mindate": "1919-01-01",
      "maxdate": "2012-12-01",
      "latitude": 47.1694,
      "name": "BUCKLEY 1 NE, WA US",
      "datacoverage": 0.9893,
      "id": "COOP:450945",
      "elevationUnit": "METERS",
      "longitude": -122.0036
    },
    {
      "elevation": 1049.1,
      "mindate": "1919-01-01",
      "maxdate": "1967-06-01",
      "latitude": 46.86667,
      "name": "BUMPING LAKE, WA US",
      "datacoverage": 0.9915,
      "id": "COOP:450969",
      "elevationUnit": "METERS",
      "longitude": -121.3
    },
    {
      "elevation": 9.1,
      "mindate": "1948-07-04",
      "maxdate": "2014-01-01",
      "latitude": 48.4672,
      "name": "BURLINGTON, WA US",
      "datacoverage": 0.8455,
      "id": "COOP:450986",
      "elevationUnit": "METERS",
      "longitude": -122.3136
    },
    {
      "elevation": 366.1,
      "mindate": "1931-03-01",
      "maxdate": "1941-08-01",
      "latitude": 47.43333,
      "name": "CAMP EIGHT, WA US",
      "datacoverage": 0.944,
      "id": "COOP:451059",
      "elevationUnit": "METERS",
      "longitude": -121.65
    },
    {
      "elevation": 249.9,
      "mindate": "1956-09-01",
      "maxdate": "1985-12-01",
      "latitude": 47.36667,
      "name": "CAMP GRISDALE, WA US",
      "datacoverage": 0.1322,
      "id": "COOP:451064",
      "elevationUnit": "METERS",
      "longitude": -123.6
    },
    {
      "elevation": 3,
      "mindate": "1931-01-01",
      "maxdate": "1940-07-01",
      "latitude": 46.8,
      "name": "CANTO, WA US",
      "datacoverage": 0.6001,
      "id": "COOP:451092",
      "elevationUnit": "METERS",
      "longitude": -123.85
    },
    {
      "elevation": 499.9,
      "mindate": "1957-12-01",
      "maxdate": "1962-07-01",
      "latitude": 46.98333,
      "name": "CARBONADO 8 SSE, WA US",
      "datacoverage": 1,
      "id": "COOP:451113",
      "elevationUnit": "METERS",
      "longitude": -121.96667
    },
    {
      "elevation": 18.3,
      "mindate": "1952-10-01",
      "maxdate": "1953-03-01",
      "latitude": 47.66667,
      "name": "CARNATION 1 NW, WA US",
      "datacoverage": 1,
      "id": "COOP:451142",
      "elevationUnit": "METERS",
      "longitude": -121.91667
    },
    {
      "elevation": 15.2,
      "mindate": "1948-07-04",
      "maxdate": "2003-02-01",
      "latitude": 47.69306,
      "name": "CARNATION 4 NW, WA US",
      "datacoverage": 0.9407,
      "id": "COOP:451146",
      "elevationUnit": "METERS",
      "longitude": -121.99472
    },
    {
      "elevation": 345.6,
      "mindate": "1977-08-01",
      "maxdate": "2015-11-01",
      "latitude": 45.8677,
      "name": "CARSON FISH HATCHERY, WA US",
      "datacoverage": 0.9892,
      "id": "COOP:451160",
      "elevationUnit": "METERS",
      "longitude": -121.9733
    },
    {
      "elevation": 34.1,
      "mindate": "1931-01-01",
      "maxdate": "1941-05-01",
      "latitude": 46.28333,
      "name": "CASTLE ROCK, WA US",
      "datacoverage": 0.9202,
      "id": "COOP:451189",
      "elevationUnit": "METERS",
      "longitude": -122.9
    },
    {
      "elevation": 11.9,
      "mindate": "1954-08-01",
      "maxdate": "1978-10-01",
      "latitude": 46.26667,
      "name": "CASTLE ROCK, WA US",
      "datacoverage": 0.128,
      "id": "COOP:451191",
      "elevationUnit": "METERS",
      "longitude": -122.91667
    },
    {
      "elevation": 18.6,
      "mindate": "1959-07-01",
      "maxdate": "2015-02-01",
      "latitude": 46.22583,
      "name": "CATHLAMET 3 NE, WA US",
      "datacoverage": 0.9566,
      "id": "COOP:451205",
      "elevationUnit": "METERS",
      "longitude": -123.32917
    },
    {
      "elevation": 146,
      "mindate": "1927-06-01",
      "maxdate": "1959-05-01",
      "latitude": 46.31667,
      "name": "CATHLAMET 9 NE, WA US",
      "datacoverage": 0.901,
      "id": "COOP:451207",
      "elevationUnit": "METERS",
      "longitude": -123.26667
    },
    {
      "elevation": 480.4,
      "mindate": "1919-01-01",
      "maxdate": "2015-11-01",
      "latitude": 47.4144,
      "name": "CEDAR LAKE, WA US",
      "datacoverage": 0.9931,
      "id": "COOP:451233",
      "elevationUnit": "METERS",
      "longitude": -121.7561
    },
    {
      "elevation": 502.9,
      "mindate": "1948-07-05",
      "maxdate": "1956-07-01",
      "latitude": 45.73333,
      "name": "CENTERVILLE 2 SW, WA US",
      "datacoverage": 0.5462,
      "id": "COOP:451257",
      "elevationUnit": "METERS",
      "longitude": -120.95
    },
    {
      "elevation": 56.4,
      "mindate": "1919-01-01",
      "maxdate": "2015-11-01",
      "latitude": 46.72,
      "name": "CENTRALIA, WA US",
      "datacoverage": 0.9742,
      "id": "COOP:451276",
      "elevationUnit": "METERS",
      "longitude": -122.9527
    },
    {
      "elevation": 51.8,
      "mindate": "1967-09-01",
      "maxdate": "2014-01-01",
      "latitude": 46.7116,
      "name": "CENTRALIA 1 W, WA US",
      "datacoverage": 0.0389,
      "id": "COOP:451277",
      "elevationUnit": "METERS",
      "longitude": -122.9775
    },
    {
      "elevation": 54.9,
      "mindate": "1948-07-04",
      "maxdate": "1968-05-01",
      "latitude": 46.66667,
      "name": "CHEHALIS, WA US",
      "datacoverage": 0.9407,
      "id": "COOP:451330",
      "elevationUnit": "METERS",
      "longitude": -122.98333
    },
    {
      "elevation": 363.9,
      "mindate": "1958-05-01",
      "maxdate": "2015-11-01",
      "latitude": 47.83426,
      "name": "CHELAN, WA US",
      "datacoverage": 0.9971,
      "id": "COOP:451350",
      "elevationUnit": "METERS",
      "longitude": -120.00021
    },
    {
      "elevation": 732.1,
      "mindate": "1938-01-01",
      "maxdate": "1955-10-01",
      "latitude": 47.48333,
      "name": "CHENEY, WA US",
      "datacoverage": 0.9954,
      "id": "COOP:451362",
      "elevationUnit": "METERS",
      "longitude": -117.58333
    },
    {
      "elevation": 875.1,
      "mindate": "1926-01-01",
      "maxdate": "1958-10-01",
      "latitude": 48.95,
      "name": "CHESAW, WA US",
      "datacoverage": 0.3351,
      "id": "COOP:451381",
      "elevationUnit": "METERS",
      "longitude": -119.05
    },
    {
      "elevation": 976,
      "mindate": "1931-01-01",
      "maxdate": "1951-11-01",
      "latitude": 48.95,
      "name": "CHESAW, WA US",
      "datacoverage": 1,
      "id": "COOP:451382",
      "elevationUnit": "METERS",
      "longitude": -119.06667
    },
    {
      "elevation": 839.1,
      "mindate": "1958-10-01",
      "maxdate": "1959-05-01",
      "latitude": 48.98333,
      "name": "CHESAW 2 NNE, WA US",
      "datacoverage": 0.8768,
      "id": "COOP:451383",
      "elevationUnit": "METERS",
      "longitude": -119.03333
    },
    {
      "elevation": 1207.9,
      "mindate": "1959-05-01",
      "maxdate": "1984-04-01",
      "latitude": 49,
      "name": "CHESAW 4 NNW, WA US",
      "datacoverage": 0.9899,
      "id": "COOP:451385",
      "elevationUnit": "METERS",
      "longitude": -119.06667
    },
    {
      "elevation": 501.1,
      "mindate": "1925-09-01",
      "maxdate": "2015-11-01",
      "latitude": 48.27323,
      "name": "CHEWELAH, WA US",
      "datacoverage": 0.9881,
      "id": "COOP:451395",
      "elevationUnit": "METERS",
      "longitude": -117.74101
    },
    {
      "elevation": 254.2,
      "mindate": "1949-10-01",
      "maxdate": "2015-11-01",
      "latitude": 47.9967,
      "name": "CHIEF JOSEPH DAM, WA US",
      "datacoverage": 0.9925,
      "id": "COOP:451400",
      "elevationUnit": "METERS",
      "longitude": -119.6482
    },
    {
      "elevation": 42.7,
      "mindate": "1926-10-01",
      "maxdate": "2015-11-01",
      "latitude": 47.9522,
      "name": "CHIMACUM 4 S, WA US",
      "datacoverage": 0.9963,
      "id": "COOP:451414",
      "elevationUnit": "METERS",
      "longitude": -122.7908
    },
    {
      "elevation": 826.9,
      "mindate": "1925-06-01",
      "maxdate": "1957-09-01",
      "latitude": 48.03333,
      "name": "CHIWAWA RIVER, WA US",
      "datacoverage": 0.9278,
      "id": "COOP:451426",
      "elevationUnit": "METERS",
      "longitude": -120.83333
    },
    {
      "elevation": 317.9,
      "mindate": "1948-07-04",
      "maxdate": "2014-01-01",
      "latitude": 46.605,
      "name": "CINEBAR 2 E, WA US",
      "datacoverage": 1,
      "id": "COOP:451457",
      "elevationUnit": "METERS",
      "longitude": -122.49667
    },
    {
      "elevation": 9.1,
      "mindate": "1927-11-01",
      "maxdate": "1976-07-01",
      "latitude": 48.26667,
      "name": "CLALLAM BAY 1 NNE, WA US",
      "datacoverage": 0.9726,
      "id": "COOP:451465",
      "elevationUnit": "METERS",
      "longitude": -124.25
    },
    {
      "elevation": 363,
      "mindate": "1937-11-01",
      "maxdate": "1959-12-01",
      "latitude": 46.38333,
      "name": "CLARKSTON HEIGHTS, WA US",
      "datacoverage": 0.9963,
      "id": "COOP:451474",
      "elevationUnit": "METERS",
      "longitude": -117.08333
    },
    {
      "elevation": 19.5,
      "mindate": "1919-01-01",
      "maxdate": "2015-11-01",
      "latitude": 48.9672,
      "name": "CLEARBROOK, WA US",
      "datacoverage": 0.9966,
      "id": "COOP:451484",
      "elevationUnit": "METERS",
      "longitude": -122.3291
    },
    {
      "elevation": 24.4,
      "mindate": "1896-02-01",
      "maxdate": "2015-11-01",
      "latitude": 47.5711,
      "name": "CLEARWATER, WA US",
      "datacoverage": 0.8498,
      "id": "COOP:451496",
      "elevationUnit": "METERS",
      "longitude": -124.2922
    },
    {
      "elevation": 579.1,
      "mindate": "1919-01-01",
      "maxdate": "2015-11-01",
      "latitude": 47.189,
      "name": "CLE ELUM, WA US",
      "datacoverage": 0.914,
      "id": "COOP:451504",
      "elevationUnit": "METERS",
      "longitude": -120.913
    },
    {
      "elevation": 603.5,
      "mindate": "1919-01-01",
      "maxdate": "1994-05-01",
      "latitude": 46.88333,
      "name": "COLFAX, WA US",
      "datacoverage": 0.9757,
      "id": "COOP:451586",
      "elevationUnit": "METERS",
      "longitude": -117.35
    },
    {
      "elevation": 473.7,
      "mindate": "1919-01-01",
      "maxdate": "2015-11-01",
      "latitude": 48.56784,
      "name": "COLVILLE, WA US",
      "datacoverage": 0.5572,
      "id": "COOP:451630",
      "elevationUnit": "METERS",
      "longitude": -117.93545
    },
    {
      "elevation": 574.5,
      "mindate": "1937-03-01",
      "maxdate": "1988-03-01",
      "latitude": 48.55,
      "name": "COLVILLE AIRPORT, WA US",
      "datacoverage": 0.9737,
      "id": "COOP:451650",
      "elevationUnit": "METERS",
      "longitude": -117.88333
    },
    {
      "elevation": 505.1,
      "mindate": "1988-04-01",
      "maxdate": "1993-02-21",
      "latitude": 48.55,
      "name": "COLVILLE BASIC, WA US",
      "datacoverage": 1,
      "id": "COOP:451654",
      "elevationUnit": "METERS",
      "longitude": -117.9
    },
    {
      "elevation": 703.8,
      "mindate": "1919-01-01",
      "maxdate": "2015-11-01",
      "latitude": 48.5557,
      "name": "CONCONULLY, WA US",
      "datacoverage": 0.9011,
      "id": "COOP:451666",
      "elevationUnit": "METERS",
      "longitude": -119.7492
    },
    {
      "elevation": 59.4,
      "mindate": "1925-01-01",
      "maxdate": "2015-11-01",
      "latitude": 48.5397,
      "name": "CONCRETE PPL FISH STATION, WA US",
      "datacoverage": 0.9945,
      "id": "COOP:451679",
      "elevationUnit": "METERS",
      "longitude": -121.7422
    },
    {
      "elevation": 310.9,
      "mindate": "1960-06-01",
      "maxdate": "2003-07-01",
      "latitude": 46.66444,
      "name": "CONNELL 1 W, WA US",
      "datacoverage": 1,
      "id": "COOP:451690",
      "elevationUnit": "METERS",
      "longitude": -118.88278
    },
    {
      "elevation": 328.6,
      "mindate": "1951-09-01",
      "maxdate": "2014-12-01",
      "latitude": 46.5086,
      "name": "CONNELL 12 SE, WA US",
      "datacoverage": 0.9592,
      "id": "COOP:451691",
      "elevationUnit": "METERS",
      "longitude": -118.7878
    },
    {
      "elevation": 164.6,
      "mindate": "1982-10-01",
      "maxdate": "1989-04-01",
      "latitude": 46.0858,
      "name": "COUGAR, WA US",
      "datacoverage": 0.131,
      "id": "COOP:451750",
      "elevationUnit": "METERS",
      "longitude": -122.31
    },
    {
      "elevation": 153,
      "mindate": "1955-03-01",
      "maxdate": "1958-12-01",
      "latitude": 46.06667,
      "name": "COUGAR 1 E, WA US",
      "datacoverage": 0.9987,
      "id": "COOP:451757",
      "elevationUnit": "METERS",
      "longitude": -122.28333
    },
    {
      "elevation": 158.5,
      "mindate": "1948-07-01",
      "maxdate": "2014-01-01",
      "latitude": 46.0086,
      "name": "COUGAR 4 SW, WA US",
      "datacoverage": 0.9104,
      "id": "COOP:451759",
      "elevationUnit": "METERS",
      "longitude": -122.3455
    },
    {
      "elevation": 200.9,
      "mindate": "1953-07-01",
      "maxdate": "2015-11-01",
      "latitude": 46.0625,
      "name": "COUGAR 6 E, WA US",
      "datacoverage": 0.9185,
      "id": "COOP:451760",
      "elevationUnit": "METERS",
      "longitude": -122.2044
    },
    {
      "elevation": 524,
      "mindate": "1942-08-01",
      "maxdate": "2015-11-01",
      "latitude": 47.95449,
      "name": "COULEE DAM 1 SW, WA US",
      "datacoverage": 0.9841,
      "id": "COOP:451767",
      "elevationUnit": "METERS",
      "longitude": -118.99968
    },
    {
      "elevation": 15.2,
      "mindate": "1919-01-01",
      "maxdate": "2015-11-01",
      "latitude": 48.2072,
      "name": "COUPEVILLE 1 S, WA US",
      "datacoverage": 0.9837,
      "id": "COOP:451783",
      "elevationUnit": "METERS",
      "longitude": -122.6913
    },
    {
      "elevation": 231.6,
      "mindate": "1926-01-01",
      "maxdate": "2014-01-01",
      "latitude": 47.4238,
      "name": "CUSHMAN DAM, WA US",
      "datacoverage": 0.9983,
      "id": "COOP:451934",
      "elevationUnit": "METERS",
      "longitude": -123.2197
    },
    {
      "elevation": 6.4,
      "mindate": "1973-06-01",
      "maxdate": "2015-11-01",
      "latitude": 47.3705,
      "name": "CUSHMAN POWERHOUSE NUMBER 2, WA US",
      "datacoverage": 0.9961,
      "id": "COOP:451939",
      "elevationUnit": "METERS",
      "longitude": -123.16
    },
    {
      "elevation": 71.2,
      "mindate": "1941-01-01",
      "maxdate": "2015-11-01",
      "latitude": 45.61901,
      "name": "DALLESPORT AIRPORT, WA US",
      "datacoverage": 0.9967,
      "id": "COOP:451968",
      "elevationUnit": "METERS",
      "longitude": -121.16571
    },
    {
      "elevation": 586.1,
      "mindate": "1948-01-01",
      "maxdate": "1980-12-01",
      "latitude": 45.75,
      "name": "DALLESPORT 9 N, WA US",
      "datacoverage": 0.9974,
      "id": "COOP:451972",
      "elevationUnit": "METERS",
      "longitude": -121.15
    },
    {
      "elevation": 167,
      "mindate": "1919-01-01",
      "maxdate": "2015-11-01",
      "latitude": 48.26056,
      "name": "DARRINGTON RANGER STATION, WA US",
      "datacoverage": 0.9252,
      "id": "COOP:451992",
      "elevationUnit": "METERS",
      "longitude": -121.60278
    },
    {
      "elevation": 739.1,
      "mindate": "1919-01-01",
      "maxdate": "2015-11-01",
      "latitude": 47.66371,
      "name": "DAVENPORT, WA US",
      "datacoverage": 0.9871,
      "id": "COOP:452007",
      "elevationUnit": "METERS",
      "longitude": -118.16133
    },
    {
      "elevation": 474.6,
      "mindate": "1919-01-01",
      "maxdate": "2015-11-01",
      "latitude": 46.3152,
      "name": "DAYTON 1 WSW, WA US",
      "datacoverage": 0.9768,
      "id": "COOP:452030",
      "elevationUnit": "METERS",
      "longitude": -118.0022
    },
    {
      "elevation": 522.1,
      "mindate": "1948-10-01",
      "maxdate": "1962-02-01",
      "latitude": 46.36667,
      "name": "DAYTON 5 NW, WA US",
      "datacoverage": 0.5631,
      "id": "COOP:452035",
      "elevationUnit": "METERS",
      "longitude": -118.06667
    },
    {
      "elevation": 714.1,
      "mindate": "1948-07-03",
      "maxdate": "1977-08-18",
      "latitude": 46.21667,
      "name": "DAYTON 9 SE, WA US",
      "datacoverage": 0.88,
      "id": "COOP:452037",
      "elevationUnit": "METERS",
      "longitude": -117.85
    },
    {
      "elevation": 672,
      "mindate": "2007-02-01",
      "maxdate": "2015-11-01",
      "latitude": 47.97416,
      "name": "DEER PARK AIRPORT, WA US",
      "datacoverage": 0.5757,
      "id": "COOP:452064",
      "elevationUnit": "METERS",
      "longitude": -117.42921
    },
    {
      "elevation": 670.9,
      "mindate": "1919-01-01",
      "maxdate": "1977-03-01",
      "latitude": 47.96667,
      "name": "DEER PARK AIRPORT, WA US",
      "datacoverage": 0.9815,
      "id": "COOP:452066",
      "elevationUnit": "METERS",
      "longitude": -117.43333
    },
    {
      "elevation": 61,
      "mindate": "1952-11-30",
      "maxdate": "1964-02-01",
      "latitude": 48.81667,
      "name": "DEMING, WA US",
      "datacoverage": 0.137,
      "id": "COOP:452107",
      "elevationUnit": "METERS",
      "longitude": -122.21667
    },
    {
      "elevation": 49.1,
      "mindate": "1949-01-01",
      "maxdate": "1951-11-01",
      "latitude": 48.85,
      "name": "DEMING 4 WNW, WA US",
      "datacoverage": 0.4577,
      "id": "COOP:452112",
      "elevationUnit": "METERS",
      "longitude": -122.3
    },
    {
      "elevation": -14.3,
      "mindate": "1931-01-01",
      "maxdate": "1946-02-01",
      "latitude": 47.675,
      "name": "DESTRUCTION ISLAND LIGHT STATION, US",
      "datacoverage": 0.9343,
      "id": "COOP:452126",
      "elevationUnit": "METERS",
      "longitude": -124.48583
    },
    {
      "elevation": 271.6,
      "mindate": "1928-08-01",
      "maxdate": "2015-11-01",
      "latitude": 48.7141,
      "name": "DIABLO DAM, WA US",
      "datacoverage": 0.9733,
      "id": "COOP:452157",
      "elevationUnit": "METERS",
      "longitude": -121.143
    },
    {
      "elevation": 1064.1,
      "mindate": "1953-09-01",
      "maxdate": "1978-12-01",
      "latitude": 48.43333,
      "name": "DISAUTEL 9 NE, WA US",
      "datacoverage": 1,
      "id": "COOP:452175",
      "elevationUnit": "METERS",
      "longitude": -119.1
    },
    {
      "elevation": 685.8,
      "mindate": "1948-07-06",
      "maxdate": "2007-09-01",
      "latitude": 46.0913,
      "name": "DIXIE 4 SE, WA US",
      "datacoverage": 1,
      "id": "COOP:452197",
      "elevationUnit": "METERS",
      "longitude": -118.1005
    },
    {
      "elevation": 683.1,
      "mindate": "1931-01-01",
      "maxdate": "1938-12-01",
      "latitude": 48.18333,
      "name": "DOMKE LAKE, WA US",
      "datacoverage": 0.9792,
      "id": "COOP:452214",
      "elevationUnit": "METERS",
      "longitude": -120.58333
    },
    {
      "elevation": 79.2,
      "mindate": "1978-01-01",
      "maxdate": "2007-03-01",
      "latitude": 46.62972,
      "name": "DOTY 3 E, WA US",
      "datacoverage": 0.9203,
      "id": "COOP:452220",
      "elevationUnit": "METERS",
      "longitude": -123.21056
    },
    {
      "elevation": 92,
      "mindate": "1963-06-01",
      "maxdate": "2015-11-01",
      "latitude": 46.6363,
      "name": "DRYAD, WA US",
      "datacoverage": 0.3603,
      "id": "COOP:452253",
      "elevationUnit": "METERS",
      "longitude": -123.2597
    }
  ]
}
