{
  "metadata": {
    "resultset": {
      "offset": 41900,
      "count": 154115,
      "limit": 100
    }
  },
  "results": [
    {
      "elevation": 40,
      "mindate": "1967-01-01",
      "maxdate": "1999-12-31",
      "latitude": -30.11,
      "name": "GUAIBA COUNTRY CLUB, BR",
      "datacoverage": 0.952,
      "id": "GHCND:BR003051005",
      "elevationUnit": "METERS",
      "longitude": -51.65
    },
    {
      "elevation": 65,
      "mindate": "1976-09-01",
      "maxdate": "1999-12-31",
      "latitude": -30.87,
      "name": "CAMAQUA, BR",
      "datacoverage": 0.9215,
      "id": "GHCND:BR003051016",
      "elevationUnit": "METERS",
      "longitude": -51.79
    },
    {
      "elevation": 25,
      "mindate": "1976-07-01",
      "maxdate": "1999-12-31",
      "latitude": -30.77,
      "name": "FAZENDA DA BOA VISTA, BR",
      "datacoverage": 0.9999,
      "id": "GHCND:BR003051017",
      "elevationUnit": "METERS",
      "longitude": -51.66
    },
    {
      "elevation": 35,
      "mindate": "1977-07-01",
      "maxdate": "1987-09-30",
      "latitude": -30.82,
      "name": "BARRAGEM DO DURO, BR",
      "datacoverage": 0.9842,
      "id": "GHCND:BR003051022",
      "elevationUnit": "METERS",
      "longitude": -51.86
    },
    {
      "elevation": 5,
      "mindate": "1976-03-01",
      "maxdate": "1999-12-31",
      "latitude": -30.3,
      "name": "BARRA DO RIBEIRO, BR",
      "datacoverage": 0.9999,
      "id": "GHCND:BR003051023",
      "elevationUnit": "METERS",
      "longitude": -51.31
    },
    {
      "elevation": 60,
      "mindate": "1983-01-01",
      "maxdate": "1999-12-31",
      "latitude": -30.16,
      "name": "BUTIA, BR",
      "datacoverage": 1,
      "id": "GHCND:BR003051031",
      "elevationUnit": "METERS",
      "longitude": -51.94
    },
    {
      "elevation": 20,
      "mindate": "1986-01-01",
      "maxdate": "1991-12-31",
      "latitude": -30.38,
      "name": "FAROL DE ITAPUA",
      "datacoverage": 0.9308,
      "id": "GHCND:BR003051035",
      "elevationUnit": "METERS",
      "longitude": -51.05
    },
    {
      "elevation": 300,
      "mindate": "1969-11-01",
      "maxdate": "1999-12-31",
      "latitude": -30.42,
      "name": "QUITERIA, BR",
      "datacoverage": 1,
      "id": "GHCND:BR003052011",
      "elevationUnit": "METERS",
      "longitude": -52.07
    },
    {
      "elevation": 400,
      "mindate": "1977-03-01",
      "maxdate": "1999-12-31",
      "latitude": -30.62,
      "name": "SERRA DOS PEDROSAS, BR",
      "datacoverage": 0.989,
      "id": "GHCND:BR003052012",
      "elevationUnit": "METERS",
      "longitude": -52.81
    },
    {
      "elevation": 40,
      "mindate": "1986-04-01",
      "maxdate": "1998-12-31",
      "latitude": -30.2,
      "name": "PANTANO GRANDE, BR",
      "datacoverage": 1,
      "id": "GHCND:BR003052016",
      "elevationUnit": "METERS",
      "longitude": -52.37
    },
    {
      "elevation": 120,
      "mindate": "1976-09-01",
      "maxdate": "1999-12-31",
      "latitude": -30.96,
      "name": "PASSO DO CA AO, BR",
      "datacoverage": 0.7429,
      "id": "GHCND:BR003053010",
      "elevationUnit": "METERS",
      "longitude": -53.49
    },
    {
      "elevation": 60,
      "mindate": "1943-04-01",
      "maxdate": "1984-12-31",
      "latitude": -30.18,
      "name": "SAO SEPE, BR",
      "datacoverage": 1,
      "id": "GHCND:BR003053012",
      "elevationUnit": "METERS",
      "longitude": -53.55
    },
    {
      "elevation": 200,
      "mindate": "1981-05-01",
      "maxdate": "1998-12-31",
      "latitude": -30.44,
      "name": "PASSO DOS FREIRES, BR",
      "datacoverage": 0.9952,
      "id": "GHCND:BR003053017",
      "elevationUnit": "METERS",
      "longitude": -53.71
    },
    {
      "elevation": 120,
      "mindate": "1983-01-01",
      "maxdate": "1998-12-31",
      "latitude": -30.49,
      "name": "IRAPUAZINHO, BR",
      "datacoverage": 0.9896,
      "id": "GHCND:BR003053018",
      "elevationUnit": "METERS",
      "longitude": -53.12
    },
    {
      "elevation": 80,
      "mindate": "1969-11-01",
      "maxdate": "1990-03-31",
      "latitude": -30,
      "name": "COLONIA PAVAO, BR",
      "datacoverage": 0.9993,
      "id": "GHCND:BR003053019",
      "elevationUnit": "METERS",
      "longitude": -53.93
    },
    {
      "elevation": 60,
      "mindate": "1984-10-01",
      "maxdate": "1998-05-31",
      "latitude": -30.19,
      "name": "SAO SEPE MONTANTE, BR",
      "datacoverage": 1,
      "id": "GHCND:BR003053020",
      "elevationUnit": "METERS",
      "longitude": -53.56
    },
    {
      "elevation": 100,
      "mindate": "1986-04-01",
      "maxdate": "1998-05-31",
      "latitude": -30.14,
      "name": "BARRO VERMELHO, BR",
      "datacoverage": 0.9993,
      "id": "GHCND:BR003053021",
      "elevationUnit": "METERS",
      "longitude": -53.16
    },
    {
      "elevation": 420,
      "mindate": "1986-04-01",
      "maxdate": "1998-12-31",
      "latitude": -30.33,
      "name": "CACAPAVA DO SUL, BR",
      "datacoverage": 0.9998,
      "id": "GHCND:BR003053022",
      "elevationUnit": "METERS",
      "longitude": -53.54
    },
    {
      "elevation": 120,
      "mindate": "1969-09-01",
      "maxdate": "1998-05-31",
      "latitude": -30.98,
      "name": "DOM PEDRITO, BR",
      "datacoverage": 0.9769,
      "id": "GHCND:BR003054002",
      "elevationUnit": "METERS",
      "longitude": -54.68
    },
    {
      "elevation": 320,
      "mindate": "1950-05-01",
      "maxdate": "1961-12-31",
      "latitude": -30.72,
      "name": "PERI SOUZA, BR",
      "datacoverage": 0.8639,
      "id": "GHCND:BR003054005",
      "elevationUnit": "METERS",
      "longitude": -54.03
    },
    {
      "elevation": 100,
      "mindate": "1987-07-01",
      "maxdate": "1998-05-31",
      "latitude": -30.25,
      "name": "ROSARIO DO SUL PCD, BR",
      "datacoverage": 0.9998,
      "id": "GHCND:BR003054007",
      "elevationUnit": "METERS",
      "longitude": -54.92
    },
    {
      "elevation": 100,
      "mindate": "1976-06-01",
      "maxdate": "1998-05-31",
      "latitude": -30.51,
      "name": "GRANJA UMBU, BR",
      "datacoverage": 0.9963,
      "id": "GHCND:BR003054016",
      "elevationUnit": "METERS",
      "longitude": -54.77
    },
    {
      "elevation": 120,
      "mindate": "1985-07-01",
      "maxdate": "1998-05-31",
      "latitude": -30.36,
      "name": "SAO GABRIEL, BR",
      "datacoverage": 1,
      "id": "GHCND:BR003054018",
      "elevationUnit": "METERS",
      "longitude": -54.32
    },
    {
      "elevation": 300,
      "mindate": "1976-05-01",
      "maxdate": "1998-05-31",
      "latitude": -30.7,
      "name": "FAZENDA ENCERRA, BR",
      "datacoverage": 0.9963,
      "id": "GHCND:BR003055003",
      "elevationUnit": "METERS",
      "longitude": -55.84
    },
    {
      "elevation": 90,
      "mindate": "1976-10-01",
      "maxdate": "1998-05-31",
      "latitude": -30.03,
      "name": "SAICA, BR",
      "datacoverage": 0.9965,
      "id": "GHCND:BR003055004",
      "elevationUnit": "METERS",
      "longitude": -55.09
    },
    {
      "elevation": 200,
      "mindate": "1976-09-01",
      "maxdate": "1998-05-31",
      "latitude": -30.53,
      "name": "SANTA RITA, BR",
      "datacoverage": 0.9887,
      "id": "GHCND:BR003055005",
      "elevationUnit": "METERS",
      "longitude": -55.13
    },
    {
      "elevation": 160,
      "mindate": "1986-04-01",
      "maxdate": "1998-05-31",
      "latitude": -30.2,
      "name": "SAO CARLOS, BR",
      "datacoverage": 1,
      "id": "GHCND:BR003055007",
      "elevationUnit": "METERS",
      "longitude": -55.49
    },
    {
      "elevation": 160,
      "mindate": "1988-06-01",
      "maxdate": "1998-07-31",
      "latitude": -30.29,
      "name": "PASSO DA GUARDA, BR",
      "datacoverage": 0.6394,
      "id": "GHCND:BR003055008",
      "elevationUnit": "METERS",
      "longitude": -55.98
    },
    {
      "elevation": 97,
      "mindate": "1944-09-01",
      "maxdate": "1960-03-14",
      "latitude": -30.48,
      "name": "FAZENDA DO SILENCIO, BR",
      "datacoverage": 1,
      "id": "GHCND:BR003056002",
      "elevationUnit": "METERS",
      "longitude": -56.25
    },
    {
      "elevation": 80,
      "mindate": "1943-04-01",
      "maxdate": "1976-11-30",
      "latitude": -30.38,
      "name": "QUARAI, BR",
      "datacoverage": 0.8341,
      "id": "GHCND:BR003056003",
      "elevationUnit": "METERS",
      "longitude": -56.48
    },
    {
      "elevation": 80,
      "mindate": "1976-05-01",
      "maxdate": "1998-09-30",
      "latitude": -30.02,
      "name": "FAZENDA JUNCO, BR",
      "datacoverage": 0.9739,
      "id": "GHCND:BR003056004",
      "elevationUnit": "METERS",
      "longitude": -56.82
    },
    {
      "elevation": 140,
      "mindate": "1977-12-01",
      "maxdate": "1998-09-30",
      "latitude": -30.07,
      "name": "HARMONIA, BR",
      "datacoverage": 0.912,
      "id": "GHCND:BR003056006",
      "elevationUnit": "METERS",
      "longitude": -56.16
    },
    {
      "elevation": 160,
      "mindate": "1983-01-01",
      "maxdate": "1998-05-31",
      "latitude": -30.52,
      "name": "CATY, BR",
      "datacoverage": 0.9948,
      "id": "GHCND:BR003056007",
      "elevationUnit": "METERS",
      "longitude": -56.2
    },
    {
      "elevation": 40,
      "mindate": "1976-09-01",
      "maxdate": "1998-09-30",
      "latitude": -30.21,
      "name": "BARRA DO QUARAI, BR",
      "datacoverage": 0.9473,
      "id": "GHCND:BR003057002",
      "elevationUnit": "METERS",
      "longitude": -57.55
    },
    {
      "elevation": 2,
      "mindate": "1969-10-01",
      "maxdate": "1991-04-30",
      "latitude": -31.62,
      "name": "BOJURU, BR",
      "datacoverage": 0.9847,
      "id": "GHCND:BR003151001",
      "elevationUnit": "METERS",
      "longitude": -51.42
    },
    {
      "elevation": 5,
      "mindate": "1976-11-01",
      "maxdate": "1999-12-31",
      "latitude": -31.13,
      "name": "PACHECA",
      "datacoverage": 0.9857,
      "id": "GHCND:BR003151002",
      "elevationUnit": "METERS",
      "longitude": -51.79
    },
    {
      "elevation": 2,
      "mindate": "1943-01-01",
      "maxdate": "1999-12-31",
      "latitude": -31.37,
      "name": "SAO LOURENCO DO SUL, BR",
      "datacoverage": 0.7602,
      "id": "GHCND:BR003151003",
      "elevationUnit": "METERS",
      "longitude": -51.99
    },
    {
      "elevation": 0,
      "mindate": "1992-09-01",
      "maxdate": "1999-12-31",
      "latitude": -31.29,
      "name": "TAVARES, BR",
      "datacoverage": 1,
      "id": "GHCND:BR003151004",
      "elevationUnit": "METERS",
      "longitude": -51.09
    },
    {
      "elevation": 120,
      "mindate": "1966-01-01",
      "maxdate": "1999-12-31",
      "latitude": -31.28,
      "name": "BOQUEIRAO, BR",
      "datacoverage": 0.9878,
      "id": "GHCND:BR003152002",
      "elevationUnit": "METERS",
      "longitude": -52.08
    },
    {
      "elevation": 400,
      "mindate": "1943-01-01",
      "maxdate": "1999-12-31",
      "latitude": -31.39,
      "name": "CANGUCU, BR",
      "datacoverage": 0.9357,
      "id": "GHCND:BR003152003",
      "elevationUnit": "METERS",
      "longitude": -52.7
    },
    {
      "elevation": 250,
      "mindate": "1976-10-01",
      "maxdate": "1999-12-31",
      "latitude": -31.65,
      "name": "VILA FREIRE, BR",
      "datacoverage": 0.9964,
      "id": "GHCND:BR003152005",
      "elevationUnit": "METERS",
      "longitude": -52.8
    },
    {
      "elevation": 10,
      "mindate": "1966-01-01",
      "maxdate": "1976-11-11",
      "latitude": -31.67,
      "name": "GRANJA COTOVELO, BR",
      "datacoverage": 1,
      "id": "GHCND:BR003152006",
      "elevationUnit": "METERS",
      "longitude": -52.22
    },
    {
      "elevation": 3,
      "mindate": "1966-01-01",
      "maxdate": "1976-10-31",
      "latitude": -31.63,
      "name": "GRANJA DONA CECILIA, BR",
      "datacoverage": 0.9538,
      "id": "GHCND:BR003152007",
      "elevationUnit": "METERS",
      "longitude": -52.13
    },
    {
      "elevation": 3,
      "mindate": "1966-01-01",
      "maxdate": "1999-12-31",
      "latitude": -31.67,
      "name": "GRANJA SAO PEDRO, BR",
      "datacoverage": 1,
      "id": "GHCND:BR003152008",
      "elevationUnit": "METERS",
      "longitude": -52.18
    },
    {
      "elevation": 40,
      "mindate": "1944-04-01",
      "maxdate": "1999-12-31",
      "latitude": -31,
      "name": "PASSO DO MENDONCA, BR",
      "datacoverage": 0.6995,
      "id": "GHCND:BR003152011",
      "elevationUnit": "METERS",
      "longitude": -52.05
    },
    {
      "elevation": 5,
      "mindate": "1964-10-01",
      "maxdate": "1983-01-31",
      "latitude": -31.9,
      "name": "PASSO DO RICARDO, BR",
      "datacoverage": 0.9453,
      "id": "GHCND:BR003152012",
      "elevationUnit": "METERS",
      "longitude": -52.65
    },
    {
      "elevation": 27,
      "mindate": "1977-03-01",
      "maxdate": "1999-12-31",
      "latitude": -31.88,
      "name": "PEDRO OSORIO, BR",
      "datacoverage": 0.9196,
      "id": "GHCND:BR003152013",
      "elevationUnit": "METERS",
      "longitude": -52.81
    },
    {
      "elevation": 40,
      "mindate": "1964-08-01",
      "maxdate": "1999-12-31",
      "latitude": -31.57,
      "name": "PONTE CORDEIRO DE FARIAS, BR",
      "datacoverage": 0.9976,
      "id": "GHCND:BR003152016",
      "elevationUnit": "METERS",
      "longitude": -52.46
    },
    {
      "elevation": 40,
      "mindate": "1976-10-01",
      "maxdate": "1990-11-30",
      "latitude": -31.72,
      "name": "PONTE DO IMPERIO, BR",
      "datacoverage": 0.9993,
      "id": "GHCND:BR003152017",
      "elevationUnit": "METERS",
      "longitude": -52.9
    },
    {
      "elevation": 100,
      "mindate": "1976-08-01",
      "maxdate": "1987-05-20",
      "latitude": -31.85,
      "name": "CERRO CHATO, BR",
      "datacoverage": 0.9464,
      "id": "GHCND:BR003153002",
      "elevationUnit": "METERS",
      "longitude": -53.27
    },
    {
      "elevation": 200,
      "mindate": "1976-09-01",
      "maxdate": "1999-12-31",
      "latitude": -31.74,
      "name": "FERRARIA, BR",
      "datacoverage": 0.9994,
      "id": "GHCND:BR003153004",
      "elevationUnit": "METERS",
      "longitude": -53.05
    },
    {
      "elevation": 120,
      "mindate": "1977-01-01",
      "maxdate": "1999-12-31",
      "latitude": -31.13,
      "name": "PASSO DA CAPELA, BR",
      "datacoverage": 0.9965,
      "id": "GHCND:BR003153006",
      "elevationUnit": "METERS",
      "longitude": -53.05
    },
    {
      "elevation": 380,
      "mindate": "1966-01-01",
      "maxdate": "1999-12-31",
      "latitude": -31.74,
      "name": "PEDRAS ALTAS, BR",
      "datacoverage": 0.9731,
      "id": "GHCND:BR003153007",
      "elevationUnit": "METERS",
      "longitude": -53.59
    },
    {
      "elevation": 440,
      "mindate": "1965-08-01",
      "maxdate": "1999-12-31",
      "latitude": -31.58,
      "name": "PINHEIRO MACHADO, BR",
      "datacoverage": 0.9952,
      "id": "GHCND:BR003153008",
      "elevationUnit": "METERS",
      "longitude": -53.38
    },
    {
      "elevation": 340,
      "mindate": "1965-01-01",
      "maxdate": "1976-06-30",
      "latitude": -31.43,
      "name": "PIRATINI, BR",
      "datacoverage": 1,
      "id": "GHCND:BR003153010",
      "elevationUnit": "METERS",
      "longitude": -53.1
    },
    {
      "elevation": 420,
      "mindate": "1976-09-01",
      "maxdate": "1999-12-31",
      "latitude": -31.31,
      "name": "TORRINHAS, BR",
      "datacoverage": 0.9929,
      "id": "GHCND:BR003153017",
      "elevationUnit": "METERS",
      "longitude": -53.5
    },
    {
      "elevation": 340,
      "mindate": "1979-09-01",
      "maxdate": "1999-12-31",
      "latitude": -31.43,
      "name": "ESTACAO EXPERIMENTAL, BR",
      "datacoverage": 0.9713,
      "id": "GHCND:BR003153021",
      "elevationUnit": "METERS",
      "longitude": -53.11
    },
    {
      "elevation": 390,
      "mindate": "1976-09-01",
      "maxdate": "1998-05-31",
      "latitude": -31.03,
      "name": "TORQUATO SEVERO, BR",
      "datacoverage": 0.9848,
      "id": "GHCND:BR003154003",
      "elevationUnit": "METERS",
      "longitude": -54.18
    },
    {
      "elevation": 240,
      "mindate": "1976-08-01",
      "maxdate": "1998-04-30",
      "latitude": -31.27,
      "name": "TRES VENDAS, BR",
      "datacoverage": 0.9887,
      "id": "GHCND:BR003155001",
      "elevationUnit": "METERS",
      "longitude": -55.04
    },
    {
      "elevation": 3,
      "mindate": "1942-01-01",
      "maxdate": "1987-05-31",
      "latitude": -32.03,
      "name": "BARRA DO RIO GRANDE, BR",
      "datacoverage": 0.916,
      "id": "GHCND:BR003252001",
      "elevationUnit": "METERS",
      "longitude": -52.1
    },
    {
      "elevation": 4,
      "mindate": "1964-08-01",
      "maxdate": "1976-06-30",
      "latitude": -32.43,
      "name": "ESTANCIA DO CURTUME, BR",
      "datacoverage": 0.9722,
      "id": "GHCND:BR003252003",
      "elevationUnit": "METERS",
      "longitude": -52.6
    },
    {
      "elevation": 20,
      "mindate": "1966-01-01",
      "maxdate": "1999-12-31",
      "latitude": -32.01,
      "name": "GRANJA CORONEL PEDRO OSORIO, BR",
      "datacoverage": 0.9951,
      "id": "GHCND:BR003252005",
      "elevationUnit": "METERS",
      "longitude": -52.65
    },
    {
      "elevation": 4,
      "mindate": "1964-08-01",
      "maxdate": "1999-12-31",
      "latitude": -32.35,
      "name": "GRANJA CERRITO, BR",
      "datacoverage": 0.9929,
      "id": "GHCND:BR003252006",
      "elevationUnit": "METERS",
      "longitude": -52.54
    },
    {
      "elevation": 12,
      "mindate": "1965-09-01",
      "maxdate": "1999-12-31",
      "latitude": -32.4,
      "name": "GRANJA SANTA MARIA, BR",
      "datacoverage": 0.9976,
      "id": "GHCND:BR003252008",
      "elevationUnit": "METERS",
      "longitude": -52.56
    },
    {
      "elevation": 3,
      "mindate": "1964-10-01",
      "maxdate": "1976-06-30",
      "latitude": -32.48,
      "name": "TAIM, BR",
      "datacoverage": 0.8867,
      "id": "GHCND:BR003252012",
      "elevationUnit": "METERS",
      "longitude": -52.58
    },
    {
      "elevation": 2,
      "mindate": "1977-06-01",
      "maxdate": "2013-07-11",
      "latitude": -32.017,
      "name": "RIO GRANDE",
      "datacoverage": 0.9994,
      "id": "GHCND:BR003252024",
      "elevationUnit": "METERS",
      "longitude": -52.083
    },
    {
      "elevation": 3,
      "mindate": "1966-09-01",
      "maxdate": "1999-12-31",
      "latitude": -32.24,
      "name": "ARROIO GRANDE, BR",
      "datacoverage": 0.9925,
      "id": "GHCND:BR003253001",
      "elevationUnit": "METERS",
      "longitude": -53.09
    },
    {
      "elevation": 3,
      "mindate": "1966-01-01",
      "maxdate": "1999-12-31",
      "latitude": -32.95,
      "name": "GRANJA OSORIO, BR",
      "datacoverage": 0.9755,
      "id": "GHCND:BR003253003",
      "elevationUnit": "METERS",
      "longitude": -53.12
    },
    {
      "elevation": 260,
      "mindate": "1966-04-01",
      "maxdate": "1999-12-31",
      "latitude": -32.03,
      "name": "HERVAL, BR",
      "datacoverage": 0.9671,
      "id": "GHCND:BR003253004",
      "elevationUnit": "METERS",
      "longitude": -53.4
    },
    {
      "elevation": 0,
      "mindate": "1984-10-01",
      "maxdate": "1999-04-30",
      "latitude": 0.51,
      "name": "CARMO, BR",
      "datacoverage": 0.9374,
      "id": "GHCND:BR008050000",
      "elevationUnit": "METERS",
      "longitude": -50.75
    },
    {
      "elevation": 0,
      "mindate": "1972-06-01",
      "maxdate": "1987-01-12",
      "latitude": 0.83,
      "name": "LEONIDAS, BR",
      "datacoverage": 0.9998,
      "id": "GHCND:BR008051005",
      "elevationUnit": "METERS",
      "longitude": -51.63
    },
    {
      "elevation": 0,
      "mindate": "1984-05-01",
      "maxdate": "1999-04-30",
      "latitude": 0.3,
      "name": "PORTO ARIRI, BR",
      "datacoverage": 1,
      "id": "GHCND:BR008051010",
      "elevationUnit": "METERS",
      "longitude": -51.13
    },
    {
      "elevation": 0,
      "mindate": "1986-03-01",
      "maxdate": "1996-07-31",
      "latitude": 0.34,
      "name": "ACAMPAMENTO ICOMI, BR",
      "datacoverage": 1,
      "id": "GHCND:BR008051011",
      "elevationUnit": "METERS",
      "longitude": -51.75
    },
    {
      "elevation": 189,
      "mindate": "1972-05-01",
      "maxdate": "1998-11-30",
      "latitude": 0.9,
      "name": "SERRA DO NAVIO PCD, BR",
      "datacoverage": 1,
      "id": "GHCND:BR008052000",
      "elevationUnit": "METERS",
      "longitude": -52.01
    },
    {
      "elevation": 0,
      "mindate": "1984-02-01",
      "maxdate": "1994-12-14",
      "latitude": 0.88,
      "name": "FAZENDA CASTANHAL, BR",
      "datacoverage": 1,
      "id": "GHCND:BR008059000",
      "elevationUnit": "METERS",
      "longitude": -59.65
    },
    {
      "elevation": 0,
      "mindate": "1990-03-01",
      "maxdate": "1999-12-31",
      "latitude": 0.78,
      "name": "SITIO SANTA MARIA, BR",
      "datacoverage": 0.9996,
      "id": "GHCND:BR008059001",
      "elevationUnit": "METERS",
      "longitude": -59.34
    },
    {
      "elevation": 0,
      "mindate": "1983-03-01",
      "maxdate": "1999-12-31",
      "latitude": 0.52,
      "name": "FAZENDA SAO JOSE, BR",
      "datacoverage": 0.8414,
      "id": "GHCND:BR008060000",
      "elevationUnit": "METERS",
      "longitude": -60.47
    },
    {
      "elevation": 0,
      "mindate": "1982-05-01",
      "maxdate": "1999-12-31",
      "latitude": 0.88,
      "name": "POSTO AJURICABA, BR",
      "datacoverage": 0.9998,
      "id": "GHCND:BR008062000",
      "elevationUnit": "METERS",
      "longitude": -62.62
    },
    {
      "elevation": 0,
      "mindate": "1981-03-01",
      "maxdate": "1999-11-30",
      "latitude": 0.13,
      "name": "VILA CONCEICAO, BR",
      "datacoverage": 0.9866,
      "id": "GHCND:BR008063000",
      "elevationUnit": "METERS",
      "longitude": -63.96
    },
    {
      "elevation": 0,
      "mindate": "1989-02-01",
      "maxdate": "1999-12-31",
      "latitude": 0.39,
      "name": "BALAIO, BR",
      "datacoverage": 1,
      "id": "GHCND:BR008066002",
      "elevationUnit": "METERS",
      "longitude": -66.65
    },
    {
      "elevation": 0,
      "mindate": "1977-12-01",
      "maxdate": "1999-12-31",
      "latitude": 0.37,
      "name": "SAO FELIPE, BR",
      "datacoverage": 1,
      "id": "GHCND:BR008067001",
      "elevationUnit": "METERS",
      "longitude": -67.31
    },
    {
      "elevation": 0,
      "mindate": "1982-08-01",
      "maxdate": "1999-12-31",
      "latitude": 0.17,
      "name": "MALOCA SAO TOME, BR",
      "datacoverage": 0.9999,
      "id": "GHCND:BR008067002",
      "elevationUnit": "METERS",
      "longitude": -67.95
    },
    {
      "elevation": 0,
      "mindate": "1992-08-01",
      "maxdate": "1999-12-31",
      "latitude": 0.43,
      "name": "MARABITANA IAUARETE, BR",
      "datacoverage": 1,
      "id": "GHCND:BR008068001",
      "elevationUnit": "METERS",
      "longitude": -68.83
    },
    {
      "elevation": 0,
      "mindate": "1980-07-01",
      "maxdate": "1999-12-31",
      "latitude": 0.25,
      "name": "PARI CACHOEIRA, BR",
      "datacoverage": 0.9956,
      "id": "GHCND:BR008069003",
      "elevationUnit": "METERS",
      "longitude": -69.78
    },
    {
      "elevation": 0,
      "mindate": "1992-08-01",
      "maxdate": "1999-12-31",
      "latitude": 0.14,
      "name": "PIRARARA POCO, BR",
      "datacoverage": 1,
      "id": "GHCND:BR008069004",
      "elevationUnit": "METERS",
      "longitude": -69.21
    },
    {
      "elevation": 0,
      "mindate": "1975-03-01",
      "maxdate": "1998-10-31",
      "latitude": 1.23,
      "name": "APOREMA, BR",
      "datacoverage": 0.9999,
      "id": "GHCND:BR008150000",
      "elevationUnit": "METERS",
      "longitude": -50.9
    },
    {
      "elevation": 0,
      "mindate": "1984-04-01",
      "maxdate": "1998-07-31",
      "latitude": 1.58,
      "name": "ITAUBAL DO AMAPA, BR",
      "datacoverage": 0.9477,
      "id": "GHCND:BR008151000",
      "elevationUnit": "METERS",
      "longitude": -50.84
    },
    {
      "elevation": 0,
      "mindate": "1980-07-01",
      "maxdate": "1997-09-30",
      "latitude": 1.22,
      "name": "APALAI, BR",
      "datacoverage": 0.9999,
      "id": "GHCND:BR008154000",
      "elevationUnit": "METERS",
      "longitude": -54.66
    },
    {
      "elevation": 0,
      "mindate": "1979-05-01",
      "maxdate": "1999-12-31",
      "latitude": 1.13,
      "name": "FAZENDA PARANA ANAUA, BR",
      "datacoverage": 0.9756,
      "id": "GHCND:BR008160001",
      "elevationUnit": "METERS",
      "longitude": -60.4
    },
    {
      "elevation": 0,
      "mindate": "1985-01-01",
      "maxdate": "1999-12-31",
      "latitude": 1.46,
      "name": "AGROPECUARIA BOA VISTA, BR",
      "datacoverage": 0.839,
      "id": "GHCND:BR008160003",
      "elevationUnit": "METERS",
      "longitude": -60.77
    },
    {
      "elevation": 95,
      "mindate": "1975-05-01",
      "maxdate": "2003-03-07",
      "latitude": 1.833,
      "name": "CARACARAI, BR",
      "datacoverage": 0.9357,
      "id": "GHCND:BR008161001",
      "elevationUnit": "METERS",
      "longitude": -61.133
    },
    {
      "elevation": 0,
      "mindate": "1984-06-01",
      "maxdate": "1999-12-31",
      "latitude": 1.75,
      "name": "MISSAO CATRIMANI, BR",
      "datacoverage": 0.5775,
      "id": "GHCND:BR008162000",
      "elevationUnit": "METERS",
      "longitude": -62.28
    },
    {
      "elevation": 0,
      "mindate": "1980-07-01",
      "maxdate": "1999-12-31",
      "latitude": 1.21,
      "name": "CUCUI PCD, BR",
      "datacoverage": 0.9956,
      "id": "GHCND:BR008166000",
      "elevationUnit": "METERS",
      "longitude": -66.85
    },
    {
      "elevation": 90,
      "mindate": "1980-07-01",
      "maxdate": "1999-12-31",
      "latitude": 1.07,
      "name": "MISSAO ICANA, BR",
      "datacoverage": 0.9999,
      "id": "GHCND:BR008167000",
      "elevationUnit": "METERS",
      "longitude": -67.59
    },
    {
      "elevation": 0,
      "mindate": "1980-11-01",
      "maxdate": "1999-12-31",
      "latitude": 1.39,
      "name": "TUNUI, BR",
      "datacoverage": 0.9957,
      "id": "GHCND:BR008168000",
      "elevationUnit": "METERS",
      "longitude": -68.15
    },
    {
      "elevation": 0,
      "mindate": "1982-08-01",
      "maxdate": "1999-12-31",
      "latitude": 1.34,
      "name": "LOURO POCO, BR",
      "datacoverage": 0.9951,
      "id": "GHCND:BR008168001",
      "elevationUnit": "METERS",
      "longitude": -68.69
    },
    {
      "elevation": 0,
      "mindate": "1975-03-01",
      "maxdate": "1998-09-30",
      "latitude": 2.5,
      "name": "CALCOENE, BR",
      "datacoverage": 0.9292,
      "id": "GHCND:BR008250002",
      "elevationUnit": "METERS",
      "longitude": -50.95
    },
    {
      "elevation": 10,
      "mindate": "1943-06-01",
      "maxdate": "2011-08-10",
      "latitude": 2.067,
      "name": "AMAPA, BR",
      "datacoverage": 0.7581,
      "id": "GHCND:BR008250003",
      "elevationUnit": "METERS",
      "longitude": -50.85
    },
    {
      "elevation": 0,
      "mindate": "1984-05-01",
      "maxdate": "1998-09-30",
      "latitude": 2.7,
      "name": "CUNANI, BR",
      "datacoverage": 0.9826,
      "id": "GHCND:BR008251001",
      "elevationUnit": "METERS",
      "longitude": -51.36
    },
    {
      "elevation": 0,
      "mindate": "1990-02-01",
      "maxdate": "1998-06-30",
      "latitude": 2.31,
      "name": "LOURENCO, BR",
      "datacoverage": 0.9016,
      "id": "GHCND:BR008251003",
      "elevationUnit": "METERS",
      "longitude": -51.64
    }
  ]
}
