{
  "metadata": {
    "resultset": {
      "offset": 22100,
      "count": 154115,
      "limit": 100
    }
  },
  "results": [
    {
      "elevation": 240,
      "mindate": "1932-02-01",
      "maxdate": "1993-06-30",
      "latitude": -17.3594,
      "name": "GLENROY, AS",
      "datacoverage": 0.5584,
      "id": "GHCND:ASN00002042",
      "elevationUnit": "METERS",
      "longitude": 126.1086
    },
    {
      "elevation": 160,
      "mindate": "2000-11-01",
      "maxdate": "2025-02-27",
      "latitude": -18.3368,
      "name": "MOUNT KRAUSS, AS",
      "datacoverage": 0.8063,
      "id": "GHCND:ASN00002043",
      "elevationUnit": "METERS",
      "longitude": 126.1243
    },
    {
      "elevation": 163,
      "mindate": "1750-03-10",
      "maxdate": "2024-03-18",
      "latitude": -16.1119,
      "name": "LAKE ARGYLE RESORT, AS",
      "datacoverage": 0.9436,
      "id": "GHCND:ASN00002044",
      "elevationUnit": "METERS",
      "longitude": 128.7414
    },
    {
      "mindate": "1920-01-01",
      "maxdate": "1925-03-31",
      "latitude": -16.95,
      "name": "ADA VALE, AS",
      "datacoverage": 0.9993,
      "id": "GHCND:ASN00002046",
      "longitude": 128.1
    },
    {
      "elevation": 530,
      "mindate": "1948-05-01",
      "maxdate": "2016-09-30",
      "latitude": -17.2631,
      "name": "BEDFORD DOWNS, AS",
      "datacoverage": 0.7054,
      "id": "GHCND:ASN00002047",
      "elevationUnit": "METERS",
      "longitude": 127.4617
    },
    {
      "elevation": 380,
      "mindate": "1750-03-11",
      "maxdate": "2025-02-15",
      "latitude": -18.2972,
      "name": "FLORA VALLEY, AS",
      "datacoverage": 0.6718,
      "id": "GHCND:ASN00002048",
      "elevationUnit": "METERS",
      "longitude": 128.4419
    },
    {
      "elevation": 400,
      "mindate": "1750-03-11",
      "maxdate": "2025-02-14",
      "latitude": -18.1947,
      "name": "SOPHIE DOWNS, AS",
      "datacoverage": 0.9339,
      "id": "GHCND:ASN00002049",
      "elevationUnit": "METERS",
      "longitude": 127.8147
    },
    {
      "elevation": 420,
      "mindate": "1750-03-13",
      "maxdate": "2024-12-31",
      "latitude": -17.7842,
      "name": "SPRINGVALE, AS",
      "datacoverage": 0.4132,
      "id": "GHCND:ASN00002050",
      "elevationUnit": "METERS",
      "longitude": 127.6853
    },
    {
      "elevation": 305,
      "mindate": "1971-05-01",
      "maxdate": "2025-02-26",
      "latitude": -19.5561,
      "name": "BILLILUNA, AS",
      "datacoverage": 0.4828,
      "id": "GHCND:ASN00002051",
      "elevationUnit": "METERS",
      "longitude": 127.6644
    },
    {
      "elevation": 40,
      "mindate": "1980-01-01",
      "maxdate": "2005-06-30",
      "latitude": -15.8367,
      "name": "TROPICAL FARM ORD RIVER, AS",
      "datacoverage": 0.9903,
      "id": "GHCND:ASN00002052",
      "elevationUnit": "METERS",
      "longitude": 128.7397
    },
    {
      "elevation": 400,
      "mindate": "1750-03-09",
      "maxdate": "2025-02-27",
      "latitude": -17.6133,
      "name": "LANSDOWNE, AS",
      "datacoverage": 0.4849,
      "id": "GHCND:ASN00002053",
      "elevationUnit": "METERS",
      "longitude": 126.7442
    },
    {
      "mindate": "1936-09-01",
      "maxdate": "1940-12-31",
      "latitude": -19.1,
      "name": "LEWIS CREEK, AS",
      "datacoverage": 0.5768,
      "id": "GHCND:ASN00002055",
      "longitude": 128.5333
    },
    {
      "elevation": 44,
      "mindate": "1750-03-09",
      "maxdate": "2025-02-27",
      "latitude": -15.7814,
      "name": "KUNUNURRA AERO, AS",
      "datacoverage": 0.9374,
      "id": "GHCND:ASN00002056",
      "elevationUnit": "METERS",
      "longitude": 128.71
    },
    {
      "elevation": 320,
      "mindate": "1990-12-01",
      "maxdate": "1996-12-31",
      "latitude": -17.4206,
      "name": "BUNGLE BUNGLE NATIONAL PARK, AS",
      "datacoverage": 0.5203,
      "id": "GHCND:ASN00002057",
      "elevationUnit": "METERS",
      "longitude": 128.2992
    },
    {
      "mindate": "1935-01-01",
      "maxdate": "1940-04-30",
      "latitude": -18.35,
      "name": "EUROTO, AS",
      "datacoverage": 0.469,
      "id": "GHCND:ASN00002058",
      "longitude": 128.4833
    },
    {
      "mindate": "1899-04-01",
      "maxdate": "1900-10-31",
      "latitude": -18.4333,
      "name": "RUBY CREEK GOLDMINE, AS",
      "datacoverage": 0.7375,
      "id": "GHCND:ASN00002059",
      "longitude": 127.75
    },
    {
      "elevation": 69,
      "mindate": "1750-03-13",
      "maxdate": "2024-04-04",
      "latitude": -16.0397,
      "name": "KINGSTON REST, AS",
      "datacoverage": 0.6668,
      "id": "GHCND:ASN00002060",
      "elevationUnit": "METERS",
      "longitude": 128.415
    },
    {
      "elevation": 354,
      "mindate": "1750-03-10",
      "maxdate": "2024-03-01",
      "latitude": -19.2353,
      "name": "CARRANYA STATION, AS",
      "datacoverage": 0.5005,
      "id": "GHCND:ASN00002061",
      "elevationUnit": "METERS",
      "longitude": 127.7692
    },
    {
      "elevation": 310,
      "mindate": "1975-09-01",
      "maxdate": "2011-02-28",
      "latitude": -18.4236,
      "name": "FOX RIVER, AS",
      "datacoverage": 0.8566,
      "id": "GHCND:ASN00002062",
      "elevationUnit": "METERS",
      "longitude": 128.0314
    },
    {
      "elevation": 470,
      "mindate": "1976-03-01",
      "maxdate": "1978-08-31",
      "latitude": -19.8761,
      "name": "LARRANGANNI, AS",
      "datacoverage": 0.999,
      "id": "GHCND:ASN00002063",
      "elevationUnit": "METERS",
      "longitude": 128.4581
    },
    {
      "elevation": 164,
      "mindate": "1750-03-09",
      "maxdate": "2025-02-27",
      "latitude": -16.6381,
      "name": "ARGYLE AERODROME, AS",
      "datacoverage": 0.9841,
      "id": "GHCND:ASN00002064",
      "elevationUnit": "METERS",
      "longitude": 128.4517
    },
    {
      "elevation": 280,
      "mindate": "1991-08-01",
      "maxdate": "2003-01-31",
      "latitude": -17.3936,
      "name": "MORNINGTON, AS",
      "datacoverage": 0.4708,
      "id": "GHCND:ASN00002065",
      "elevationUnit": "METERS",
      "longitude": 126.2281
    },
    {
      "elevation": 350,
      "mindate": "1991-11-01",
      "maxdate": "1993-10-31",
      "latitude": -19.1764,
      "name": "CARRANYA 2, AS",
      "datacoverage": 0.7921,
      "id": "GHCND:ASN00002066",
      "elevationUnit": "METERS",
      "longitude": 127.6497
    },
    {
      "elevation": 80,
      "mindate": "1993-12-01",
      "maxdate": "2025-02-24",
      "latitude": -15.9816,
      "name": "KUNUNURRA CHECKPOINT, AS",
      "datacoverage": 0.9129,
      "id": "GHCND:ASN00002067",
      "elevationUnit": "METERS",
      "longitude": 128.9991
    },
    {
      "elevation": 270,
      "mindate": "1993-07-01",
      "maxdate": "2025-02-19",
      "latitude": -16.4433,
      "name": "KACHANA, AS",
      "datacoverage": 0.8346,
      "id": "GHCND:ASN00002069",
      "elevationUnit": "METERS",
      "longitude": 127.7836
    },
    {
      "elevation": 416,
      "mindate": "1994-01-01",
      "maxdate": "1994-12-31",
      "latitude": -16.8828,
      "name": "PHILLIPS RANGE, AS",
      "datacoverage": 0.9178,
      "id": "GHCND:ASN00002070",
      "elevationUnit": "METERS",
      "longitude": 126.1267
    },
    {
      "elevation": 422,
      "mindate": "1996-01-01",
      "maxdate": "2001-02-28",
      "latitude": -18.2303,
      "name": "HALLS CREEK COMPARISON, AS",
      "datacoverage": 0.8871,
      "id": "GHCND:ASN00002071",
      "elevationUnit": "METERS",
      "longitude": 127.6625
    },
    {
      "elevation": 190,
      "mindate": "1995-01-01",
      "maxdate": "2022-01-31",
      "latitude": -19.0378,
      "name": "BULKA, AS",
      "datacoverage": 0.8238,
      "id": "GHCND:ASN00002075",
      "elevationUnit": "METERS",
      "longitude": 126.0931
    },
    {
      "elevation": 9,
      "mindate": "1902-07-01",
      "maxdate": "2015-03-27",
      "latitude": -16.9806,
      "name": "BEAGLE BAY, AS",
      "datacoverage": 0.8142,
      "id": "GHCND:ASN00003000",
      "elevationUnit": "METERS",
      "longitude": 122.6667
    },
    {
      "elevation": 153,
      "mindate": "1750-03-15",
      "maxdate": "2025-02-25",
      "latitude": -17.2767,
      "name": "COUNTRY DOWNS, AS",
      "datacoverage": 0.8925,
      "id": "GHCND:ASN00003001",
      "elevationUnit": "METERS",
      "longitude": 122.5711
    },
    {
      "elevation": 19,
      "mindate": "1889-07-01",
      "maxdate": "1953-10-31",
      "latitude": -17.95,
      "name": "BROOME POST OFFICE",
      "datacoverage": 0.9067,
      "id": "GHCND:ASN00003002",
      "elevationUnit": "METERS",
      "longitude": 122.25
    },
    {
      "elevation": 7.4,
      "mindate": "1750-03-09",
      "maxdate": "2025-03-06",
      "latitude": -17.9475,
      "name": "BROOME AIRPORT, AS",
      "datacoverage": 1,
      "id": "GHCND:ASN00003003",
      "elevationUnit": "METERS",
      "longitude": 122.2353
    },
    {
      "elevation": 25,
      "mindate": "1917-08-01",
      "maxdate": "2018-10-19",
      "latitude": -16.3961,
      "name": "CAPE LEVEQUE, AS",
      "datacoverage": 0.8332,
      "id": "GHCND:ASN00003004",
      "elevationUnit": "METERS",
      "longitude": 122.9278
    },
    {
      "elevation": 120,
      "mindate": "1907-05-01",
      "maxdate": "1996-12-27",
      "latitude": -17.5731,
      "name": "FAIRFIELD STATION, AS",
      "datacoverage": 0.4873,
      "id": "GHCND:ASN00003005",
      "elevationUnit": "METERS",
      "longitude": 125.065
    },
    {
      "elevation": 114,
      "mindate": "1893-03-01",
      "maxdate": "2000-01-15",
      "latitude": -18.1919,
      "name": "FITZROY CROSSING COMP., AS",
      "datacoverage": 0.9016,
      "id": "GHCND:ASN00003006",
      "elevationUnit": "METERS",
      "longitude": 125.5644
    },
    {
      "elevation": 8,
      "mindate": "1884-07-01",
      "maxdate": "1997-06-30",
      "latitude": -17.3044,
      "name": "DERBY POST OFFICE, AS",
      "datacoverage": 0.8772,
      "id": "GHCND:ASN00003007",
      "elevationUnit": "METERS",
      "longitude": 123.6292
    },
    {
      "elevation": 120,
      "mindate": "1919-04-01",
      "maxdate": "2020-01-19",
      "latitude": -17.9281,
      "name": "ELLENDALE, AS",
      "datacoverage": 0.5901,
      "id": "GHCND:ASN00003008",
      "elevationUnit": "METERS",
      "longitude": 124.8108
    },
    {
      "elevation": 100,
      "mindate": "1937-04-01",
      "maxdate": "2025-02-25",
      "latitude": -18.355,
      "name": "JUBILEE DOWNS, AS",
      "datacoverage": 0.9546,
      "id": "GHCND:ASN00003009",
      "elevationUnit": "METERS",
      "longitude": 125.3033
    },
    {
      "elevation": 90,
      "mindate": "1886-04-01",
      "maxdate": "2023-06-28",
      "latitude": -17.3897,
      "name": "KIMBERLEY DOWNS, AS",
      "datacoverage": 0.7584,
      "id": "GHCND:ASN00003010",
      "elevationUnit": "METERS",
      "longitude": 124.3578
    },
    {
      "elevation": 220,
      "mindate": "1899-07-01",
      "maxdate": "2012-01-31",
      "latitude": -17.7535,
      "name": "LEOPOLD DOWNS, AS",
      "datacoverage": 0.7328,
      "id": "GHCND:ASN00003011",
      "elevationUnit": "METERS",
      "longitude": 125.3807
    },
    {
      "elevation": 60,
      "mindate": "1899-04-01",
      "maxdate": "2000-09-30",
      "latitude": -18.0483,
      "name": "LIVERINGA UPPER, AS",
      "datacoverage": 0.7988,
      "id": "GHCND:ASN00003012",
      "elevationUnit": "METERS",
      "longitude": 124.1728
    },
    {
      "elevation": 80,
      "mindate": "1920-12-01",
      "maxdate": "1980-03-31",
      "latitude": -18.145,
      "name": "LULUIGUI, AS",
      "datacoverage": 0.677,
      "id": "GHCND:ASN00003013",
      "elevationUnit": "METERS",
      "longitude": 124.0275
    },
    {
      "elevation": 150,
      "mindate": "1908-12-01",
      "maxdate": "2025-02-24",
      "latitude": -18.2914,
      "name": "GOGO STATION, AS",
      "datacoverage": 0.8787,
      "id": "GHCND:ASN00003014",
      "elevationUnit": "METERS",
      "longitude": 125.5869
    },
    {
      "elevation": 75,
      "mindate": "1750-03-10",
      "maxdate": "2025-02-26",
      "latitude": -17.3681,
      "name": "MEDA, AS",
      "datacoverage": 0.9757,
      "id": "GHCND:ASN00003015",
      "elevationUnit": "METERS",
      "longitude": 123.9956
    },
    {
      "elevation": 40,
      "mindate": "1900-08-01",
      "maxdate": "1984-02-29",
      "latitude": -18.0358,
      "name": "MOUNT ANDERSON, AS",
      "datacoverage": 0.9269,
      "id": "GHCND:ASN00003016",
      "elevationUnit": "METERS",
      "longitude": 123.9286
    },
    {
      "elevation": 270,
      "mindate": "1923-11-01",
      "maxdate": "2020-07-31",
      "latitude": -17.0522,
      "name": "MOUNT HOUSE STATION, AS",
      "datacoverage": 0.9756,
      "id": "GHCND:ASN00003017",
      "elevationUnit": "METERS",
      "longitude": 125.7047
    },
    {
      "elevation": 60,
      "mindate": "1907-09-01",
      "maxdate": "2023-06-30",
      "latitude": -18.1219,
      "name": "MYROODAH, AS",
      "datacoverage": 0.8939,
      "id": "GHCND:ASN00003018",
      "elevationUnit": "METERS",
      "longitude": 124.2692
    },
    {
      "elevation": 80,
      "mindate": "1750-03-12",
      "maxdate": "2025-02-26",
      "latitude": -17.3306,
      "name": "NAPIER DOWNS, AS",
      "datacoverage": 0.8168,
      "id": "GHCND:ASN00003019",
      "elevationUnit": "METERS",
      "longitude": 124.8167
    },
    {
      "elevation": 95,
      "mindate": "1935-02-01",
      "maxdate": "2021-10-31",
      "latitude": -18.5,
      "name": "NERRIMA, AS",
      "datacoverage": 0.305,
      "id": "GHCND:ASN00003020",
      "elevationUnit": "METERS",
      "longitude": 124.3992
    },
    {
      "elevation": 70,
      "mindate": "1899-05-01",
      "maxdate": "1992-10-31",
      "latitude": -18.4875,
      "name": "NOONKANBAH, AS",
      "datacoverage": 0.754,
      "id": "GHCND:ASN00003021",
      "elevationUnit": "METERS",
      "longitude": 124.8231
    },
    {
      "elevation": 100,
      "mindate": "1898-09-01",
      "maxdate": "2019-12-31",
      "latitude": -18.3817,
      "name": "QUANBUN DOWNS, AS",
      "datacoverage": 0.8382,
      "id": "GHCND:ASN00003022",
      "elevationUnit": "METERS",
      "longitude": 125.2267
    },
    {
      "elevation": 15,
      "mindate": "1903-06-01",
      "maxdate": "2019-12-31",
      "latitude": -17.9311,
      "name": "ROEBUCK PLAINS, AS",
      "datacoverage": 0.8568,
      "id": "GHCND:ASN00003023",
      "elevationUnit": "METERS",
      "longitude": 122.4725
    },
    {
      "elevation": 20,
      "mindate": "1750-03-13",
      "maxdate": "2025-02-27",
      "latitude": -17.9464,
      "name": "UDIALLA, AS",
      "datacoverage": 0.6115,
      "id": "GHCND:ASN00003024",
      "elevationUnit": "METERS",
      "longitude": 123.7383
    },
    {
      "elevation": 13,
      "mindate": "1948-01-01",
      "maxdate": "2014-07-13",
      "latitude": -16.09,
      "name": "COCKATOO ISLAND",
      "datacoverage": 0.7423,
      "id": "GHCND:ASN00003025",
      "elevationUnit": "METERS",
      "longitude": 123.5942
    },
    {
      "elevation": 5,
      "mindate": "1890-05-01",
      "maxdate": "2020-02-27",
      "latitude": -17.6153,
      "name": "YEEDA, AS",
      "datacoverage": 0.8005,
      "id": "GHCND:ASN00003026",
      "elevationUnit": "METERS",
      "longitude": 123.6483
    },
    {
      "elevation": 120,
      "mindate": "1750-03-13",
      "maxdate": "2025-02-25",
      "latitude": -18.1386,
      "name": "FOSSIL DOWNS, AS",
      "datacoverage": 0.9167,
      "id": "GHCND:ASN00003027",
      "elevationUnit": "METERS",
      "longitude": 125.7764
    },
    {
      "elevation": 10,
      "mindate": "1750-03-09",
      "maxdate": "2025-02-27",
      "latitude": -19.2536,
      "name": "ANNA PLAINS, AS",
      "datacoverage": 0.8062,
      "id": "GHCND:ASN00003028",
      "elevationUnit": "METERS",
      "longitude": 121.4861
    },
    {
      "elevation": 9,
      "mindate": "1910-11-01",
      "maxdate": "1978-01-31",
      "latitude": -18.7983,
      "name": "FRAZIER DOWNS, AS",
      "datacoverage": 0.6319,
      "id": "GHCND:ASN00003029",
      "elevationUnit": "METERS",
      "longitude": 121.7125
    },
    {
      "elevation": 11,
      "mindate": "1750-03-29",
      "maxdate": "2025-02-26",
      "latitude": -18.6844,
      "name": "BIDYADANGA, AS",
      "datacoverage": 0.9211,
      "id": "GHCND:ASN00003030",
      "elevationUnit": "METERS",
      "longitude": 121.7803
    },
    {
      "elevation": 20,
      "mindate": "1946-05-01",
      "maxdate": "1993-06-30",
      "latitude": -16.5167,
      "name": "LOMBADINA MISSION, AS",
      "datacoverage": 0.7367,
      "id": "GHCND:ASN00003031",
      "elevationUnit": "METERS",
      "longitude": 122.8908
    },
    {
      "elevation": 6.2,
      "mindate": "1750-03-09",
      "maxdate": "2025-02-27",
      "latitude": -17.3706,
      "name": "DERBY AERO, AS",
      "datacoverage": 0.8722,
      "id": "GHCND:ASN00003032",
      "elevationUnit": "METERS",
      "longitude": 123.6611
    },
    {
      "elevation": 60,
      "mindate": "1938-03-01",
      "maxdate": "2020-12-31",
      "latitude": -17.7472,
      "name": "BLINA, AS",
      "datacoverage": 0.7389,
      "id": "GHCND:ASN00003033",
      "elevationUnit": "METERS",
      "longitude": 124.5283
    },
    {
      "mindate": "1922-01-01",
      "maxdate": "1948-10-31",
      "latitude": -16.4,
      "name": "MUNJA, AS",
      "datacoverage": 0.8665,
      "id": "GHCND:ASN00003035",
      "longitude": 124.95
    },
    {
      "elevation": 9,
      "mindate": "1952-08-01",
      "maxdate": "1952-11-30",
      "latitude": -18,
      "name": "BROOME QUARANTINE STATION",
      "datacoverage": 1,
      "id": "GHCND:ASN00003036",
      "elevationUnit": "METERS",
      "longitude": 122.2167
    },
    {
      "mindate": "1958-04-01",
      "maxdate": "1958-09-30",
      "latitude": -17.4333,
      "name": "MUNKAYARRA, AS",
      "datacoverage": 0.8316,
      "id": "GHCND:ASN00003037",
      "longitude": 123.75
    },
    {
      "mindate": "1959-12-01",
      "maxdate": "1972-12-31",
      "latitude": -16.9667,
      "name": "SILENT GROVE, AS",
      "datacoverage": 0.936,
      "id": "GHCND:ASN00003039",
      "longitude": 125.3
    },
    {
      "elevation": 45,
      "mindate": "1958-11-01",
      "maxdate": "2025-02-04",
      "latitude": -17.9903,
      "name": "CAMBALLIN, AS",
      "datacoverage": 0.7547,
      "id": "GHCND:ASN00003040",
      "elevationUnit": "METERS",
      "longitude": 124.1922
    },
    {
      "elevation": 60,
      "mindate": "1750-03-13",
      "maxdate": "2025-02-26",
      "latitude": -17.6925,
      "name": "KILTO STATION, AS",
      "datacoverage": 0.5837,
      "id": "GHCND:ASN00003041",
      "elevationUnit": "METERS",
      "longitude": 122.7128
    },
    {
      "elevation": 3,
      "mindate": "1959-09-01",
      "maxdate": "1963-12-31",
      "latitude": -19.2833,
      "name": "TALGARNO, AS",
      "datacoverage": 1,
      "id": "GHCND:ASN00003042",
      "elevationUnit": "METERS",
      "longitude": 121.5
    },
    {
      "elevation": 160,
      "mindate": "1960-03-01",
      "maxdate": "2022-12-31",
      "latitude": -18.8789,
      "name": "CHRISTMAS CREEK, AS",
      "datacoverage": 0.8006,
      "id": "GHCND:ASN00003043",
      "elevationUnit": "METERS",
      "longitude": 125.9206
    },
    {
      "elevation": 110,
      "mindate": "1902-04-01",
      "maxdate": "2020-01-06",
      "latitude": -18.1103,
      "name": "BROOKING SPRINGS, AS",
      "datacoverage": 0.2545,
      "id": "GHCND:ASN00003044",
      "elevationUnit": "METERS",
      "longitude": 125.6431
    },
    {
      "mindate": "1921-12-01",
      "maxdate": "1939-02-28",
      "latitude": -19.1,
      "name": "CALANGADIE",
      "datacoverage": 0.9225,
      "id": "GHCND:ASN00003045",
      "longitude": 121.5
    },
    {
      "elevation": 91,
      "mindate": "1906-03-01",
      "maxdate": "1972-02-29",
      "latitude": -18.4833,
      "name": "CHERRABUN, AS",
      "datacoverage": 0.2223,
      "id": "GHCND:ASN00003046",
      "elevationUnit": "METERS",
      "longitude": 125.3333
    },
    {
      "mindate": "1929-12-01",
      "maxdate": "1940-11-30",
      "latitude": -18.4,
      "name": "DAMPIER DOWNS, AS",
      "datacoverage": 0.9848,
      "id": "GHCND:ASN00003047",
      "longitude": 123.1
    },
    {
      "elevation": 151,
      "mindate": "1750-03-13",
      "maxdate": "2024-02-29",
      "latitude": -18.9158,
      "name": "CHERRABUN, AS",
      "datacoverage": 0.7695,
      "id": "GHCND:ASN00003048",
      "elevationUnit": "METERS",
      "longitude": 125.5264
    },
    {
      "mindate": "1914-04-01",
      "maxdate": "1927-04-30",
      "latitude": -16.9,
      "name": "ISADELL DOWNS, AS",
      "datacoverage": 0.9619,
      "id": "GHCND:ASN00003049",
      "longitude": 125.7
    },
    {
      "mindate": "1887-07-01",
      "maxdate": "1896-09-30",
      "latitude": -17.95,
      "name": "LIVERINGA LOWER, AS",
      "datacoverage": 0.4074,
      "id": "GHCND:ASN00003050",
      "longitude": 124.1667
    },
    {
      "elevation": 401,
      "mindate": "1750-03-09",
      "maxdate": "2025-02-27",
      "latitude": -16.7372,
      "name": "MOUNT BARNETT, AS",
      "datacoverage": 0.4876,
      "id": "GHCND:ASN00003051",
      "elevationUnit": "METERS",
      "longitude": 125.9086
    },
    {
      "elevation": 190,
      "mindate": "1750-03-12",
      "maxdate": "2025-02-27",
      "latitude": -16.8206,
      "name": "MOUNT HART STATION, AS",
      "datacoverage": 0.4598,
      "id": "GHCND:ASN00003052",
      "elevationUnit": "METERS",
      "longitude": 124.9158
    },
    {
      "mindate": "1896-05-01",
      "maxdate": "1934-03-31",
      "latitude": -16.7,
      "name": "OBAGAMA, AS",
      "datacoverage": 0.8883,
      "id": "GHCND:ASN00003053",
      "longitude": 123.9833
    },
    {
      "mindate": "1905-09-01",
      "maxdate": "1922-10-31",
      "latitude": -17.1,
      "name": "POINT TORMENT, AS",
      "datacoverage": 0.2772,
      "id": "GHCND:ASN00003054",
      "longitude": 123.7
    },
    {
      "mindate": "1907-08-01",
      "maxdate": "1919-02-28",
      "latitude": -18.7,
      "name": "ROLLAH, AS",
      "datacoverage": 0.9858,
      "id": "GHCND:ASN00003055",
      "longitude": 121.75
    },
    {
      "elevation": 5,
      "mindate": "1893-07-01",
      "maxdate": "2014-02-28",
      "latitude": -18.1792,
      "name": "THANGOO, AS",
      "datacoverage": 0.5649,
      "id": "GHCND:ASN00003056",
      "elevationUnit": "METERS",
      "longitude": 122.3583
    },
    {
      "elevation": 7,
      "mindate": "1750-03-09",
      "maxdate": "2025-02-27",
      "latitude": -16.4514,
      "name": "CYGNET BAY, AS",
      "datacoverage": 0.9936,
      "id": "GHCND:ASN00003057",
      "elevationUnit": "METERS",
      "longitude": 123.0086
    },
    {
      "elevation": 60,
      "mindate": "1964-01-01",
      "maxdate": "1969-04-30",
      "latitude": -18.8333,
      "name": "MILLAJIDDIE, AS",
      "datacoverage": 0.9986,
      "id": "GHCND:ASN00003058",
      "elevationUnit": "METERS",
      "longitude": 124.95
    },
    {
      "elevation": 31,
      "mindate": "1750-03-15",
      "maxdate": "2025-02-27",
      "latitude": -19.0861,
      "name": "NITA DOWNS, AS",
      "datacoverage": 0.681,
      "id": "GHCND:ASN00003059",
      "elevationUnit": "METERS",
      "longitude": 121.6764
    },
    {
      "elevation": 152,
      "mindate": "1966-01-01",
      "maxdate": "1973-10-31",
      "latitude": -18.7667,
      "name": "ARDJORIE, AS",
      "datacoverage": 0.9992,
      "id": "GHCND:ASN00003060",
      "elevationUnit": "METERS",
      "longitude": 123.6833
    },
    {
      "elevation": 250,
      "mindate": "1966-12-01",
      "maxdate": "1970-07-31",
      "latitude": -16.695,
      "name": "KIMBOLTON RANGE STATION 1, AS",
      "datacoverage": 0.9775,
      "id": "GHCND:ASN00003061",
      "elevationUnit": "METERS",
      "longitude": 123.8625
    },
    {
      "mindate": "1959-09-01",
      "maxdate": "1967-12-31",
      "latitude": -16.5833,
      "name": "BEVERLEY SP, AS",
      "datacoverage": 0.9999,
      "id": "GHCND:ASN00003062",
      "longitude": 125.4833
    },
    {
      "elevation": 400,
      "mindate": "1750-03-12",
      "maxdate": "2025-01-23",
      "latitude": -16.715,
      "name": "BEVERLEY SPRINGS, AS",
      "datacoverage": 0.7139,
      "id": "GHCND:ASN00003063",
      "elevationUnit": "METERS",
      "longitude": 125.4586
    },
    {
      "mindate": "1970-01-01",
      "maxdate": "1972-12-31",
      "latitude": -18.1667,
      "name": "FITZROY A.I.M, AS",
      "datacoverage": 1,
      "id": "GHCND:ASN00003064",
      "longitude": 125.5833
    },
    {
      "mindate": "1973-01-01",
      "maxdate": "1974-09-06",
      "latitude": -18.55,
      "name": "KALYEEDA, AS",
      "datacoverage": 0.8614,
      "id": "GHCND:ASN00003065",
      "longitude": 124.7167
    },
    {
      "elevation": 10,
      "mindate": "1750-03-23",
      "maxdate": "2025-02-26",
      "latitude": -18.5175,
      "name": "PORT SMITH, AS",
      "datacoverage": 0.9166,
      "id": "GHCND:ASN00003066",
      "elevationUnit": "METERS",
      "longitude": 121.8072
    },
    {
      "elevation": 120,
      "mindate": "1750-03-13",
      "maxdate": "2025-01-31",
      "latitude": -18.5075,
      "name": "DAMPIER DOWNS, AS",
      "datacoverage": 0.9589,
      "id": "GHCND:ASN00003068",
      "elevationUnit": "METERS",
      "longitude": 123.4561
    },
    {
      "elevation": 152,
      "mindate": "1974-03-01",
      "maxdate": "1992-09-30",
      "latitude": -16.1306,
      "name": "KOOLAN ISLAND, AS",
      "datacoverage": 0.9998,
      "id": "GHCND:ASN00003069",
      "elevationUnit": "METERS",
      "longitude": 123.7764
    },
    {
      "elevation": 2,
      "mindate": "1975-01-01",
      "maxdate": "1989-12-31",
      "latitude": -16.4508,
      "name": "ONE ARM POINT, AS",
      "datacoverage": 1,
      "id": "GHCND:ASN00003072",
      "elevationUnit": "METERS",
      "longitude": 123.0653
    },
    {
      "elevation": 25,
      "mindate": "1970-08-01",
      "maxdate": "2022-06-05",
      "latitude": -16.6872,
      "name": "KIMBOLTON, AS",
      "datacoverage": 0.6601,
      "id": "GHCND:ASN00003073",
      "elevationUnit": "METERS",
      "longitude": 123.8375
    },
    {
      "elevation": 50,
      "mindate": "1983-05-01",
      "maxdate": "2020-12-31",
      "latitude": -17.9347,
      "name": "YAKKAMUNGA, AS",
      "datacoverage": 0.9927,
      "id": "GHCND:ASN00003074",
      "elevationUnit": "METERS",
      "longitude": 123.4731
    },
    {
      "mindate": "1983-09-01",
      "maxdate": "2025-02-27",
      "latitude": -17.3117,
      "name": "DERBY RFDS, AS",
      "datacoverage": 0.4779,
      "id": "GHCND:ASN00003075",
      "longitude": 123.6356
    },
    {
      "elevation": 240,
      "mindate": "1983-09-01",
      "maxdate": "1985-07-16",
      "latitude": -19.3283,
      "name": "WESTERN FIELD, AS",
      "datacoverage": 1,
      "id": "GHCND:ASN00003076",
      "elevationUnit": "METERS",
      "longitude": 125.3886
    }
  ]
}
