{
  "metadata": {
    "resultset": {
      "offset": 8400,
      "count": 154115,
      "limit": 100
    }
  },
  "results": [
    {
      "elevation": 356,
      "mindate": "1948-08-01",
      "maxdate": "2014-01-01",
      "latitude": 48.4882,
      "name": "THIEF LAKE REFUGE, MN US",
      "datacoverage": 0.9479,
      "id": "COOP:218235",
      "elevationUnit": "METERS",
      "longitude": -95.9496
    },
    {
      "elevation": 339.9,
      "mindate": "1931-01-01",
      "maxdate": "1972-10-01",
      "latitude": 48.06667,
      "name": "THIEF RIVER FALLS MUNICIPAL AIRPORT, MN US",
      "datacoverage": 0.755,
      "id": "COOP:218243",
      "elevationUnit": "METERS",
      "longitude": -96.18333
    },
    {
      "elevation": 343.8,
      "mindate": "1972-11-01",
      "maxdate": "2015-11-01",
      "latitude": 48.1328,
      "name": "THIEF RIVER FALLS 2, MN US",
      "datacoverage": 0.8898,
      "id": "COOP:218247",
      "elevationUnit": "METERS",
      "longitude": -96.182
    },
    {
      "elevation": 377,
      "mindate": "1948-08-01",
      "maxdate": "2015-11-01",
      "latitude": 48.2109,
      "name": "THORHULT, MN US",
      "datacoverage": 0.9171,
      "id": "COOP:218254",
      "elevationUnit": "METERS",
      "longitude": -95.2475
    },
    {
      "elevation": 301.4,
      "mindate": "2004-10-01",
      "maxdate": "2009-12-01",
      "latitude": 46.008,
      "name": "TINTAH 1 W, MN US",
      "datacoverage": 0.9839,
      "id": "COOP:218260",
      "elevationUnit": "METERS",
      "longitude": -96.4651
    },
    {
      "elevation": 207.3,
      "mindate": "1948-08-01",
      "maxdate": "2014-01-01",
      "latitude": 47.5681,
      "name": "TOFTE RANGER STATION, MN US",
      "datacoverage": 0.5793,
      "id": "COOP:218280",
      "elevationUnit": "METERS",
      "longitude": -90.85
    },
    {
      "elevation": 432.8,
      "mindate": "1994-01-01",
      "maxdate": "2015-11-01",
      "latitude": 47.8002,
      "name": "TOWER DNR, MN US",
      "datacoverage": 0.9773,
      "id": "COOP:218307",
      "elevationUnit": "METERS",
      "longitude": -92.2866
    },
    {
      "elevation": 435.9,
      "mindate": "1931-01-01",
      "maxdate": "2015-11-01",
      "latitude": 47.7817,
      "name": "TOWER 2 S, MN US",
      "datacoverage": 0.9598,
      "id": "COOP:218311",
      "elevationUnit": "METERS",
      "longitude": -92.2784
    },
    {
      "elevation": 426.7,
      "mindate": "1931-01-01",
      "maxdate": "2015-11-01",
      "latitude": 44.23941,
      "name": "TRACY, MN US",
      "datacoverage": 0.9833,
      "id": "COOP:218323",
      "elevationUnit": "METERS",
      "longitude": -95.63077
    },
    {
      "elevation": 353.9,
      "mindate": "1948-08-01",
      "maxdate": "1966-09-01",
      "latitude": 47.95,
      "name": "TRAIL 12 NNE, MN US",
      "datacoverage": 0.6147,
      "id": "COOP:218332",
      "elevationUnit": "METERS",
      "longitude": -95.65
    },
    {
      "elevation": 305.1,
      "mindate": "1948-08-01",
      "maxdate": "1948-11-25",
      "latitude": 47.26667,
      "name": "TWIN VALLEY, MN US",
      "datacoverage": 0.998,
      "id": "COOP:218406",
      "elevationUnit": "METERS",
      "longitude": -96.25
    },
    {
      "elevation": 318.2,
      "mindate": "1940-07-01",
      "maxdate": "2014-01-01",
      "latitude": 47.2272,
      "name": "TWIN VALLEY 3 SW, MN US",
      "datacoverage": 0.8389,
      "id": "COOP:218411",
      "elevationUnit": "METERS",
      "longitude": -96.2986
    },
    {
      "elevation": 190.5,
      "mindate": "1931-01-01",
      "maxdate": "2015-11-01",
      "latitude": 47.0258,
      "name": "TWO HARBORS, MN US",
      "datacoverage": 0.9814,
      "id": "COOP:218419",
      "elevationUnit": "METERS",
      "longitude": -91.6653
    },
    {
      "elevation": 413,
      "mindate": "1998-01-01",
      "maxdate": "2015-11-01",
      "latitude": 47.1253,
      "name": "TWO HARBORS 7 NW, MN US",
      "datacoverage": 1,
      "id": "COOP:218421",
      "elevationUnit": "METERS",
      "longitude": -91.7067
    },
    {
      "elevation": 528.8,
      "mindate": "1948-08-01",
      "maxdate": "2008-08-01",
      "latitude": 44.278,
      "name": "TYLER, MN US",
      "datacoverage": 0.9667,
      "id": "COOP:218429",
      "elevationUnit": "METERS",
      "longitude": -96.128
    },
    {
      "elevation": 295.7,
      "mindate": "1984-01-01",
      "maxdate": "2015-11-01",
      "latitude": 44.9902,
      "name": "UNIVERSITY OF MN ST. PAUL, MN US",
      "datacoverage": 0.6841,
      "id": "COOP:218450",
      "elevationUnit": "METERS",
      "longitude": -93.17995
    },
    {
      "elevation": 271.3,
      "mindate": "1991-04-01",
      "maxdate": "2015-11-01",
      "latitude": 45.04821,
      "name": "VADNAIS LAKE, MN US",
      "datacoverage": 0.9729,
      "id": "COOP:218477",
      "elevationUnit": "METERS",
      "longitude": -93.09596
    },
    {
      "elevation": 323.7,
      "mindate": "1948-08-01",
      "maxdate": "2015-11-01",
      "latitude": 44.5074,
      "name": "VESTA, MN US",
      "datacoverage": 0.9815,
      "id": "COOP:218520",
      "elevationUnit": "METERS",
      "longitude": -95.4109
    },
    {
      "elevation": 438.9,
      "mindate": "1931-01-01",
      "maxdate": "1987-02-01",
      "latitude": 47.5,
      "name": "VIRGINIA, MN US",
      "datacoverage": 0.9643,
      "id": "COOP:218543",
      "elevationUnit": "METERS",
      "longitude": -92.55
    },
    {
      "elevation": 222.5,
      "mindate": "1956-02-01",
      "maxdate": "2015-11-01",
      "latitude": 44.38766,
      "name": "WABASHA, MN US",
      "datacoverage": 0.9903,
      "id": "COOP:218552",
      "elevationUnit": "METERS",
      "longitude": -92.06363
    },
    {
      "elevation": 418.2,
      "mindate": "1931-01-01",
      "maxdate": "2015-11-01",
      "latitude": 46.3938,
      "name": "WADENA 3 S, MN US",
      "datacoverage": 0.9569,
      "id": "COOP:218579",
      "elevationUnit": "METERS",
      "longitude": -95.1494
    },
    {
      "elevation": 510.5,
      "mindate": "1948-08-01",
      "maxdate": "2014-01-01",
      "latitude": 47.2561,
      "name": "WALES 2 E, MN US",
      "datacoverage": 0.9216,
      "id": "COOP:218613",
      "elevationUnit": "METERS",
      "longitude": -91.7017
    },
    {
      "elevation": 410.3,
      "mindate": "1907-12-01",
      "maxdate": "2015-11-01",
      "latitude": 47.0998,
      "name": "WALKER, MN US",
      "datacoverage": 0.9182,
      "id": "COOP:218618",
      "elevationUnit": "METERS",
      "longitude": -94.5724
    },
    {
      "elevation": 414.5,
      "mindate": "1940-01-01",
      "maxdate": "2015-11-01",
      "latitude": 47.0998,
      "name": "WALKER RANGER, MN US",
      "datacoverage": 0.2075,
      "id": "COOP:218621",
      "elevationUnit": "METERS",
      "longitude": -94.5724
    },
    {
      "elevation": 362.7,
      "mindate": "1963-11-01",
      "maxdate": "1991-09-01",
      "latitude": 48.65,
      "name": "WANNASKA 1 S, MN US",
      "datacoverage": 0.8448,
      "id": "COOP:218656",
      "elevationUnit": "METERS",
      "longitude": -95.75
    },
    {
      "elevation": 260.6,
      "mindate": "2014-01-01",
      "maxdate": "2015-11-01",
      "latitude": 48.1954,
      "name": "WARREN WSD, MN US",
      "datacoverage": 1,
      "id": "COOP:218674",
      "elevationUnit": "METERS",
      "longitude": -96.7761
    },
    {
      "elevation": 280.1,
      "mindate": "2012-01-01",
      "maxdate": "2013-12-01",
      "latitude": 48.1508,
      "name": "WARREN 7 ESE, MN US",
      "datacoverage": 0.9993,
      "id": "COOP:218676",
      "elevationUnit": "METERS",
      "longitude": -96.6416
    },
    {
      "elevation": 327.1,
      "mindate": "1931-01-01",
      "maxdate": "2015-11-01",
      "latitude": 48.8947,
      "name": "WARROAD, MN US",
      "datacoverage": 0.9627,
      "id": "COOP:218679",
      "elevationUnit": "METERS",
      "longitude": -95.3303
    },
    {
      "elevation": 349.6,
      "mindate": "1931-01-01",
      "maxdate": "2015-11-01",
      "latitude": 44.07063,
      "name": "WASECA SOUTHERN RESEARCH AND OUTREACH CENTER, MN US",
      "datacoverage": 0.9941,
      "id": "COOP:218692",
      "elevationUnit": "METERS",
      "longitude": -93.52647
    },
    {
      "elevation": 363,
      "mindate": "1948-08-01",
      "maxdate": "2015-11-01",
      "latitude": 48.2059,
      "name": "WASKISH 4 NE, MN US",
      "datacoverage": 0.6906,
      "id": "COOP:218700",
      "elevationUnit": "METERS",
      "longitude": -94.4273
    },
    {
      "mindate": "1948-08-01",
      "maxdate": "1951-11-01",
      "latitude": 44.96667,
      "name": "WATERTOWN, MN US",
      "datacoverage": 0.9254,
      "id": "COOP:218713",
      "longitude": -93.85
    },
    {
      "elevation": 289.6,
      "mindate": "1954-05-01",
      "maxdate": "2015-11-01",
      "latitude": 45.0227,
      "name": "WATSON 1 NE, MN US",
      "datacoverage": 1,
      "id": "COOP:218729",
      "elevationUnit": "METERS",
      "longitude": -95.7896
    },
    {
      "elevation": 345,
      "mindate": "1948-09-01",
      "maxdate": "1979-09-01",
      "latitude": 48.6,
      "name": "WAYLAND 12 NW, MN US",
      "datacoverage": 0.799,
      "id": "COOP:218763",
      "elevationUnit": "METERS",
      "longitude": -94.51667
    },
    {
      "elevation": 345.9,
      "mindate": "1942-01-01",
      "maxdate": "2015-11-01",
      "latitude": 43.7468,
      "name": "WELLS, MN US",
      "datacoverage": 0.9876,
      "id": "COOP:218808",
      "elevationUnit": "METERS",
      "longitude": -93.7368
    },
    {
      "elevation": 310.3,
      "mindate": "1931-01-01",
      "maxdate": "2015-11-01",
      "latitude": 45.80808,
      "name": "WHEATON, MN US",
      "datacoverage": 0.9882,
      "id": "COOP:218907",
      "elevationUnit": "METERS",
      "longitude": -96.50419
    },
    {
      "elevation": 454.8,
      "mindate": "1948-08-01",
      "maxdate": "1995-09-01",
      "latitude": 47.28333,
      "name": "WHITEFACE RESERVOIR, MN US",
      "datacoverage": 0.9735,
      "id": "COOP:218939",
      "elevationUnit": "METERS",
      "longitude": -92.18333
    },
    {
      "elevation": 311.8,
      "mindate": "1948-08-01",
      "maxdate": "2015-11-01",
      "latitude": 45.86209,
      "name": "WHITE ROCK DAM, MN US",
      "datacoverage": 0.276,
      "id": "COOP:218947",
      "elevationUnit": "METERS",
      "longitude": -96.56521
    },
    {
      "elevation": 256,
      "mindate": "1990-12-01",
      "maxdate": "2015-11-01",
      "latitude": 45.52309,
      "name": "WILD RIVER STATE PARK, MN US",
      "datacoverage": 0.9734,
      "id": "COOP:218986",
      "elevationUnit": "METERS",
      "longitude": -92.74899
    },
    {
      "elevation": 345,
      "mindate": "1943-01-01",
      "maxdate": "1973-09-01",
      "latitude": 45.11667,
      "name": "WILLMAR, MN US",
      "datacoverage": 0.8915,
      "id": "COOP:218999",
      "elevationUnit": "METERS",
      "longitude": -95.08333
    },
    {
      "elevation": 362.7,
      "mindate": "2010-08-01",
      "maxdate": "2015-11-01",
      "latitude": 45.1901,
      "name": "WILLMAR 5 N, MN US",
      "datacoverage": 1,
      "id": "COOP:219001",
      "elevationUnit": "METERS",
      "longitude": -95.0586
    },
    {
      "elevation": 335.3,
      "mindate": "1931-01-01",
      "maxdate": "2010-07-31",
      "latitude": 45.10778,
      "name": "WILLMAR RTC, MN US",
      "datacoverage": 0.9885,
      "id": "COOP:219004",
      "elevationUnit": "METERS",
      "longitude": -95.03583
    },
    {
      "elevation": 421.2,
      "mindate": "1936-12-01",
      "maxdate": "2015-11-01",
      "latitude": 43.87717,
      "name": "WINDOM, MN US",
      "datacoverage": 0.9673,
      "id": "COOP:219033",
      "elevationUnit": "METERS",
      "longitude": -95.11589
    },
    {
      "elevation": 338.3,
      "mindate": "1931-01-01",
      "maxdate": "2015-11-01",
      "latitude": 43.7639,
      "name": "WINNEBAGO, MN US",
      "datacoverage": 0.9853,
      "id": "COOP:219046",
      "elevationUnit": "METERS",
      "longitude": -94.1662
    },
    {
      "elevation": 402.3,
      "mindate": "1893-01-01",
      "maxdate": "2015-11-01",
      "latitude": 47.4305,
      "name": "WINNIBIGOSHISH DAM, MN US",
      "datacoverage": 0.9919,
      "id": "COOP:219059",
      "elevationUnit": "METERS",
      "longitude": -94.0504
    },
    {
      "elevation": 198.7,
      "mindate": "1931-01-01",
      "maxdate": "2009-10-01",
      "latitude": 44.0422,
      "name": "WINONA, MN US",
      "datacoverage": 0.9673,
      "id": "COOP:219067",
      "elevationUnit": "METERS",
      "longitude": -91.6364
    },
    {
      "elevation": 202.1,
      "mindate": "1948-07-01",
      "maxdate": "2015-11-01",
      "latitude": 44.0876,
      "name": "WINONA DAM 5 A, MN US",
      "datacoverage": 0.9852,
      "id": "COOP:219072",
      "elevationUnit": "METERS",
      "longitude": -91.6703
    },
    {
      "elevation": 225.9,
      "mindate": "1948-08-01",
      "maxdate": "1957-08-01",
      "latitude": 44.03333,
      "name": "WINONA 3 SW, MN US",
      "datacoverage": 0.8061,
      "id": "COOP:219077",
      "elevationUnit": "METERS",
      "longitude": -91.68333
    },
    {
      "elevation": 313.9,
      "mindate": "1948-09-01",
      "maxdate": "2006-02-01",
      "latitude": 44.9511,
      "name": "WINSTED, MN US",
      "datacoverage": 0.9305,
      "id": "COOP:219085",
      "elevationUnit": "METERS",
      "longitude": -94.0629
    },
    {
      "mindate": "1948-08-01",
      "maxdate": "1951-10-01",
      "latitude": 44.53333,
      "name": "WINTHROP, MN US",
      "datacoverage": 0.9488,
      "id": "COOP:219093",
      "longitude": -94.36667
    },
    {
      "elevation": 407.5,
      "mindate": "1948-08-01",
      "maxdate": "1995-09-01",
      "latitude": 47.93333,
      "name": "WINTON POWER PLANT, MN US",
      "datacoverage": 0.811,
      "id": "COOP:219101",
      "elevationUnit": "METERS",
      "longitude": -91.76667
    },
    {
      "elevation": 438.6,
      "mindate": "1993-06-01",
      "maxdate": "2015-11-01",
      "latitude": 47.3824,
      "name": "WOLF RIDGE ELC, MN US",
      "datacoverage": 0.9963,
      "id": "COOP:219134",
      "elevationUnit": "METERS",
      "longitude": -91.1973
    },
    {
      "elevation": 484.9,
      "mindate": "1931-01-01",
      "maxdate": "1971-11-01",
      "latitude": 43.61667,
      "name": "WORTHINGTON, MN US",
      "datacoverage": 0.9878,
      "id": "COOP:219166",
      "elevationUnit": "METERS",
      "longitude": -95.6
    },
    {
      "elevation": 477.9,
      "mindate": "1971-07-01",
      "maxdate": "2015-11-01",
      "latitude": 43.64525,
      "name": "WORTHINGTON 2 NNE, MN US",
      "datacoverage": 0.9868,
      "id": "COOP:219170",
      "elevationUnit": "METERS",
      "longitude": -95.58036
    },
    {
      "elevation": 405.4,
      "mindate": "1961-07-01",
      "maxdate": "2015-11-01",
      "latitude": 46.6804,
      "name": "WRIGHT 3 E, MN US",
      "datacoverage": 0.9724,
      "id": "COOP:219173",
      "elevationUnit": "METERS",
      "longitude": -92.9543
    },
    {
      "elevation": 338.3,
      "mindate": "1954-12-01",
      "maxdate": "1995-09-01",
      "latitude": 44.80556,
      "name": "YOUNG AMERICA 1 SW, MN US",
      "datacoverage": 0.9837,
      "id": "COOP:219208",
      "elevationUnit": "METERS",
      "longitude": -94.01667
    },
    {
      "elevation": 268.2,
      "mindate": "1978-08-01",
      "maxdate": "2010-10-01",
      "latitude": 44.2853,
      "name": "ZUMBRO FALLS, MN US",
      "datacoverage": 0.4703,
      "id": "COOP:219231",
      "elevationUnit": "METERS",
      "longitude": -92.431
    },
    {
      "elevation": 328.9,
      "mindate": "1948-12-01",
      "maxdate": "1957-10-01",
      "latitude": 44.28333,
      "name": "ZUMBRO FALLS 1 SE, MN US",
      "datacoverage": 0.9714,
      "id": "COOP:219235",
      "elevationUnit": "METERS",
      "longitude": -92.41667
    },
    {
      "elevation": 314.9,
      "mindate": "2002-05-01",
      "maxdate": "2003-10-01",
      "latitude": 44.30333,
      "name": "ZUMBRO FALLS 2 NE, MN US",
      "datacoverage": 0.998,
      "id": "COOP:219237",
      "elevationUnit": "METERS",
      "longitude": -92.40444
    },
    {
      "elevation": 298.7,
      "mindate": "1931-01-01",
      "maxdate": "2015-11-01",
      "latitude": 44.29982,
      "name": "ZUMBROTA, MN US",
      "datacoverage": 0.9853,
      "id": "COOP:219249",
      "elevationUnit": "METERS",
      "longitude": -92.66544
    },
    {
      "elevation": 123.7,
      "mindate": "1941-01-01",
      "maxdate": "2015-11-01",
      "latitude": 34.5011,
      "name": "ABBEVILLE, MS US",
      "datacoverage": 0.9166,
      "id": "COOP:220008",
      "elevationUnit": "METERS",
      "longitude": -89.5009
    },
    {
      "elevation": 57.3,
      "mindate": "1891-05-01",
      "maxdate": "2015-11-01",
      "latitude": 33.8301,
      "name": "ABERDEEN, MS US",
      "datacoverage": 0.9385,
      "id": "COOP:220021",
      "elevationUnit": "METERS",
      "longitude": -88.5206
    },
    {
      "elevation": 167.3,
      "mindate": "1940-03-01",
      "maxdate": "2011-12-01",
      "latitude": 33.3117,
      "name": "ACKERMAN, MS US",
      "datacoverage": 0.9652,
      "id": "COOP:220039",
      "elevationUnit": "METERS",
      "longitude": -89.1668
    },
    {
      "mindate": "1940-03-01",
      "maxdate": "1953-08-01",
      "latitude": 33.25,
      "name": "ACONA, MS US",
      "datacoverage": 0.8517,
      "id": "COOP:220048",
      "longitude": -90.06667
    },
    {
      "elevation": 156.1,
      "mindate": "1948-01-01",
      "maxdate": "1962-03-01",
      "latitude": 34.96667,
      "name": "ACTON, MS US",
      "datacoverage": 0.8832,
      "id": "COOP:220050",
      "elevationUnit": "METERS",
      "longitude": -88.43333
    },
    {
      "elevation": 78.9,
      "mindate": "1952-10-01",
      "maxdate": "1972-06-01",
      "latitude": 31.88333,
      "name": "ALCORN A AND M COLLEGE, MS US",
      "datacoverage": 0.9579,
      "id": "COOP:220116",
      "elevationUnit": "METERS",
      "longitude": -91.15
    },
    {
      "elevation": 156.1,
      "mindate": "1963-09-01",
      "maxdate": "1975-06-01",
      "latitude": 31.75,
      "name": "ALLEN, MS US",
      "datacoverage": 1,
      "id": "COOP:220130",
      "elevationUnit": "METERS",
      "longitude": -90.65
    },
    {
      "mindate": "1952-05-01",
      "maxdate": "1959-01-14",
      "latitude": 31.73333,
      "name": "ALLEN 2 WSW, MS US",
      "datacoverage": 0.0456,
      "id": "COOP:220134",
      "longitude": -90.7
    },
    {
      "elevation": 78.3,
      "mindate": "1992-01-01",
      "maxdate": "2015-11-01",
      "latitude": 34.01138,
      "name": "THAD COCHRAN LOCK AND DAM, MS US",
      "datacoverage": 0.9861,
      "id": "COOP:220173",
      "elevationUnit": "METERS",
      "longitude": -88.48847
    },
    {
      "elevation": 70.1,
      "mindate": "1956-09-01",
      "maxdate": "1969-01-01",
      "latitude": 33.98333,
      "name": "AMORY 4 W, MS US",
      "datacoverage": 0.9059,
      "id": "COOP:220176",
      "elevationUnit": "METERS",
      "longitude": -88.55
    },
    {
      "elevation": 33.5,
      "mindate": "1907-08-01",
      "maxdate": "1936-04-01",
      "latitude": 32.98333,
      "name": "ANGUILLA, MS US",
      "datacoverage": 0.9855,
      "id": "COOP:220195",
      "elevationUnit": "METERS",
      "longitude": -90.83333
    },
    {
      "elevation": 1.5,
      "mindate": "1999-12-01",
      "maxdate": "2014-12-01",
      "latitude": 30.2208,
      "name": "ANSLEY, MS US",
      "datacoverage": 0.9501,
      "id": "COOP:220218",
      "elevationUnit": "METERS",
      "longitude": -89.4978
    },
    {
      "elevation": 93,
      "mindate": "1941-08-01",
      "maxdate": "2015-11-01",
      "latitude": 34.78022,
      "name": "ARKABUTLA DAM, MS US",
      "datacoverage": 0.9675,
      "id": "COOP:220237",
      "elevationUnit": "METERS",
      "longitude": -90.11525
    },
    {
      "elevation": 183.8,
      "mindate": "1941-03-01",
      "maxdate": "2015-11-01",
      "latitude": 34.8491,
      "name": "ASHLAND, MS US",
      "datacoverage": 0.9465,
      "id": "COOP:220290",
      "elevationUnit": "METERS",
      "longitude": -89.1598
    },
    {
      "elevation": 61,
      "mindate": "1895-10-01",
      "maxdate": "1934-08-01",
      "latitude": 34.63333,
      "name": "AUSTIN, MS US",
      "datacoverage": 0.9636,
      "id": "COOP:220325",
      "elevationUnit": "METERS",
      "longitude": -90.43333
    },
    {
      "elevation": 98.1,
      "mindate": "1948-01-01",
      "maxdate": "1957-01-01",
      "latitude": 31.3,
      "name": "AVERA, MS US",
      "datacoverage": 0.7337,
      "id": "COOP:220347",
      "elevationUnit": "METERS",
      "longitude": -88.75
    },
    {
      "elevation": 127.1,
      "mindate": "1940-03-01",
      "maxdate": "2015-11-01",
      "latitude": 34.4832,
      "name": "BALDWYN, MS US",
      "datacoverage": 0.9648,
      "id": "COOP:220378",
      "elevationUnit": "METERS",
      "longitude": -88.63921
    },
    {
      "elevation": 156.1,
      "mindate": "1958-12-01",
      "maxdate": "1963-10-01",
      "latitude": 31.75,
      "name": "BARLOW 6 SE, MS US",
      "datacoverage": 1,
      "id": "COOP:220427",
      "elevationUnit": "METERS",
      "longitude": -90.58333
    },
    {
      "elevation": 71.9,
      "mindate": "1891-02-01",
      "maxdate": "2015-11-01",
      "latitude": 34.31602,
      "name": "BATESVILLE, MS US",
      "datacoverage": 0.99,
      "id": "COOP:220488",
      "elevationUnit": "METERS",
      "longitude": -89.9559
    },
    {
      "elevation": 6.1,
      "mindate": "1891-02-01",
      "maxdate": "1979-12-01",
      "latitude": 30.3,
      "name": "BAY SAINT LOUIS, MS US",
      "datacoverage": 0.9523,
      "id": "COOP:220519",
      "elevationUnit": "METERS",
      "longitude": -89.33333
    },
    {
      "elevation": 9.1,
      "mindate": "1979-01-01",
      "maxdate": "2014-12-01",
      "latitude": 30.3758,
      "name": "BAY ST LOUIS NASA, MS US",
      "datacoverage": 0.956,
      "id": "COOP:220521",
      "elevationUnit": "METERS",
      "longitude": -89.5989
    },
    {
      "elevation": 125.3,
      "mindate": "1912-04-01",
      "maxdate": "2015-11-01",
      "latitude": 31.9694,
      "name": "BAY SPRINGS, MS US",
      "datacoverage": 0.5965,
      "id": "COOP:220523",
      "elevationUnit": "METERS",
      "longitude": -89.2888
    },
    {
      "elevation": 17.4,
      "mindate": "1942-03-01",
      "maxdate": "1976-06-01",
      "latitude": 31.18333,
      "name": "BEAUMONT, MS US",
      "datacoverage": 0.9709,
      "id": "COOP:220581",
      "elevationUnit": "METERS",
      "longitude": -88.91667
    },
    {
      "elevation": 52.4,
      "mindate": "1991-02-01",
      "maxdate": "2015-11-01",
      "latitude": 31.23525,
      "name": "BEAUMONT EXP.STATION, MS US",
      "datacoverage": 0.9968,
      "id": "COOP:220585",
      "elevationUnit": "METERS",
      "longitude": -88.91877
    },
    {
      "elevation": 121.9,
      "mindate": "1947-10-01",
      "maxdate": "1951-05-01",
      "latitude": 33.66667,
      "name": "BELLEFONTAINE 2 NNW, MS US",
      "datacoverage": 0.7906,
      "id": "COOP:220630",
      "elevationUnit": "METERS",
      "longitude": -89.33333
    },
    {
      "elevation": 194.2,
      "mindate": "1948-02-01",
      "maxdate": "2015-11-01",
      "latitude": 34.47717,
      "name": "BELMONT 2 SSE, MS US",
      "datacoverage": 0.6339,
      "id": "COOP:220656",
      "elevationUnit": "METERS",
      "longitude": -88.20028
    },
    {
      "elevation": 35.1,
      "mindate": "1930-05-01",
      "maxdate": "2015-11-01",
      "latitude": 33.1772,
      "name": "BELZONI, MS US",
      "datacoverage": 0.9659,
      "id": "COOP:220660",
      "elevationUnit": "METERS",
      "longitude": -90.4919
    },
    {
      "elevation": 3,
      "mindate": "1893-05-01",
      "maxdate": "2015-11-01",
      "latitude": 30.393,
      "name": "BILOXI, MS US",
      "datacoverage": 0.9619,
      "id": "COOP:220792",
      "elevationUnit": "METERS",
      "longitude": -89.0008
    },
    {
      "elevation": 3,
      "mindate": "1966-11-01",
      "maxdate": "1970-05-01",
      "latitude": 30.4,
      "name": "BILOXI 2, MS US",
      "datacoverage": 0.0161,
      "id": "COOP:220796",
      "elevationUnit": "METERS",
      "longitude": -88.86667
    },
    {
      "elevation": 5.8,
      "mindate": "1970-04-01",
      "maxdate": "2014-01-01",
      "latitude": 30.4375,
      "name": "BILOXI 9 WNW, MS US",
      "datacoverage": 0.0267,
      "id": "COOP:220797",
      "elevationUnit": "METERS",
      "longitude": -89.0277
    },
    {
      "elevation": 8.2,
      "mindate": "1947-04-01",
      "maxdate": "1954-04-01",
      "latitude": 30.4,
      "name": "BILOXI DISPLAY, MS US",
      "datacoverage": 0.9412,
      "id": "COOP:220801",
      "elevationUnit": "METERS",
      "longitude": -88.88333
    },
    {
      "elevation": 78.9,
      "mindate": "1954-01-01",
      "maxdate": "1988-04-01",
      "latitude": 33.33333,
      "name": "BLACK HAWK, MS US",
      "datacoverage": 1,
      "id": "COOP:220841",
      "elevationUnit": "METERS",
      "longitude": -90.01667
    },
    {
      "elevation": 70.1,
      "mindate": "1943-05-01",
      "maxdate": "2010-12-01",
      "latitude": 33.27806,
      "name": "BLUFF LAKE, MS US",
      "datacoverage": 0.9347,
      "id": "COOP:220891",
      "elevationUnit": "METERS",
      "longitude": -88.79306
    },
    {
      "elevation": 149.4,
      "mindate": "1891-02-01",
      "maxdate": "2015-11-01",
      "latitude": 34.6345,
      "name": "BOONEVILLE, MS US",
      "datacoverage": 0.9486,
      "id": "COOP:220955",
      "elevationUnit": "METERS",
      "longitude": -88.5622
    },
    {
      "elevation": 18,
      "mindate": "1892-12-01",
      "maxdate": "1899-08-01",
      "latitude": 31.38333,
      "name": "BRIERS, MS US",
      "datacoverage": 0.9878,
      "id": "COOP:221069",
      "elevationUnit": "METERS",
      "longitude": -91.38333
    },
    {
      "elevation": 132.6,
      "mindate": "1891-02-01",
      "maxdate": "2015-11-01",
      "latitude": 31.5447,
      "name": "BROOKHAVEN CITY, MS US",
      "datacoverage": 0.974,
      "id": "COOP:221094",
      "elevationUnit": "METERS",
      "longitude": -90.458
    },
    {
      "elevation": 146,
      "mindate": "1952-03-01",
      "maxdate": "1978-09-01",
      "latitude": 31.58333,
      "name": "BROOKHAVEN 2, MS US",
      "datacoverage": 0.0564,
      "id": "COOP:221096",
      "elevationUnit": "METERS",
      "longitude": -90.45
    },
    {
      "elevation": 82,
      "mindate": "1940-11-01",
      "maxdate": "1975-06-01",
      "latitude": 31.03333,
      "name": "BROOKLYN 2 SE, MS US",
      "datacoverage": 0.8992,
      "id": "COOP:221098",
      "elevationUnit": "METERS",
      "longitude": -89.16667
    },
    {
      "elevation": 89,
      "mindate": "1948-10-01",
      "maxdate": "2003-07-01",
      "latitude": 33.25972,
      "name": "BROOKSVILLE EXPERIMENTAL STATION, MS US",
      "datacoverage": 0.9864,
      "id": "COOP:221111",
      "elevationUnit": "METERS",
      "longitude": -88.56361
    },
    {
      "elevation": 82.3,
      "mindate": "1946-05-01",
      "maxdate": "2009-12-01",
      "latitude": 33.99167,
      "name": "BRUCE 2 W, MS US",
      "datacoverage": 0.9764,
      "id": "COOP:221152",
      "elevationUnit": "METERS",
      "longitude": -89.37361
    },
    {
      "elevation": 45.7,
      "mindate": "1940-04-01",
      "maxdate": "2015-11-01",
      "latitude": 31.5475,
      "name": "BUCKATUNNA 1 NE, MS US",
      "datacoverage": 0.9879,
      "id": "COOP:221174",
      "elevationUnit": "METERS",
      "longitude": -88.51722
    }
  ]
}
