{
  "metadata": {
    "resultset": {
      "offset": 19600,
      "count": 154115,
      "limit": 100
    }
  },
  "results": [
    {
      "elevation": 375.2,
      "mindate": "1945-01-01",
      "maxdate": "2015-11-01",
      "latitude": 44.8175,
      "name": "STRATFORD 1 NW, WI US",
      "datacoverage": 0.9777,
      "id": "COOP:478241",
      "elevationUnit": "METERS",
      "longitude": -90.08987
    },
    {
      "elevation": 297.5,
      "mindate": "1948-08-01",
      "maxdate": "2014-01-01",
      "latitude": 44.4965,
      "name": "STRUM 4 S, WI US",
      "datacoverage": 0.7636,
      "id": "COOP:478259",
      "elevationUnit": "METERS",
      "longitude": -91.3965
    },
    {
      "elevation": 213.1,
      "mindate": "1931-01-01",
      "maxdate": "2015-11-01",
      "latitude": 44.8799,
      "name": "STURGEON BAY EXPERIMENTAL FARM, WI US",
      "datacoverage": 0.9951,
      "id": "COOP:478267",
      "elevationUnit": "METERS",
      "longitude": -87.33578
    },
    {
      "elevation": 489.2,
      "mindate": "1945-01-01",
      "maxdate": "2003-10-01",
      "latitude": 45.8647,
      "name": "SUGAR CAMP, WI US",
      "datacoverage": 0.9802,
      "id": "COOP:478288",
      "elevationUnit": "METERS",
      "longitude": -89.3819
    },
    {
      "elevation": 283.2,
      "mindate": "1994-09-01",
      "maxdate": "2015-11-01",
      "latitude": 42.9676,
      "name": "SULLIVAN 3 SE WEATHER FORECAST OFFICE MKX, WI US",
      "datacoverage": 0.9722,
      "id": "COOP:478316",
      "elevationUnit": "METERS",
      "longitude": -88.54946
    },
    {
      "elevation": 527.9,
      "mindate": "1946-01-01",
      "maxdate": "2015-11-01",
      "latitude": 45.3788,
      "name": "SUMMIT LAKE, WI US",
      "datacoverage": 0.9297,
      "id": "COOP:478324",
      "elevationUnit": "METERS",
      "longitude": -89.1941
    },
    {
      "elevation": 289.6,
      "mindate": "2002-01-01",
      "maxdate": "2003-06-01",
      "latitude": 43.19361,
      "name": "SUN PRAIRIE 3 W, WI US",
      "datacoverage": 0.9477,
      "id": "COOP:478329",
      "elevationUnit": "METERS",
      "longitude": -89.28222
    },
    {
      "elevation": 185,
      "mindate": "1931-01-01",
      "maxdate": "2015-11-01",
      "latitude": 46.727,
      "name": "SUPERIOR, WI US",
      "datacoverage": 0.9814,
      "id": "COOP:478349",
      "elevationUnit": "METERS",
      "longitude": -92.072
    },
    {
      "elevation": 241.4,
      "mindate": "1998-04-01",
      "maxdate": "2015-11-01",
      "latitude": 44.9958,
      "name": "SURING, WI US",
      "datacoverage": 1,
      "id": "COOP:478376",
      "elevationUnit": "METERS",
      "longitude": -88.3786
    },
    {
      "elevation": 524.3,
      "mindate": "1948-01-01",
      "maxdate": "1997-07-01",
      "latitude": 45.71306,
      "name": "THREE LAKES 10 SE, WI US",
      "datacoverage": 0.1515,
      "id": "COOP:478478",
      "elevationUnit": "METERS",
      "longitude": -89.00278
    },
    {
      "elevation": 296.3,
      "mindate": "1948-08-01",
      "maxdate": "2014-01-01",
      "latitude": 43.9713,
      "name": "TOMAH RANGER STATION 2, WI US",
      "datacoverage": 0.6583,
      "id": "COOP:478515",
      "elevationUnit": "METERS",
      "longitude": -90.4679
    },
    {
      "elevation": 442,
      "mindate": "1948-08-01",
      "maxdate": "1949-10-21",
      "latitude": 45.46667,
      "name": "TOMAHAWK, WI US",
      "datacoverage": 0.5328,
      "id": "COOP:478520",
      "elevationUnit": "METERS",
      "longitude": -89.73333
    },
    {
      "elevation": 438.9,
      "mindate": "1931-04-01",
      "maxdate": "1977-06-01",
      "latitude": 45.43333,
      "name": "TOMAHAWK SPIRIT RESE, WI US",
      "datacoverage": 0.9531,
      "id": "COOP:478528",
      "elevationUnit": "METERS",
      "longitude": -89.75
    },
    {
      "elevation": 266.7,
      "mindate": "2005-11-01",
      "maxdate": "2015-11-01",
      "latitude": 43.47201,
      "name": "TOWN OF WESTFORD, WI US",
      "datacoverage": 1,
      "id": "COOP:478540",
      "elevationUnit": "METERS",
      "longitude": -88.88246
    },
    {
      "elevation": 415.1,
      "mindate": "1945-01-01",
      "maxdate": "1968-07-01",
      "latitude": 45.33333,
      "name": "TOWNSEND, WI US",
      "datacoverage": 0.9117,
      "id": "COOP:478561",
      "elevationUnit": "METERS",
      "longitude": -88.58333
    },
    {
      "elevation": 201.2,
      "mindate": "1937-01-01",
      "maxdate": "2015-11-01",
      "latitude": 43.9994,
      "name": "TREMPEALEAU DAM 6, MN US",
      "datacoverage": 0.9905,
      "id": "COOP:478589",
      "elevationUnit": "METERS",
      "longitude": -91.4378
    },
    {
      "elevation": 179.5,
      "mindate": "1950-12-01",
      "maxdate": "2015-11-01",
      "latitude": 44.143,
      "name": "TWO RIVERS, WI US",
      "datacoverage": 0.9923,
      "id": "COOP:478672",
      "elevationUnit": "METERS",
      "longitude": -87.5677
    },
    {
      "elevation": 218.8,
      "mindate": "1941-06-01",
      "maxdate": "2015-11-01",
      "latitude": 42.69049,
      "name": "UNION GROVE WWTP, WI US",
      "datacoverage": 0.9832,
      "id": "COOP:478723",
      "elevationUnit": "METERS",
      "longitude": -88.03363
    },
    {
      "elevation": 456.3,
      "mindate": "1998-08-01",
      "maxdate": "2015-11-01",
      "latitude": 46.3678,
      "name": "UPSON, WI US",
      "datacoverage": 0.9712,
      "id": "COOP:478750",
      "elevationUnit": "METERS",
      "longitude": -90.4122
    },
    {
      "elevation": 382.5,
      "mindate": "1931-01-01",
      "maxdate": "2015-11-01",
      "latitude": 43.5595,
      "name": "VIROQUA, WI US",
      "datacoverage": 0.9784,
      "id": "COOP:478827",
      "elevationUnit": "METERS",
      "longitude": -90.876
    },
    {
      "elevation": 320,
      "mindate": "1958-02-01",
      "maxdate": "1958-12-01",
      "latitude": 42.55,
      "name": "FONTANA, WI US",
      "datacoverage": 1,
      "id": "COOP:478872",
      "elevationUnit": "METERS",
      "longitude": -88.58333
    },
    {
      "elevation": 209.1,
      "mindate": "1944-11-01",
      "maxdate": "2015-11-01",
      "latitude": 45.3582,
      "name": "WASHINGTON IS, WI US",
      "datacoverage": 0.9883,
      "id": "COOP:478905",
      "elevationUnit": "METERS",
      "longitude": -86.891
    },
    {
      "elevation": 245.4,
      "mindate": "2007-02-01",
      "maxdate": "2015-11-01",
      "latitude": 43.18811,
      "name": "WATERLOO WWTP, WI US",
      "datacoverage": 1,
      "id": "COOP:478910",
      "elevationUnit": "METERS",
      "longitude": -88.98498
    },
    {
      "elevation": 251.5,
      "mindate": "1931-01-01",
      "maxdate": "2015-11-01",
      "latitude": 43.17424,
      "name": "WATERTOWN WWTP, WI US",
      "datacoverage": 0.9932,
      "id": "COOP:478919",
      "elevationUnit": "METERS",
      "longitude": -88.73633
    },
    {
      "elevation": 286.5,
      "mindate": "1993-07-01",
      "maxdate": "2004-01-01",
      "latitude": 43.47028,
      "name": "WAUBEKA, WI US",
      "datacoverage": 0.8894,
      "id": "COOP:478932",
      "elevationUnit": "METERS",
      "longitude": -87.98361
    },
    {
      "elevation": 244.4,
      "mindate": "1931-01-01",
      "maxdate": "2015-11-01",
      "latitude": 42.99852,
      "name": "WAUKESHA WWTP, WI US",
      "datacoverage": 0.9519,
      "id": "COOP:478937",
      "elevationUnit": "METERS",
      "longitude": -88.25253
    },
    {
      "elevation": 255.1,
      "mindate": "1931-01-01",
      "maxdate": "2015-11-01",
      "latitude": 44.35475,
      "name": "WAUPACA, WI US",
      "datacoverage": 0.9941,
      "id": "COOP:478951",
      "elevationUnit": "METERS",
      "longitude": -89.05951
    },
    {
      "elevation": 359.7,
      "mindate": "1948-08-01",
      "maxdate": "1996-03-01",
      "latitude": 44.86667,
      "name": "WAUSAU 7 SSW, WI US",
      "datacoverage": 0.9479,
      "id": "COOP:478963",
      "elevationUnit": "METERS",
      "longitude": -89.65
    },
    {
      "elevation": 366,
      "mindate": "1941-12-01",
      "maxdate": "2015-11-01",
      "latitude": 44.927497,
      "name": "WAUSAU ASOS, WI US",
      "datacoverage": 0.9606,
      "id": "COOP:478968",
      "elevationUnit": "METERS",
      "longitude": -89.625279
    },
    {
      "elevation": 364.8,
      "mindate": "2001-09-01",
      "maxdate": "2015-11-01",
      "latitude": 44.9464,
      "name": "WAUSAU WSAW TV, WI US",
      "datacoverage": 0.9417,
      "id": "COOP:478969",
      "elevationUnit": "METERS",
      "longitude": -89.6222
    },
    {
      "elevation": 371.9,
      "mindate": "1931-01-01",
      "maxdate": "1960-12-01",
      "latitude": 44.95,
      "name": "WAUSAU RECORD HERALD, WI US",
      "datacoverage": 1,
      "id": "COOP:478971",
      "elevationUnit": "METERS",
      "longitude": -89.61667
    },
    {
      "elevation": 227.1,
      "mindate": "1948-01-01",
      "maxdate": "2015-11-01",
      "latitude": 45.3802,
      "name": "WAUSAUKEE, WI US",
      "datacoverage": 0.9522,
      "id": "COOP:478978",
      "elevationUnit": "METERS",
      "longitude": -87.9566
    },
    {
      "elevation": 321.9,
      "mindate": "2005-01-01",
      "maxdate": "2009-05-01",
      "latitude": 44.1405,
      "name": "WAUTOMA 4 N, WI US",
      "datacoverage": 0.9819,
      "id": "COOP:478984",
      "elevationUnit": "METERS",
      "longitude": -89.2977
    },
    {
      "elevation": 264.9,
      "mindate": "2009-08-01",
      "maxdate": "2015-11-01",
      "latitude": 44.0411,
      "name": "WAUTOMA SILVER LAKE SAN DIST, WI US",
      "datacoverage": 1,
      "id": "COOP:478987",
      "elevationUnit": "METERS",
      "longitude": -89.2433
    },
    {
      "elevation": 306.3,
      "mindate": "1998-06-01",
      "maxdate": "2015-11-01",
      "latitude": 45.7883,
      "name": "WEBSTER 9 SE, WI US",
      "datacoverage": 0.9857,
      "id": "COOP:479012",
      "elevationUnit": "METERS",
      "longitude": -92.2325
    },
    {
      "elevation": 235.6,
      "mindate": "1951-10-01",
      "maxdate": "2010-12-01",
      "latitude": 42.99806,
      "name": "WEST ALLIS, WI US",
      "datacoverage": 0.8087,
      "id": "COOP:479046",
      "elevationUnit": "METERS",
      "longitude": -88.02407
    },
    {
      "elevation": 286.5,
      "mindate": "1931-01-01",
      "maxdate": "2003-11-01",
      "latitude": 43.36806,
      "name": "WEST BEND, WI US",
      "datacoverage": 0.9909,
      "id": "COOP:479050",
      "elevationUnit": "METERS",
      "longitude": -88.08583
    },
    {
      "elevation": 298.7,
      "mindate": "2009-03-01",
      "maxdate": "2015-11-01",
      "latitude": 43.41073,
      "name": "WEST BEND PUBLIC WORKS, WI US",
      "datacoverage": 0.864,
      "id": "COOP:479052",
      "elevationUnit": "METERS",
      "longitude": -88.19395
    },
    {
      "elevation": 272.8,
      "mindate": "2002-08-01",
      "maxdate": "2015-11-01",
      "latitude": 43.43183,
      "name": "WEST BEND FIRE STATION NUMBER 2, WI US",
      "datacoverage": 0.9875,
      "id": "COOP:479053",
      "elevationUnit": "METERS",
      "longitude": -88.16037
    },
    {
      "elevation": 390.1,
      "mindate": "1956-03-01",
      "maxdate": "1969-10-01",
      "latitude": 43.68333,
      "name": "WESTBY 4 NE, WI US",
      "datacoverage": 0.052,
      "id": "COOP:479061",
      "elevationUnit": "METERS",
      "longitude": -90.8
    },
    {
      "elevation": 390.8,
      "mindate": "1956-05-01",
      "maxdate": "2015-11-01",
      "latitude": 43.6749,
      "name": "WESTBY 3 ENE, WI US",
      "datacoverage": 0.9245,
      "id": "COOP:479062",
      "elevationUnit": "METERS",
      "longitude": -90.8077
    },
    {
      "elevation": 225.9,
      "mindate": "1938-08-01",
      "maxdate": "1954-02-01",
      "latitude": 43.9,
      "name": "WEST SALEM, WI US",
      "datacoverage": 0.8878,
      "id": "COOP:479119",
      "elevationUnit": "METERS",
      "longitude": -91.08333
    },
    {
      "elevation": 364.2,
      "mindate": "1931-01-01",
      "maxdate": "2007-09-01",
      "latitude": 45.4426,
      "name": "WEYERHAEUSER 1 N, WI US",
      "datacoverage": 0.9164,
      "id": "COOP:479144",
      "elevationUnit": "METERS",
      "longitude": -91.4181
    },
    {
      "elevation": 361.2,
      "mindate": "2011-01-01",
      "maxdate": "2012-12-01",
      "latitude": 45.4283,
      "name": "WEYERHAEUSER 2, WI US",
      "datacoverage": 0.9993,
      "id": "COOP:479145",
      "elevationUnit": "METERS",
      "longitude": -91.4204
    },
    {
      "elevation": 392.9,
      "mindate": "1958-02-01",
      "maxdate": "2015-11-01",
      "latitude": 45.1452,
      "name": "WHITE LAKE 1 SE, WI US",
      "datacoverage": 0.9888,
      "id": "COOP:479176",
      "elevationUnit": "METERS",
      "longitude": -88.7416
    },
    {
      "elevation": 246,
      "mindate": "1941-06-01",
      "maxdate": "2015-11-01",
      "latitude": 42.85077,
      "name": "WHITEWATER WWTP, WI US",
      "datacoverage": 0.981,
      "id": "COOP:479190",
      "elevationUnit": "METERS",
      "longitude": -88.72486
    },
    {
      "elevation": 454.2,
      "mindate": "1948-08-01",
      "maxdate": "2014-01-01",
      "latitude": 44.7313,
      "name": "WILLARD, WI US",
      "datacoverage": 0.6846,
      "id": "COOP:479218",
      "elevationUnit": "METERS",
      "longitude": -90.7216
    },
    {
      "elevation": 271,
      "mindate": "1931-01-01",
      "maxdate": "1958-01-01",
      "latitude": 42.58333,
      "name": "WILLIAMS BAY, WI US",
      "datacoverage": 0.9784,
      "id": "COOP:479226",
      "elevationUnit": "METERS",
      "longitude": -88.53333
    },
    {
      "elevation": 467,
      "mindate": "1934-04-01",
      "maxdate": "2015-11-01",
      "latitude": 45.70871,
      "name": "WILLOW RESERVOIR, WI US",
      "datacoverage": 0.9877,
      "id": "COOP:479236",
      "elevationUnit": "METERS",
      "longitude": -89.8483
    },
    {
      "elevation": 413,
      "mindate": "1931-01-01",
      "maxdate": "2015-11-01",
      "latitude": 45.7992,
      "name": "WINTER, WI US",
      "datacoverage": 0.9618,
      "id": "COOP:479304",
      "elevationUnit": "METERS",
      "longitude": -90.9947
    },
    {
      "elevation": 253.9,
      "mindate": "1931-01-01",
      "maxdate": "2015-11-01",
      "latitude": 43.60725,
      "name": "WISCONSIN DELLS WWTP, WI US",
      "datacoverage": 0.9853,
      "id": "COOP:479319",
      "elevationUnit": "METERS",
      "longitude": -89.76344
    },
    {
      "elevation": 314.9,
      "mindate": "1931-01-01",
      "maxdate": "2012-12-01",
      "latitude": 44.388,
      "name": "WISCONSIN RAPIDS, WI US",
      "datacoverage": 0.9908,
      "id": "COOP:479335",
      "elevationUnit": "METERS",
      "longitude": -89.8055
    },
    {
      "elevation": 310.9,
      "mindate": "1931-03-01",
      "maxdate": "2015-11-01",
      "latitude": 44.3994,
      "name": "WIS RAPIDS GRAND AV B, WI US",
      "datacoverage": 0.9626,
      "id": "COOP:479345",
      "elevationUnit": "METERS",
      "longitude": -89.8305
    },
    {
      "elevation": 1904.4,
      "mindate": "1957-06-01",
      "maxdate": "2015-11-01",
      "latitude": 42.73303,
      "name": "AFTON, WY US",
      "datacoverage": 0.9416,
      "id": "COOP:480027",
      "elevationUnit": "METERS",
      "longitude": -110.92168
    },
    {
      "elevation": 1140.9,
      "mindate": "1951-04-01",
      "maxdate": "1952-02-02",
      "latitude": 44.63333,
      "name": "ALADDIN, WY US",
      "datacoverage": 0.9939,
      "id": "COOP:480050",
      "elevationUnit": "METERS",
      "longitude": -104.18333
    },
    {
      "elevation": 1174.1,
      "mindate": "1952-04-01",
      "maxdate": "1952-07-01",
      "latitude": 44.55,
      "name": "ALADDIN 6 S, WY US",
      "datacoverage": 0.0325,
      "id": "COOP:480056",
      "elevationUnit": "METERS",
      "longitude": -104.2
    },
    {
      "elevation": 1629.2,
      "mindate": "1941-02-01",
      "maxdate": "2009-06-01",
      "latitude": 41.4,
      "name": "ALBIN, WY US",
      "datacoverage": 0.994,
      "id": "COOP:480080",
      "elevationUnit": "METERS",
      "longitude": -104.1016
    },
    {
      "elevation": 1630.7,
      "mindate": "2010-11-01",
      "maxdate": "2012-12-01",
      "latitude": 41.4197,
      "name": "ALBIN NUMBER 2, WY US",
      "datacoverage": 0.9992,
      "id": "COOP:480082",
      "elevationUnit": "METERS",
      "longitude": -104.1011
    },
    {
      "elevation": 2094,
      "mindate": "1962-04-01",
      "maxdate": "1987-01-01",
      "latitude": 42.73333,
      "name": "ALCOVA 17 NW, WY US",
      "datacoverage": 0.8891,
      "id": "COOP:480091",
      "elevationUnit": "METERS",
      "longitude": -107.01667
    },
    {
      "elevation": 1940.1,
      "mindate": "1956-04-01",
      "maxdate": "1960-12-01",
      "latitude": 42.61667,
      "name": "ALCOVA 26 WNW, WY US",
      "datacoverage": 0.9994,
      "id": "COOP:480092",
      "elevationUnit": "METERS",
      "longitude": -107.2
    },
    {
      "elevation": 2012.9,
      "mindate": "1961-01-01",
      "maxdate": "1961-12-01",
      "latitude": 42.68333,
      "name": "ALCOVA 29 WNW, WY US",
      "datacoverage": 1,
      "id": "COOP:480094",
      "elevationUnit": "METERS",
      "longitude": -107.25
    },
    {
      "elevation": 1713.9,
      "mindate": "1960-11-01",
      "maxdate": "1966-10-01",
      "latitude": 43.18333,
      "name": "ALPINE 1 SE, ID US",
      "datacoverage": 0.9586,
      "id": "COOP:480124",
      "elevationUnit": "METERS",
      "longitude": -111.05
    },
    {
      "elevation": 1962.9,
      "mindate": "1931-01-01",
      "maxdate": "2015-11-01",
      "latitude": 43.7727,
      "name": "ALTA 1 NNW, WY US",
      "datacoverage": 0.9951,
      "id": "COOP:480140",
      "elevationUnit": "METERS",
      "longitude": -111.03386
    },
    {
      "elevation": 1338.1,
      "mindate": "1946-08-01",
      "maxdate": "2001-11-01",
      "latitude": 44.65222,
      "name": "ALVA 5 ESE, WY US",
      "datacoverage": 0.7394,
      "id": "COOP:480200",
      "elevationUnit": "METERS",
      "longitude": -104.34917
    },
    {
      "elevation": 1219.2,
      "mindate": "1987-02-01",
      "maxdate": "1996-10-01",
      "latitude": 44.7,
      "name": "ALVA, WY US",
      "datacoverage": 1,
      "id": "COOP:480206",
      "elevationUnit": "METERS",
      "longitude": -104.43333
    },
    {
      "elevation": 1969.9,
      "mindate": "1961-04-01",
      "maxdate": "1979-12-01",
      "latitude": 43.66667,
      "name": "ANCHOR DAM, WY US",
      "datacoverage": 0.9955,
      "id": "COOP:480228",
      "elevationUnit": "METERS",
      "longitude": -108.83333
    },
    {
      "elevation": 1464,
      "mindate": "1960-03-01",
      "maxdate": "1961-08-01",
      "latitude": 43.45,
      "name": "ANTELOPE CREEK RANCH, WY US",
      "datacoverage": 0.6099,
      "id": "COOP:480233",
      "elevationUnit": "METERS",
      "longitude": -105.5
    },
    {
      "elevation": 1577.6,
      "mindate": "1950-08-01",
      "maxdate": "1982-08-01",
      "latitude": 43.43333,
      "name": "ANTELOPE SPRINGS, WY US",
      "datacoverage": 0.9531,
      "id": "COOP:480237",
      "elevationUnit": "METERS",
      "longitude": -106.58333
    },
    {
      "mindate": "1948-08-01",
      "maxdate": "1950-04-08",
      "latitude": 43.71667,
      "name": "ARAPAHOE RANCH, WY US",
      "datacoverage": 0.5,
      "id": "COOP:480250",
      "longitude": -108.53333
    },
    {
      "elevation": 1831.8,
      "mindate": "1931-01-01",
      "maxdate": "2005-09-01",
      "latitude": 41.15167,
      "name": "ARCHER, WY US",
      "datacoverage": 0.9989,
      "id": "COOP:480270",
      "elevationUnit": "METERS",
      "longitude": -104.6575
    },
    {
      "elevation": 1836.1,
      "mindate": "1949-11-01",
      "maxdate": "1966-06-01",
      "latitude": 43.18333,
      "name": "ARMINTO, WY US",
      "datacoverage": 0.9852,
      "id": "COOP:480324",
      "elevationUnit": "METERS",
      "longitude": -107.26667
    },
    {
      "elevation": 1135.1,
      "mindate": "1977-11-01",
      "maxdate": "1978-06-01",
      "latitude": 44.63333,
      "name": "ARVADA 2 SE, WY US",
      "datacoverage": 0.876,
      "id": "COOP:480377",
      "elevationUnit": "METERS",
      "longitude": -106.11667
    },
    {
      "elevation": 1122,
      "mindate": "1936-04-01",
      "maxdate": "1977-02-01",
      "latitude": 44.7,
      "name": "ARVADA 3 N, WY US",
      "datacoverage": 0.9288,
      "id": "COOP:480380",
      "elevationUnit": "METERS",
      "longitude": -106.1
    },
    {
      "elevation": 2338.7,
      "mindate": "2012-01-01",
      "maxdate": "2015-11-01",
      "latitude": 42.49597,
      "name": "ATLANTIC CITY, WY US",
      "datacoverage": 1,
      "id": "COOP:480432",
      "elevationUnit": "METERS",
      "longitude": -108.73153
    },
    {
      "elevation": 1894,
      "mindate": "1949-07-01",
      "maxdate": "1960-10-01",
      "latitude": 42.61667,
      "name": "ATLANTIC CITY 10 NE, WY US",
      "datacoverage": 0.1764,
      "id": "COOP:480434",
      "elevationUnit": "METERS",
      "longitude": -108.61667
    },
    {
      "elevation": 1723,
      "mindate": "1951-02-01",
      "maxdate": "1960-12-01",
      "latitude": 42.65,
      "name": "ATLANTIC CITY 11 NNE, WY US",
      "datacoverage": 0.7899,
      "id": "COOP:480438",
      "elevationUnit": "METERS",
      "longitude": -108.65
    },
    {
      "elevation": 2499.4,
      "mindate": "1963-05-01",
      "maxdate": "1984-12-01",
      "latitude": 42.53333,
      "name": "ATLANTIC CITY ORE MINE, WY US",
      "datacoverage": 0.9113,
      "id": "COOP:480443",
      "elevationUnit": "METERS",
      "longitude": -108.76667
    },
    {
      "elevation": 1909,
      "mindate": "1948-08-01",
      "maxdate": "1960-04-01",
      "latitude": 43.35,
      "name": "BADWATER 2 N, WY US",
      "datacoverage": 0.9479,
      "id": "COOP:480470",
      "elevationUnit": "METERS",
      "longitude": -107.41667
    },
    {
      "elevation": 1903.5,
      "mindate": "1979-05-01",
      "maxdate": "2015-11-01",
      "latitude": 41.03842,
      "name": "BAGGS, WY US",
      "datacoverage": 0.9863,
      "id": "COOP:480484",
      "elevationUnit": "METERS",
      "longitude": -107.65786
    },
    {
      "elevation": 2101,
      "mindate": "1948-01-01",
      "maxdate": "1952-05-01",
      "latitude": 42.25,
      "name": "BAIROIL, WY US",
      "datacoverage": 0.9058,
      "id": "COOP:480498",
      "elevationUnit": "METERS",
      "longitude": -107.55
    },
    {
      "elevation": 1570.9,
      "mindate": "1931-01-01",
      "maxdate": "1958-06-24",
      "latitude": 43.7,
      "name": "BARNUM 1 N, WY US",
      "datacoverage": 0.4621,
      "id": "COOP:480528",
      "elevationUnit": "METERS",
      "longitude": -106.91667
    },
    {
      "elevation": 1170.4,
      "mindate": "1931-01-01",
      "maxdate": "2015-11-01",
      "latitude": 44.37985,
      "name": "BASIN, WY US",
      "datacoverage": 0.9902,
      "id": "COOP:480540",
      "elevationUnit": "METERS",
      "longitude": -108.03495
    },
    {
      "elevation": 1955,
      "mindate": "1952-08-01",
      "maxdate": "1968-12-01",
      "latitude": 42.55,
      "name": "BATES CREEK, WY US",
      "datacoverage": 0.6801,
      "id": "COOP:480550",
      "elevationUnit": "METERS",
      "longitude": -106.33333
    },
    {
      "elevation": 1841.6,
      "mindate": "1969-05-01",
      "maxdate": "2015-11-01",
      "latitude": 42.62336,
      "name": "BATES CREEK NUMBER 2, WY US",
      "datacoverage": 0.9964,
      "id": "COOP:480552",
      "elevationUnit": "METERS",
      "longitude": -106.35659
    },
    {
      "elevation": 1964.4,
      "mindate": "1931-01-01",
      "maxdate": "2015-11-01",
      "latitude": 44.14944,
      "name": "BECHLER RIVER RANGER STATION, WY US",
      "datacoverage": 0.2816,
      "id": "COOP:480585",
      "elevationUnit": "METERS",
      "longitude": -111.0475
    },
    {
      "elevation": 1937,
      "mindate": "1975-06-01",
      "maxdate": "2015-11-01",
      "latitude": 42.87311,
      "name": "BEDFORD 3 SE, WY US",
      "datacoverage": 0.9815,
      "id": "COOP:480603",
      "elevationUnit": "METERS",
      "longitude": -110.90691
    },
    {
      "elevation": 1930.9,
      "mindate": "1931-01-01",
      "maxdate": "1967-08-01",
      "latitude": 42.86667,
      "name": "BEDFORD 2 SE, WY US",
      "datacoverage": 0.9887,
      "id": "COOP:480605",
      "elevationUnit": "METERS",
      "longitude": -110.9
    },
    {
      "elevation": 1830,
      "mindate": "1965-10-01",
      "maxdate": "1970-03-01",
      "latitude": 44.35,
      "name": "BELKNAP RANCH, WY US",
      "datacoverage": 1,
      "id": "COOP:480614",
      "elevationUnit": "METERS",
      "longitude": -109.35
    },
    {
      "elevation": 1271.9,
      "mindate": "1952-08-01",
      "maxdate": "1958-06-22",
      "latitude": 44.51667,
      "name": "BEULAH 8 WSW, WY US",
      "datacoverage": 0.998,
      "id": "COOP:480640",
      "elevationUnit": "METERS",
      "longitude": -104.26667
    },
    {
      "elevation": 1282.6,
      "mindate": "1949-11-01",
      "maxdate": "2015-11-01",
      "latitude": 44.6828,
      "name": "BIG HORN, WY US",
      "datacoverage": 0.2812,
      "id": "COOP:480680",
      "elevationUnit": "METERS",
      "longitude": -107.0089
    },
    {
      "elevation": 2083.3,
      "mindate": "1938-01-01",
      "maxdate": "2015-11-01",
      "latitude": 42.5414,
      "name": "BIG PINEY, WY US",
      "datacoverage": 0.7551,
      "id": "COOP:480695",
      "elevationUnit": "METERS",
      "longitude": -110.1252
    },
    {
      "elevation": 2079.3,
      "mindate": "1992-11-01",
      "maxdate": "2014-01-01",
      "latitude": 42.5364,
      "name": "BIG PINEY UP AND L, WY US",
      "datacoverage": 0.0094,
      "id": "COOP:480697",
      "elevationUnit": "METERS",
      "longitude": -110.11271
    },
    {
      "elevation": 2196.1,
      "mindate": "1965-07-01",
      "maxdate": "1968-03-01",
      "latitude": 42.66667,
      "name": "BIG SANDY, WY US",
      "datacoverage": 0.848,
      "id": "COOP:480698",
      "elevationUnit": "METERS",
      "longitude": -109.5
    },
    {
      "elevation": 1455.1,
      "mindate": "1964-06-01",
      "maxdate": "1965-08-01",
      "latitude": 43.78333,
      "name": "BIG TRAILS, WY US",
      "datacoverage": 0.999,
      "id": "COOP:480708",
      "elevationUnit": "METERS",
      "longitude": -107.31667
    },
    {
      "elevation": 1437.1,
      "mindate": "1948-09-01",
      "maxdate": "1978-10-01",
      "latitude": 43.25,
      "name": "BILL, WY US",
      "datacoverage": 0.8895,
      "id": "COOP:480725",
      "elevationUnit": "METERS",
      "longitude": -105.26667
    },
    {
      "elevation": 1382,
      "mindate": "1948-09-01",
      "maxdate": "1958-06-01",
      "latitude": 43.36667,
      "name": "BILL 10 NE, WY US",
      "datacoverage": 0.9581,
      "id": "COOP:480727",
      "elevationUnit": "METERS",
      "longitude": -105.2
    },
    {
      "elevation": 1470.1,
      "mindate": "1948-09-01",
      "maxdate": "1957-08-01",
      "latitude": 43.25,
      "name": "BILL 12 W, WY US",
      "datacoverage": 0.9538,
      "id": "COOP:480729",
      "elevationUnit": "METERS",
      "longitude": -105.48333
    },
    {
      "mindate": "1948-09-01",
      "maxdate": "1948-10-01",
      "latitude": 43.03333,
      "name": "BILL 14 S, WY US",
      "datacoverage": 0.998,
      "id": "COOP:480731",
      "longitude": -105.21667
    },
    {
      "elevation": 1382,
      "mindate": "1948-10-01",
      "maxdate": "1958-06-01",
      "latitude": 43.11667,
      "name": "BILL 14 SE, WY US",
      "datacoverage": 0.9918,
      "id": "COOP:480733",
      "elevationUnit": "METERS",
      "longitude": -105.01667
    },
    {
      "elevation": 1649.9,
      "mindate": "1948-09-01",
      "maxdate": "1972-10-31",
      "latitude": 43.11667,
      "name": "BILL 15 SW, WY US",
      "datacoverage": 0.9422,
      "id": "COOP:480735",
      "elevationUnit": "METERS",
      "longitude": -105.5
    }
  ]
}
