{
  "metadata": {
    "resultset": {
      "offset": 50700,
      "count": 154115,
      "limit": 100
    }
  },
  "results": [
    {
      "elevation": 183,
      "mindate": "1974-10-01",
      "maxdate": "2003-12-31",
      "latitude": 44.85,
      "name": "HONEY HBR BEAUSOLEIL, CA",
      "datacoverage": 0.8661,
      "id": "GHCND:CA006113490",
      "elevationUnit": "METERS",
      "longitude": -79.8667
    },
    {
      "elevation": 480,
      "mindate": "1947-11-01",
      "maxdate": "1964-10-31",
      "latitude": 44.0833,
      "name": "HOPEVILLE, CA",
      "datacoverage": 0.9999,
      "id": "GHCND:CA006113510",
      "elevationUnit": "METERS",
      "longitude": -80.5667
    },
    {
      "elevation": 335,
      "mindate": "1966-01-01",
      "maxdate": "1968-03-31",
      "latitude": 44.55,
      "name": "HORSESHOE VALLEY, CA",
      "datacoverage": 0.482,
      "id": "GHCND:CA006113580",
      "elevationUnit": "METERS",
      "longitude": -79.6667
    },
    {
      "elevation": 290,
      "mindate": "1879-03-01",
      "maxdate": "1961-03-30",
      "latitude": 45.3167,
      "name": "HUNTSVILLE, CA",
      "datacoverage": 0.6853,
      "id": "GHCND:CA006113660",
      "elevationUnit": "METERS",
      "longitude": -79.25
    },
    {
      "elevation": 321,
      "mindate": "1960-12-01",
      "maxdate": "2003-09-30",
      "latitude": 45.35,
      "name": "HUNTSVILLE WPCP, CA",
      "datacoverage": 0.9942,
      "id": "GHCND:CA006113663",
      "elevationUnit": "METERS",
      "longitude": -79.1667
    },
    {
      "elevation": 290,
      "mindate": "1976-01-01",
      "maxdate": "1977-01-31",
      "latitude": 45.35,
      "name": "HUNTSVILLE TAWINGO, CA",
      "datacoverage": 0.69,
      "id": "GHCND:CA006113665",
      "elevationUnit": "METERS",
      "longitude": -79.3167
    },
    {
      "elevation": 300,
      "mindate": "1949-04-01",
      "maxdate": "1949-10-31",
      "latitude": 45.5833,
      "name": "KATRINE, CA",
      "datacoverage": 1,
      "id": "GHCND:CA006114005",
      "elevationUnit": "METERS",
      "longitude": -79.35
    },
    {
      "elevation": 305,
      "mindate": "1977-12-01",
      "maxdate": "1995-10-31",
      "latitude": 45.5333,
      "name": "KATRINE DOE LAKE, CA",
      "datacoverage": 1,
      "id": "GHCND:CA006114006",
      "elevationUnit": "METERS",
      "longitude": -79.4
    },
    {
      "elevation": 229,
      "mindate": "1970-03-01",
      "maxdate": "1977-06-30",
      "latitude": 44.2167,
      "name": "KESWICK, CA",
      "datacoverage": 0.9998,
      "id": "GHCND:CA006114089",
      "elevationUnit": "METERS",
      "longitude": -79.4333
    },
    {
      "elevation": 183,
      "mindate": "1947-09-01",
      "maxdate": "1967-09-30",
      "latitude": 44.75,
      "name": "LAFONTAINE, CA",
      "datacoverage": 0.4648,
      "id": "GHCND:CA006114290",
      "elevationUnit": "METERS",
      "longitude": -80.0833
    },
    {
      "elevation": 221,
      "mindate": "1995-01-01",
      "maxdate": "2024-04-28",
      "latitude": 44.55,
      "name": "LAGOON CITY, CA",
      "datacoverage": 0.9452,
      "id": "GHCND:CA006114295",
      "elevationUnit": "METERS",
      "longitude": -79.2167
    },
    {
      "elevation": 248,
      "mindate": "1883-05-01",
      "maxdate": "1906-07-31",
      "latitude": 44.95,
      "name": "LIONS HEAD, CA",
      "datacoverage": 0.4624,
      "id": "GHCND:CA006114437",
      "elevationUnit": "METERS",
      "longitude": -81.2167
    },
    {
      "elevation": 280,
      "mindate": "1924-01-01",
      "maxdate": "1958-05-31",
      "latitude": 45.6667,
      "name": "MAGNETAWAN, CA",
      "datacoverage": 0.9904,
      "id": "GHCND:CA006114805",
      "elevationUnit": "METERS",
      "longitude": -79.7833
    },
    {
      "elevation": 427,
      "mindate": "1965-06-01",
      "maxdate": "1968-11-30",
      "latitude": 44.4,
      "name": "MARKDALE, CA",
      "datacoverage": 0.6663,
      "id": "GHCND:CA006114978",
      "elevationUnit": "METERS",
      "longitude": -80.6833
    },
    {
      "elevation": 411,
      "mindate": "2004-09-01",
      "maxdate": "2024-04-28",
      "latitude": 44.2667,
      "name": "MARKDALE, CA",
      "datacoverage": 1,
      "id": "GHCND:CA006114979",
      "elevationUnit": "METERS",
      "longitude": -80.7167
    },
    {
      "elevation": 216,
      "mindate": "1899-03-01",
      "maxdate": "1966-10-31",
      "latitude": 44.5833,
      "name": "MEAFORD, CA",
      "datacoverage": 0.3547,
      "id": "GHCND:CA006115057",
      "elevationUnit": "METERS",
      "longitude": -80.5833
    },
    {
      "elevation": 213,
      "mindate": "1965-12-01",
      "maxdate": "1982-08-31",
      "latitude": 44.6167,
      "name": "MEAFORD WILLOWMERE, CA",
      "datacoverage": 0.9993,
      "id": "GHCND:CA006115059",
      "elevationUnit": "METERS",
      "longitude": -80.6333
    },
    {
      "elevation": 226,
      "mindate": "1947-09-01",
      "maxdate": "1996-06-30",
      "latitude": 44.45,
      "name": "MIDHURST, CA",
      "datacoverage": 0.9096,
      "id": "GHCND:CA006115099",
      "elevationUnit": "METERS",
      "longitude": -79.7667
    },
    {
      "elevation": 180,
      "mindate": "1889-01-01",
      "maxdate": "2017-07-05",
      "latitude": 44.75,
      "name": "MIDLAND WATER POLLUTION CONTRO, CA",
      "datacoverage": 0.687,
      "id": "GHCND:CA006115127",
      "elevationUnit": "METERS",
      "longitude": -79.8833
    },
    {
      "elevation": 235,
      "mindate": "1987-07-01",
      "maxdate": "2002-12-31",
      "latitude": 44.6833,
      "name": "MIDLAND HURONIA A, CA",
      "datacoverage": 0.9728,
      "id": "GHCND:CA006115130",
      "elevationUnit": "METERS",
      "longitude": -79.9333
    },
    {
      "elevation": 252,
      "mindate": "1965-12-01",
      "maxdate": "1984-07-31",
      "latitude": 45.1,
      "name": "MILFORD BAY, CA",
      "datacoverage": 0.9107,
      "id": "GHCND:CA006115150",
      "elevationUnit": "METERS",
      "longitude": -79.4833
    },
    {
      "elevation": 201,
      "mindate": "1992-11-01",
      "maxdate": "2001-03-31",
      "latitude": 44.6333,
      "name": "MOONSTONE, CA",
      "datacoverage": 1,
      "id": "GHCND:CA006115389",
      "elevationUnit": "METERS",
      "longitude": -79.6667
    },
    {
      "elevation": 282,
      "mindate": "2004-11-01",
      "maxdate": "2013-03-26",
      "latitude": 44.9667,
      "name": "MUSKOKA AWOS, CA",
      "datacoverage": 1,
      "id": "GHCND:CA006115524",
      "elevationUnit": "METERS",
      "longitude": -79.3
    },
    {
      "elevation": 282,
      "mindate": "1934-07-01",
      "maxdate": "2015-12-11",
      "latitude": 44.9667,
      "name": "MUSKOKA A, CA",
      "datacoverage": 0.9279,
      "id": "GHCND:CA006115525",
      "elevationUnit": "METERS",
      "longitude": -79.3
    },
    {
      "elevation": 215,
      "mindate": "1964-05-01",
      "maxdate": "1966-08-31",
      "latitude": 46.1333,
      "name": "NIPISSING, CA",
      "datacoverage": 0.5393,
      "id": "GHCND:CA006115668",
      "elevationUnit": "METERS",
      "longitude": -79.5333
    },
    {
      "elevation": 213,
      "mindate": "2006-11-01",
      "maxdate": "2018-12-31",
      "latitude": 46.1,
      "name": "NIPISSING, CA",
      "datacoverage": 1,
      "id": "GHCND:CA006115669",
      "elevationUnit": "METERS",
      "longitude": -79.5167
    },
    {
      "elevation": 180,
      "mindate": "1891-06-01",
      "maxdate": "1903-11-30",
      "latitude": 44.5333,
      "name": "NOTTAWASAGA ISLAND, CA",
      "datacoverage": 0.609,
      "id": "GHCND:CA006115718",
      "elevationUnit": "METERS",
      "longitude": -80.25
    },
    {
      "elevation": 224,
      "mindate": "1871-05-01",
      "maxdate": "1961-12-31",
      "latitude": 44.6167,
      "name": "ORILLIA, CA",
      "datacoverage": 0.8639,
      "id": "GHCND:CA006115810",
      "elevationUnit": "METERS",
      "longitude": -79.4
    },
    {
      "elevation": 250,
      "mindate": "1992-08-01",
      "maxdate": "2024-04-28",
      "latitude": 44.6,
      "name": "ORILLIA BRAIN, CA",
      "datacoverage": 0.8277,
      "id": "GHCND:CA006115811",
      "elevationUnit": "METERS",
      "longitude": -79.4333
    },
    {
      "elevation": 224,
      "mindate": "1957-02-01",
      "maxdate": "1965-02-28",
      "latitude": 44.5833,
      "name": "ORILLIA STP, CA",
      "datacoverage": 0.9995,
      "id": "GHCND:CA006115818",
      "elevationUnit": "METERS",
      "longitude": -79.4
    },
    {
      "elevation": 220,
      "mindate": "1965-02-01",
      "maxdate": "1993-08-31",
      "latitude": 44.6167,
      "name": "ORILLIA TS, CA",
      "datacoverage": 0.9884,
      "id": "GHCND:CA006115820",
      "elevationUnit": "METERS",
      "longitude": -79.4167
    },
    {
      "elevation": 305,
      "mindate": "1964-12-01",
      "maxdate": "1965-04-30",
      "latitude": 44.5167,
      "name": "ORO, CA",
      "datacoverage": 1,
      "id": "GHCND:CA006115850",
      "elevationUnit": "METERS",
      "longitude": -79.5833
    },
    {
      "elevation": 221,
      "mindate": "1974-12-01",
      "maxdate": "1977-02-28",
      "latitude": 44.5167,
      "name": "ORO WAM, CA",
      "datacoverage": 1,
      "id": "GHCND:CA006115856",
      "elevationUnit": "METERS",
      "longitude": -79.45
    },
    {
      "elevation": 182,
      "mindate": "1878-07-01",
      "maxdate": "1962-02-28",
      "latitude": 44.5667,
      "name": "OWEN SOUND, CA",
      "datacoverage": 0.9353,
      "id": "GHCND:CA006116128",
      "elevationUnit": "METERS",
      "longitude": -80.9167
    },
    {
      "elevation": 179,
      "mindate": "1964-12-01",
      "maxdate": "2007-12-02",
      "latitude": 44.5833,
      "name": "OWEN SOUND MOE, CA",
      "datacoverage": 0.9962,
      "id": "GHCND:CA006116132",
      "elevationUnit": "METERS",
      "longitude": -80.9333
    },
    {
      "elevation": 194,
      "mindate": "1874-10-01",
      "maxdate": "1976-09-30",
      "latitude": 45.3333,
      "name": "PARRY SOUND, CA",
      "datacoverage": 0.9992,
      "id": "GHCND:CA006116254",
      "elevationUnit": "METERS",
      "longitude": -80
    },
    {
      "elevation": 198,
      "mindate": "1979-10-01",
      "maxdate": "1991-11-30",
      "latitude": 45.35,
      "name": "PARRY SOUND, CA",
      "datacoverage": 0.9931,
      "id": "GHCND:CA006116255",
      "elevationUnit": "METERS",
      "longitude": -80.05
    },
    {
      "elevation": 210,
      "mindate": "1994-11-01",
      "maxdate": "1996-05-31",
      "latitude": 45.35,
      "name": "PARRY SOUND 2, CA",
      "datacoverage": 0.7372,
      "id": "GHCND:CA006116256",
      "elevationUnit": "METERS",
      "longitude": -80.0333
    },
    {
      "elevation": 176,
      "mindate": "2002-10-01",
      "maxdate": "2024-04-28",
      "latitude": 45.35,
      "name": "PARRY SOUND CCG, CA",
      "datacoverage": 1,
      "id": "GHCND:CA006116257",
      "elevationUnit": "METERS",
      "longitude": -80.05
    },
    {
      "elevation": 180,
      "mindate": "1975-06-01",
      "maxdate": "1996-07-31",
      "latitude": 45.2667,
      "name": "PARRY SOUND MARTYR IS, CA",
      "datacoverage": 0.4942,
      "id": "GHCND:CA006116258",
      "elevationUnit": "METERS",
      "longitude": -80.25
    },
    {
      "elevation": 214,
      "mindate": "2001-02-01",
      "maxdate": "2013-03-19",
      "latitude": 45.3333,
      "name": "PARRY SOUND HARBOUR, CA",
      "datacoverage": 1,
      "id": "GHCND:CA006116262",
      "elevationUnit": "METERS",
      "longitude": -80.0333
    },
    {
      "elevation": 229,
      "mindate": "1948-05-01",
      "maxdate": "1959-09-30",
      "latitude": 44.3167,
      "name": "PEFFERLAW, CA",
      "datacoverage": 1,
      "id": "GHCND:CA006116308",
      "elevationUnit": "METERS",
      "longitude": -79.2167
    },
    {
      "elevation": 220,
      "mindate": "1971-04-01",
      "maxdate": "1972-06-30",
      "latitude": 44.3333,
      "name": "PEFFERLAW, CA",
      "datacoverage": 0.7326,
      "id": "GHCND:CA006116309",
      "elevationUnit": "METERS",
      "longitude": -79.2167
    },
    {
      "elevation": 495,
      "mindate": "1995-11-01",
      "maxdate": "2014-02-28",
      "latitude": 44.25,
      "name": "PORT LAW, CA",
      "datacoverage": 0.782,
      "id": "GHCND:CA006116679",
      "elevationUnit": "METERS",
      "longitude": -80.4667
    },
    {
      "elevation": 274,
      "mindate": "1974-07-01",
      "maxdate": "2010-12-05",
      "latitude": 46.1167,
      "name": "POWASSAN, CA",
      "datacoverage": 0.9999,
      "id": "GHCND:CA006116702",
      "elevationUnit": "METERS",
      "longitude": -79.25
    },
    {
      "elevation": 274,
      "mindate": "1970-04-01",
      "maxdate": "1974-04-30",
      "latitude": 46.0833,
      "name": "POWASSAN VALLEYVIEW, CA",
      "datacoverage": 1,
      "id": "GHCND:CA006116703",
      "elevationUnit": "METERS",
      "longitude": -79.35
    },
    {
      "elevation": 274,
      "mindate": "1875-07-01",
      "maxdate": "1898-08-31",
      "latitude": 44.7,
      "name": "PRESQU ILE, CA",
      "datacoverage": 0.9962,
      "id": "GHCND:CA006116705",
      "elevationUnit": "METERS",
      "longitude": -80.9167
    },
    {
      "elevation": 472,
      "mindate": "1980-07-01",
      "maxdate": "2014-02-28",
      "latitude": 44.2,
      "name": "PRICEVILLE, CA",
      "datacoverage": 0.8788,
      "id": "GHCND:CA006116718",
      "elevationUnit": "METERS",
      "longitude": -80.6333
    },
    {
      "elevation": 480,
      "mindate": "1969-05-01",
      "maxdate": "2002-05-31",
      "latitude": 44.1667,
      "name": "PROTON STATION, CA",
      "datacoverage": 1,
      "id": "GHCND:CA006116750",
      "elevationUnit": "METERS",
      "longitude": -80.5167
    },
    {
      "elevation": 229,
      "mindate": "1950-05-01",
      "maxdate": "1971-08-31",
      "latitude": 45.0167,
      "name": "RAGGED RAPIDS, CA",
      "datacoverage": 0.9921,
      "id": "GHCND:CA006116843",
      "elevationUnit": "METERS",
      "longitude": -79.6833
    },
    {
      "elevation": 229,
      "mindate": "1948-06-01",
      "maxdate": "1953-01-31",
      "latitude": 44.5333,
      "name": "RAVENNA, CA",
      "datacoverage": 0.9634,
      "id": "GHCND:CA006116899",
      "elevationUnit": "METERS",
      "longitude": -80.4167
    },
    {
      "elevation": 396,
      "mindate": "1965-12-01",
      "maxdate": "1975-08-31",
      "latitude": 44.4667,
      "name": "RAVENNA, CA",
      "datacoverage": 0.906,
      "id": "GHCND:CA006116900",
      "elevationUnit": "METERS",
      "longitude": -80.4167
    },
    {
      "elevation": 305,
      "mindate": "2006-08-01",
      "maxdate": "2016-08-28",
      "latitude": 45.35,
      "name": "RAVENSCLIFFE, CA",
      "datacoverage": 0.9998,
      "id": "GHCND:CA006116901",
      "elevationUnit": "METERS",
      "longitude": -79.2667
    },
    {
      "elevation": 251,
      "mindate": "1970-04-01",
      "maxdate": "1992-07-31",
      "latitude": 44.2167,
      "name": "RAVENSHOE, CA",
      "datacoverage": 0.9999,
      "id": "GHCND:CA006116902",
      "elevationUnit": "METERS",
      "longitude": -79.4
    },
    {
      "elevation": 244,
      "mindate": "1971-11-01",
      "maxdate": "1976-05-31",
      "latitude": 45.2333,
      "name": "ROBERTS LAKE, CA",
      "datacoverage": 1,
      "id": "GHCND:CA006117167",
      "elevationUnit": "METERS",
      "longitude": -79.8167
    },
    {
      "elevation": 433,
      "mindate": "1989-10-01",
      "maxdate": "2004-09-30",
      "latitude": 44.4667,
      "name": "ROCKLYN, CA",
      "datacoverage": 1,
      "id": "GHCND:CA006117169",
      "elevationUnit": "METERS",
      "longitude": -80.6333
    },
    {
      "elevation": 316,
      "mindate": "1908-01-01",
      "maxdate": "1926-09-30",
      "latitude": 45.25,
      "name": "RONVILLE, CA",
      "datacoverage": 1,
      "id": "GHCND:CA006117186",
      "elevationUnit": "METERS",
      "longitude": -78.95
    },
    {
      "elevation": 244,
      "mindate": "1968-12-01",
      "maxdate": "1969-12-31",
      "latitude": 45.25,
      "name": "ROSSEAU LAKE, CA",
      "datacoverage": 0.4612,
      "id": "GHCND:CA006117189",
      "elevationUnit": "METERS",
      "longitude": -79.6333
    },
    {
      "elevation": 390,
      "mindate": "1924-07-01",
      "maxdate": "1978-06-30",
      "latitude": 45.5167,
      "name": "SCOTIA, CA",
      "datacoverage": 0.946,
      "id": "GHCND:CA006117663",
      "elevationUnit": "METERS",
      "longitude": -79.3
    },
    {
      "elevation": 223,
      "mindate": "1975-07-01",
      "maxdate": "1995-10-31",
      "latitude": 44.7667,
      "name": "SEVERN BRIDGE, CA",
      "datacoverage": 0.5163,
      "id": "GHCND:CA006117682",
      "elevationUnit": "METERS",
      "longitude": -79.3333
    },
    {
      "elevation": 250,
      "mindate": "1973-01-01",
      "maxdate": "2024-04-28",
      "latitude": 44.4,
      "name": "SHANTY BAY, CA",
      "datacoverage": 1,
      "id": "GHCND:CA006117684",
      "elevationUnit": "METERS",
      "longitude": -79.6333
    },
    {
      "elevation": 289,
      "mindate": "2003-11-01",
      "maxdate": "2024-04-28",
      "latitude": 44.4833,
      "name": "BARRIE ORO, CA",
      "datacoverage": 1,
      "id": "GHCND:CA006117700",
      "elevationUnit": "METERS",
      "longitude": -79.55
    },
    {
      "elevation": 497,
      "mindate": "1985-11-01",
      "maxdate": "1988-10-31",
      "latitude": 44.35,
      "name": "SINGHAMPTON, CA",
      "datacoverage": 0.8054,
      "id": "GHCND:CA006117750",
      "elevationUnit": "METERS",
      "longitude": -80.25
    },
    {
      "elevation": 231,
      "mindate": "1920-06-01",
      "maxdate": "1971-10-31",
      "latitude": 45,
      "name": "SOUTH FALLS, CA",
      "datacoverage": 0.3744,
      "id": "GHCND:CA006117943",
      "elevationUnit": "METERS",
      "longitude": -79.3
    },
    {
      "elevation": 396,
      "mindate": "1977-06-01",
      "maxdate": "1995-09-30",
      "latitude": 45.8333,
      "name": "SOUTH RIVER, CA",
      "datacoverage": 0.9955,
      "id": "GHCND:CA006117957",
      "elevationUnit": "METERS",
      "longitude": -79.3833
    },
    {
      "elevation": 337,
      "mindate": "2003-08-01",
      "maxdate": "2021-02-20",
      "latitude": 45.4333,
      "name": "SPRUCEDALE, CA",
      "datacoverage": 0.9998,
      "id": "GHCND:CA006117981",
      "elevationUnit": "METERS",
      "longitude": -79.4833
    },
    {
      "elevation": 293,
      "mindate": "1969-05-01",
      "maxdate": "1970-10-31",
      "latitude": 44.3667,
      "name": "STAYNER, CA",
      "datacoverage": 0.9425,
      "id": "GHCND:CA006117998",
      "elevationUnit": "METERS",
      "longitude": -80.0833
    },
    {
      "elevation": 218,
      "mindate": "1948-04-01",
      "maxdate": "1957-12-31",
      "latitude": 44.4667,
      "name": "STAYNER, CA",
      "datacoverage": 0.7178,
      "id": "GHCND:CA006117999",
      "elevationUnit": "METERS",
      "longitude": -80.1
    },
    {
      "elevation": 192,
      "mindate": "1976-10-01",
      "maxdate": "1978-10-31",
      "latitude": 44.4667,
      "name": "STAYNER MARTYN, CA",
      "datacoverage": 0.9999,
      "id": "GHCND:CA006117R99",
      "elevationUnit": "METERS",
      "longitude": -80.0833
    },
    {
      "elevation": 198,
      "mindate": "1955-04-01",
      "maxdate": "1959-08-31",
      "latitude": 44.4333,
      "name": "STAYNER 2, CA",
      "datacoverage": 0.8486,
      "id": "GHCND:CA006118000",
      "elevationUnit": "METERS",
      "longitude": -80.0833
    },
    {
      "elevation": 221,
      "mindate": "1971-05-01",
      "maxdate": "1974-06-18",
      "latitude": 44.3333,
      "name": "STROUD LEONARDS BEACH, CA",
      "datacoverage": 0.9997,
      "id": "GHCND:CA006118142",
      "elevationUnit": "METERS",
      "longitude": -79.5333
    },
    {
      "elevation": 137,
      "mindate": "1871-01-01",
      "maxdate": "1908-03-31",
      "latitude": 44.3167,
      "name": "SUTTON WEST, CA",
      "datacoverage": 0.8122,
      "id": "GHCND:CA006118187",
      "elevationUnit": "METERS",
      "longitude": -79.3
    },
    {
      "elevation": 212,
      "mindate": "2006-05-01",
      "maxdate": "2023-09-30",
      "latitude": 44.55,
      "name": "THORNBURY 3, CA",
      "datacoverage": 0.9999,
      "id": "GHCND:CA006118240",
      "elevationUnit": "METERS",
      "longitude": -80.4667
    },
    {
      "elevation": 191,
      "mindate": "1962-06-01",
      "maxdate": "1969-06-30",
      "latitude": 44.55,
      "name": "THORNBURY MATTS MOTEL, CA",
      "datacoverage": 0.9986,
      "id": "GHCND:CA006118252",
      "elevationUnit": "METERS",
      "longitude": -80.45
    },
    {
      "elevation": 300,
      "mindate": "1973-05-01",
      "maxdate": "1974-05-31",
      "latitude": 44.2833,
      "name": "THORNTON, CA",
      "datacoverage": 0.9992,
      "id": "GHCND:CA006118258",
      "elevationUnit": "METERS",
      "longitude": -79.6833
    },
    {
      "elevation": 251,
      "mindate": "1971-09-01",
      "maxdate": "1979-11-30",
      "latitude": 44.0333,
      "name": "TOTTENHAM, CA",
      "datacoverage": 0.4993,
      "id": "GHCND:CA006118848",
      "elevationUnit": "METERS",
      "longitude": -79.8167
    },
    {
      "elevation": 259,
      "mindate": "1973-09-01",
      "maxdate": "1978-05-16",
      "latitude": 44.0167,
      "name": "TOTTENHAM PEARSON, CA",
      "datacoverage": 0.9991,
      "id": "GHCND:CA006118849",
      "elevationUnit": "METERS",
      "longitude": -79.8
    },
    {
      "elevation": 277,
      "mindate": "1950-05-01",
      "maxdate": "1956-10-31",
      "latitude": 44.9833,
      "name": "TRETHEWEY FALLS, CA",
      "datacoverage": 1,
      "id": "GHCND:CA006118920",
      "elevationUnit": "METERS",
      "longitude": -79.2833
    },
    {
      "elevation": 333,
      "mindate": "1981-07-01",
      "maxdate": "2006-08-31",
      "latitude": 46.0333,
      "name": "TROUT CREEK, CA",
      "datacoverage": 0.9999,
      "id": "GHCND:CA006118938",
      "elevationUnit": "METERS",
      "longitude": -79.3833
    },
    {
      "elevation": 262,
      "mindate": "1989-09-01",
      "maxdate": "2024-04-27",
      "latitude": 44.2667,
      "name": "UDORA, CA",
      "datacoverage": 0.9969,
      "id": "GHCND:CA006119055",
      "elevationUnit": "METERS",
      "longitude": -79.1667
    },
    {
      "elevation": 262,
      "mindate": "1886-07-01",
      "maxdate": "1913-02-28",
      "latitude": 45.8,
      "name": "UPLANDS, CA",
      "datacoverage": 1,
      "id": "GHCND:CA006119064",
      "elevationUnit": "METERS",
      "longitude": -79.4167
    },
    {
      "elevation": 297,
      "mindate": "1971-05-01",
      "maxdate": "1983-06-30",
      "latitude": 45.2,
      "name": "UTTERSON ONT HYDRO, CA",
      "datacoverage": 0.9794,
      "id": "GHCND:CA006119115",
      "elevationUnit": "METERS",
      "longitude": -79.35
    },
    {
      "elevation": 277,
      "mindate": "1983-05-01",
      "maxdate": "1989-07-31",
      "latitude": 44.2667,
      "name": "VALLENTYNE, CA",
      "datacoverage": 1,
      "id": "GHCND:CA006119129",
      "elevationUnit": "METERS",
      "longitude": -79.1667
    },
    {
      "elevation": 305,
      "mindate": "1976-06-01",
      "maxdate": "1978-09-30",
      "latitude": 45.0333,
      "name": "VANKOUGHNET, CA",
      "datacoverage": 0.8574,
      "id": "GHCND:CA0061191LK",
      "elevationUnit": "METERS",
      "longitude": -79
    },
    {
      "elevation": 305,
      "mindate": "1983-05-01",
      "maxdate": "2006-07-31",
      "latitude": 44.5167,
      "name": "WALTERS FALLS, CA",
      "datacoverage": 0.9605,
      "id": "GHCND:CA006119274",
      "elevationUnit": "METERS",
      "longitude": -80.7333
    },
    {
      "elevation": 180,
      "mindate": "1972-12-01",
      "maxdate": "1974-05-31",
      "latitude": 44.5,
      "name": "WASAGA BEACH, CA",
      "datacoverage": 0.946,
      "id": "GHCND:CA006119293",
      "elevationUnit": "METERS",
      "longitude": -80.05
    },
    {
      "elevation": 183,
      "mindate": "1978-11-01",
      "maxdate": "1981-04-30",
      "latitude": 44.4833,
      "name": "WASAGA BEACH, CA",
      "datacoverage": 0.9679,
      "id": "GHCND:CA006119294",
      "elevationUnit": "METERS",
      "longitude": -80.05
    },
    {
      "elevation": 218,
      "mindate": "1950-05-01",
      "maxdate": "1957-03-31",
      "latitude": 44.7833,
      "name": "WASDELLS, CA",
      "datacoverage": 0.9636,
      "id": "GHCND:CA006119295",
      "elevationUnit": "METERS",
      "longitude": -79.3
    },
    {
      "elevation": 222,
      "mindate": "1927-11-01",
      "maxdate": "1970-11-16",
      "latitude": 44.75,
      "name": "WASHAGO, CA",
      "datacoverage": 0.9749,
      "id": "GHCND:CA006119325",
      "elevationUnit": "METERS",
      "longitude": -79.3333
    },
    {
      "elevation": 181,
      "mindate": "1936-05-01",
      "maxdate": "1956-11-30",
      "latitude": 44.7667,
      "name": "WAUBAUSHENE, CA",
      "datacoverage": 0.9473,
      "id": "GHCND:CA006119399",
      "elevationUnit": "METERS",
      "longitude": -79.7
    },
    {
      "elevation": 184,
      "mindate": "1966-09-01",
      "maxdate": "1969-12-05",
      "latitude": 45.0333,
      "name": "WESTERN ISLANDS, CA",
      "datacoverage": 0.6747,
      "id": "GHCND:CA006119452",
      "elevationUnit": "METERS",
      "longitude": -80.3667
    },
    {
      "elevation": 182,
      "mindate": "1883-04-01",
      "maxdate": "1936-11-30",
      "latitude": 44.75,
      "name": "WIARTON, CA",
      "datacoverage": 0.9301,
      "id": "GHCND:CA006119495",
      "elevationUnit": "METERS",
      "longitude": -81.1333
    },
    {
      "elevation": 222,
      "mindate": "1947-07-01",
      "maxdate": "2014-11-05",
      "latitude": 44.75,
      "name": "WIARTON A, CA",
      "datacoverage": 0.9975,
      "id": "GHCND:CA006119500",
      "elevationUnit": "METERS",
      "longitude": -81.1
    },
    {
      "elevation": 390,
      "mindate": "1999-12-01",
      "maxdate": "2009-01-04",
      "latitude": 44.15,
      "name": "WILDER LAKE, CA",
      "datacoverage": 0.9996,
      "id": "GHCND:CA006119511",
      "elevationUnit": "METERS",
      "longitude": -80.7667
    },
    {
      "elevation": 690,
      "mindate": "1978-05-01",
      "maxdate": "1979-03-31",
      "latitude": 44.65,
      "name": "WYEVALE, CA",
      "datacoverage": 0.9994,
      "id": "GHCND:CA006119668",
      "elevationUnit": "METERS",
      "longitude": -79.9167
    },
    {
      "elevation": 191,
      "mindate": "1995-05-01",
      "maxdate": "2024-04-28",
      "latitude": 45.0333,
      "name": "WESTERN ISLAND AUT, CA",
      "datacoverage": 0.4463,
      "id": "GHCND:CA006119M51",
      "elevationUnit": "METERS",
      "longitude": -80.3667
    },
    {
      "elevation": 223,
      "mindate": "2000-02-01",
      "maxdate": "2021-12-31",
      "latitude": 44.2667,
      "name": "BORDEN AWOS, CA",
      "datacoverage": 0.8744,
      "id": "GHCND:CA00611B002",
      "elevationUnit": "METERS",
      "longitude": -79.9167
    },
    {
      "elevation": 244,
      "mindate": "1980-06-01",
      "maxdate": "1994-07-31",
      "latitude": 44.9167,
      "name": "GRAVENHURST BOOTH, CA",
      "datacoverage": 0.9648,
      "id": "GHCND:CA00611C001",
      "elevationUnit": "METERS",
      "longitude": -79.4
    },
    {
      "elevation": 495,
      "mindate": "1985-11-01",
      "maxdate": "1991-06-30",
      "latitude": 44.4,
      "name": "MAPLE GROVE, CA",
      "datacoverage": 1,
      "id": "GHCND:CA00611DR50",
      "elevationUnit": "METERS",
      "longitude": -80.3667
    },
    {
      "elevation": 251,
      "mindate": "2000-08-01",
      "maxdate": "2025-03-06",
      "latitude": 44.2333,
      "name": "EGBERT CS, CA",
      "datacoverage": 1,
      "id": "GHCND:CA00611E001",
      "elevationUnit": "METERS",
      "longitude": -79.7833
    }
  ]
}
