{
  "metadata": {
    "resultset": {
      "offset": 2600,
      "count": 154115,
      "limit": 100
    }
  },
  "results": [
    {
      "elevation": 816.9,
      "mindate": "1948-01-01",
      "maxdate": "1986-04-01",
      "latitude": 35.66667,
      "name": "WELDON, CA US",
      "datacoverage": 0.9146,
      "id": "COOP:049512",
      "elevationUnit": "METERS",
      "longitude": -118.3
    },
    {
      "elevation": 1232,
      "mindate": "1959-05-01",
      "maxdate": "1977-06-01",
      "latitude": 40.26667,
      "name": "WENDEL 10 SE, CA US",
      "datacoverage": 0.8119,
      "id": "COOP:049526",
      "elevationUnit": "METERS",
      "longitude": -120.06667
    },
    {
      "elevation": 1915.1,
      "mindate": "1948-01-01",
      "maxdate": "1948-09-02",
      "latitude": 34.7,
      "name": "WEST BIG PINE LO, CA US",
      "datacoverage": 0.8887,
      "id": "COOP:049532",
      "elevationUnit": "METERS",
      "longitude": -119.66667
    },
    {
      "elevation": 982.1,
      "mindate": "1931-01-01",
      "maxdate": "1952-09-01",
      "latitude": 39.93333,
      "name": "WEST BRANCH, CA US",
      "datacoverage": 0.9579,
      "id": "COOP:049540",
      "elevationUnit": "METERS",
      "longitude": -121.53333
    },
    {
      "elevation": 86.9,
      "mindate": "1931-01-01",
      "maxdate": "1999-09-01",
      "latitude": 36.22722,
      "name": "WESTHAVEN, CA US",
      "datacoverage": 0.9843,
      "id": "COOP:049560",
      "elevationUnit": "METERS",
      "longitude": -119.99667
    },
    {
      "elevation": 845.8,
      "mindate": "1931-01-01",
      "maxdate": "2015-11-01",
      "latitude": 38.3775,
      "name": "WEST POINT, CA US",
      "datacoverage": 0.738,
      "id": "COOP:049582",
      "elevationUnit": "METERS",
      "longitude": -120.5452
    },
    {
      "elevation": 723,
      "mindate": "1950-01-01",
      "maxdate": "1969-06-01",
      "latitude": 38.38333,
      "name": "WEST POINT 3 SW, CA US",
      "datacoverage": 0.9829,
      "id": "COOP:049583",
      "elevationUnit": "METERS",
      "longitude": -120.56667
    },
    {
      "elevation": 1545.9,
      "mindate": "1931-01-01",
      "maxdate": "1953-05-01",
      "latitude": 40.3,
      "name": "WESTWOOD, CA US",
      "datacoverage": 0.9439,
      "id": "COOP:049599",
      "elevationUnit": "METERS",
      "longitude": -121
    },
    {
      "elevation": 1521.9,
      "mindate": "1953-04-01",
      "maxdate": "1957-06-01",
      "latitude": 40.3,
      "name": "WESTWOOD 3 WSW, CA US",
      "datacoverage": 1,
      "id": "COOP:049600",
      "elevationUnit": "METERS",
      "longitude": -121.05
    },
    {
      "elevation": 32,
      "mindate": "1948-01-01",
      "maxdate": "2014-01-01",
      "latitude": 39.0277,
      "name": "WHEATLAND 2 NE, CA US",
      "datacoverage": 1,
      "id": "COOP:049605",
      "elevationUnit": "METERS",
      "longitude": -121.3908
    },
    {
      "elevation": 14.9,
      "mindate": "1948-01-01",
      "maxdate": "1959-10-01",
      "latitude": 39.88333,
      "name": "WHEELER, CA US",
      "datacoverage": 0.8169,
      "id": "COOP:049612",
      "elevationUnit": "METERS",
      "longitude": -123.91667
    },
    {
      "elevation": 266.7,
      "mindate": "1948-01-01",
      "maxdate": "1969-02-01",
      "latitude": 34.48333,
      "name": "WHEELER SPRINGS 2 SSW, CA US",
      "datacoverage": 1,
      "id": "COOP:049615",
      "elevationUnit": "METERS",
      "longitude": -119.3
    },
    {
      "elevation": 1286.3,
      "mindate": "1948-01-01",
      "maxdate": "1965-02-01",
      "latitude": 34.6102,
      "name": "PINE MOUNTAIN INN, CA US",
      "datacoverage": 1,
      "id": "COOP:049618",
      "elevationUnit": "METERS",
      "longitude": -119.3666
    },
    {
      "elevation": 331.9,
      "mindate": "1959-07-01",
      "maxdate": "1960-04-01",
      "latitude": 40.63333,
      "name": "WHISKEYTOWN, CA US",
      "datacoverage": 0.998,
      "id": "COOP:049620",
      "elevationUnit": "METERS",
      "longitude": -122.55
    },
    {
      "elevation": 394.7,
      "mindate": "1960-04-01",
      "maxdate": "2015-11-01",
      "latitude": 40.6116,
      "name": "WHISKEYTOWN RESERVOIR, CA US",
      "datacoverage": 0.9865,
      "id": "COOP:049621",
      "elevationUnit": "METERS",
      "longitude": -122.528
    },
    {
      "elevation": 3093.7,
      "mindate": "1955-10-01",
      "maxdate": "1977-12-01",
      "latitude": 37.5,
      "name": "WHITE MOUNTAIN 1, CA US",
      "datacoverage": 0.9999,
      "id": "COOP:049632",
      "elevationUnit": "METERS",
      "longitude": -118.18333
    },
    {
      "elevation": 3800.9,
      "mindate": "1955-10-01",
      "maxdate": "1980-11-01",
      "latitude": 37.58333,
      "name": "WHITE MOUNTAIN 2, CA US",
      "datacoverage": 0.9867,
      "id": "COOP:049633",
      "elevationUnit": "METERS",
      "longitude": -118.23333
    },
    {
      "elevation": 107,
      "mindate": "1931-01-01",
      "maxdate": "1968-05-01",
      "latitude": 38.56667,
      "name": "WHITE ROCK, CA US",
      "datacoverage": 0.9332,
      "id": "COOP:049639",
      "elevationUnit": "METERS",
      "longitude": -121.08333
    },
    {
      "elevation": 135.9,
      "mindate": "1931-01-01",
      "maxdate": "2013-12-01",
      "latitude": 33.9758,
      "name": "WHITTIER CITY YARD FC106C, CA US",
      "datacoverage": 0.9377,
      "id": "COOP:049660",
      "elevationUnit": "METERS",
      "longitude": -118.0222
    },
    {
      "elevation": 61,
      "mindate": "1972-09-01",
      "maxdate": "2012-12-01",
      "latitude": 34.0199,
      "name": "WHITTIER NARROWS DAM, CA US",
      "datacoverage": 0.0214,
      "id": "COOP:049666",
      "elevationUnit": "METERS",
      "longitude": -118.0838
    },
    {
      "elevation": 1249.7,
      "mindate": "1967-01-01",
      "maxdate": "2000-01-01",
      "latitude": 36.26556,
      "name": "WILDROSE R S, CA US",
      "datacoverage": 0.9773,
      "id": "COOP:049671",
      "elevationUnit": "METERS",
      "longitude": -117.18528
    },
    {
      "elevation": 25.9,
      "mindate": "1952-09-01",
      "maxdate": "1988-10-01",
      "latitude": 39.15,
      "name": "WILLIAMS, CA US",
      "datacoverage": 0.9284,
      "id": "COOP:049677",
      "elevationUnit": "METERS",
      "longitude": -122.15
    },
    {
      "elevation": 39,
      "mindate": "1938-07-01",
      "maxdate": "1952-12-01",
      "latitude": 39.1,
      "name": "WILLIAMS CAA AIRPORT, CA US",
      "datacoverage": 0.925,
      "id": "COOP:049678",
      "elevationUnit": "METERS",
      "longitude": -122.15
    },
    {
      "elevation": 412.4,
      "mindate": "1960-02-01",
      "maxdate": "2013-05-01",
      "latitude": 39.4194,
      "name": "WILLITS 1 NE, CA US",
      "datacoverage": 0.9575,
      "id": "COOP:049684",
      "elevationUnit": "METERS",
      "longitude": -123.3425
    },
    {
      "elevation": 586.7,
      "mindate": "1935-12-01",
      "maxdate": "1989-10-01",
      "latitude": 39.35,
      "name": "W. HOWARD FOREST R S, CA US",
      "datacoverage": 0.7501,
      "id": "COOP:049685",
      "elevationUnit": "METERS",
      "longitude": -123.31667
    },
    {
      "elevation": 1585.9,
      "mindate": "1964-07-01",
      "maxdate": "1966-08-01",
      "latitude": 41.83333,
      "name": "WILLOW CREEK RANCH, CA US",
      "datacoverage": 0.9992,
      "id": "COOP:049691",
      "elevationUnit": "METERS",
      "longitude": -120.75
    },
    {
      "elevation": 141.4,
      "mindate": "1968-07-01",
      "maxdate": "2015-11-01",
      "latitude": 40.9466,
      "name": "WILLOW CREEK 1 NW, CA US",
      "datacoverage": 0.9877,
      "id": "COOP:049694",
      "elevationUnit": "METERS",
      "longitude": -123.6363
    },
    {
      "elevation": 71.3,
      "mindate": "1931-01-01",
      "maxdate": "2015-11-01",
      "latitude": 39.52316,
      "name": "WILLOWS 6 W, CA US",
      "datacoverage": 0.9961,
      "id": "COOP:049699",
      "elevationUnit": "METERS",
      "longitude": -122.3048
    },
    {
      "elevation": 43,
      "mindate": "1967-01-01",
      "maxdate": "1972-02-01",
      "latitude": 39.53333,
      "name": "WILLOWS USBR, CA US",
      "datacoverage": 1,
      "id": "COOP:049700",
      "elevationUnit": "METERS",
      "longitude": -122.2
    },
    {
      "elevation": 451.1,
      "mindate": "1948-01-01",
      "maxdate": "1971-09-01",
      "latitude": 33.71667,
      "name": "WINCHESTER, CA US",
      "datacoverage": 0.956,
      "id": "COOP:049722",
      "elevationUnit": "METERS",
      "longitude": -117.08333
    },
    {
      "elevation": 41.1,
      "mindate": "1942-07-01",
      "maxdate": "2015-11-01",
      "latitude": 38.5252,
      "name": "WINTERS, CA US",
      "datacoverage": 1,
      "id": "COOP:049742",
      "elevationUnit": "METERS",
      "longitude": -121.9777
    },
    {
      "elevation": 833,
      "mindate": "1956-05-01",
      "maxdate": "1983-07-01",
      "latitude": 35.71667,
      "name": "WOFFORD HEIGHTS KERNVILLE, CA US",
      "datacoverage": 1,
      "id": "COOP:049754",
      "elevationUnit": "METERS",
      "longitude": -118.45
    },
    {
      "elevation": 396.8,
      "mindate": "1943-11-01",
      "maxdate": "1952-12-01",
      "latitude": 39.01667,
      "name": "WOLF, CA US",
      "datacoverage": 0.6089,
      "id": "COOP:049758",
      "elevationUnit": "METERS",
      "longitude": -121.08333
    },
    {
      "elevation": 1722.1,
      "mindate": "1937-12-01",
      "maxdate": "1990-08-19",
      "latitude": 38.78333,
      "name": "WOODFORDS, CA US",
      "datacoverage": 1,
      "id": "COOP:049775",
      "elevationUnit": "METERS",
      "longitude": -119.8
    },
    {
      "elevation": 20.4,
      "mindate": "1926-01-01",
      "maxdate": "2015-11-01",
      "latitude": 38.6829,
      "name": "WOODLAND 1 WNW, CA US",
      "datacoverage": 0.9759,
      "id": "COOP:049781",
      "elevationUnit": "METERS",
      "longitude": -121.794
    },
    {
      "elevation": 240.8,
      "mindate": "2006-09-01",
      "maxdate": "2015-11-01",
      "latitude": 34.1819,
      "name": "WOODLAND HILLS PIERCE COLLEGE, CA US",
      "datacoverage": 1,
      "id": "COOP:049785",
      "elevationUnit": "METERS",
      "longitude": -118.5744
    },
    {
      "elevation": 115.8,
      "mindate": "1973-01-01",
      "maxdate": "2015-11-01",
      "latitude": 37.4286,
      "name": "WOODSIDE FIRE STATION 1, CA US",
      "datacoverage": 0.9127,
      "id": "COOP:049792",
      "elevationUnit": "METERS",
      "longitude": -122.2561
    },
    {
      "elevation": 487.7,
      "mindate": "1931-01-01",
      "maxdate": "1986-05-01",
      "latitude": 37.13333,
      "name": "WRIGHTS, CA US",
      "datacoverage": 1,
      "id": "COOP:049814",
      "elevationUnit": "METERS",
      "longitude": -121.95
    },
    {
      "elevation": 1828.8,
      "mindate": "1997-10-01",
      "maxdate": "2011-12-01",
      "latitude": 34.3617,
      "name": "WRIGHTWOOD, CA US",
      "datacoverage": 0.9707,
      "id": "COOP:049822",
      "elevationUnit": "METERS",
      "longitude": -117.6386
    },
    {
      "elevation": 106.7,
      "mindate": "1931-01-01",
      "maxdate": "2007-06-01",
      "latitude": 33.89,
      "name": "YORBA LINDA, CA US",
      "datacoverage": 0.7408,
      "id": "COOP:049847",
      "elevationUnit": "METERS",
      "longitude": -117.8188
    },
    {
      "elevation": 335.3,
      "mindate": "1948-01-01",
      "maxdate": "2005-05-01",
      "latitude": 38.90528,
      "name": "YORKVILLE, CA US",
      "datacoverage": 1,
      "id": "COOP:049851",
      "elevationUnit": "METERS",
      "longitude": -123.23139
    },
    {
      "elevation": 1224.7,
      "mindate": "1931-01-01",
      "maxdate": "2015-11-01",
      "latitude": 37.75027,
      "name": "YOSEMITE PARK HEADQUARTERS, CA US",
      "datacoverage": 0.9676,
      "id": "COOP:049855",
      "elevationUnit": "METERS",
      "longitude": -119.58972
    },
    {
      "elevation": 29,
      "mindate": "2002-11-01",
      "maxdate": "2011-12-01",
      "latitude": 38.395,
      "name": "YOUNTVILLE, CA US",
      "datacoverage": 0.9182,
      "id": "COOP:049859",
      "elevationUnit": "METERS",
      "longitude": -122.35667
    },
    {
      "elevation": 826.6,
      "mindate": "1893-01-01",
      "maxdate": "2015-11-01",
      "latitude": 41.70237,
      "name": "YREKA, CA US",
      "datacoverage": 0.92,
      "id": "COOP:049866",
      "elevationUnit": "METERS",
      "longitude": -122.64169
    },
    {
      "elevation": 1204.9,
      "mindate": "1931-08-01",
      "maxdate": "1954-12-01",
      "latitude": 35.4,
      "name": "YUCCA GROVE, CA US",
      "datacoverage": 0.9323,
      "id": "COOP:049881",
      "elevationUnit": "METERS",
      "longitude": -115.81667
    },
    {
      "elevation": 1050,
      "mindate": "2008-10-01",
      "maxdate": "2015-11-01",
      "latitude": 34.2182,
      "name": "YUCCA MESA, CA US",
      "datacoverage": 1,
      "id": "COOP:049884",
      "elevationUnit": "METERS",
      "longitude": -116.4073
    },
    {
      "elevation": 990.3,
      "mindate": "2008-10-01",
      "maxdate": "2015-11-01",
      "latitude": 34.1294,
      "name": "YUCCA VALLEY, CA US",
      "datacoverage": 1,
      "id": "COOP:049888",
      "elevationUnit": "METERS",
      "longitude": -116.3879
    },
    {
      "elevation": 1106.4,
      "mindate": "1969-11-01",
      "maxdate": "2000-11-01",
      "latitude": 40.15806,
      "name": "ZENIA KETTENPOM STOR, CA US",
      "datacoverage": 0.0626,
      "id": "COOP:049953",
      "elevationUnit": "METERS",
      "longitude": -123.46056
    },
    {
      "elevation": 1670.9,
      "mindate": "1943-11-01",
      "maxdate": "1953-01-01",
      "latitude": 39.45,
      "name": "AGATE 3 SW, CO US",
      "datacoverage": 0.9996,
      "id": "COOP:050092",
      "elevationUnit": "METERS",
      "longitude": -103.93333
    },
    {
      "elevation": 1950.7,
      "mindate": "1980-01-01",
      "maxdate": "2005-11-01",
      "latitude": 37.4011,
      "name": "AGUILAR, CO US",
      "datacoverage": 0.9775,
      "id": "COOP:050102",
      "elevationUnit": "METERS",
      "longitude": -104.6547
    },
    {
      "elevation": 2634.7,
      "mindate": "1997-06-01",
      "maxdate": "2015-11-01",
      "latitude": 37.3169,
      "name": "AGUILAR 18 WSW, CO US",
      "datacoverage": 0.9905,
      "id": "COOP:050105",
      "elevationUnit": "METERS",
      "longitude": -104.9504
    },
    {
      "elevation": 1384.4,
      "mindate": "1948-08-01",
      "maxdate": "2015-11-01",
      "latitude": 40.15507,
      "name": "AKRON 4 E, CO US",
      "datacoverage": 0.672,
      "id": "COOP:050109",
      "elevationUnit": "METERS",
      "longitude": -103.1418
    },
    {
      "elevation": 1428,
      "mindate": "1937-03-01",
      "maxdate": "1999-03-01",
      "latitude": 40.174306,
      "name": "AKRON WASHINGTON CO AIRPORT, CO US",
      "datacoverage": 0.9503,
      "id": "COOP:050114",
      "elevationUnit": "METERS",
      "longitude": -103.214588
    },
    {
      "elevation": 2297,
      "mindate": "1932-04-01",
      "maxdate": "1949-12-01",
      "latitude": 37.46667,
      "name": "ALAMOSA, CO US",
      "datacoverage": 0.9999,
      "id": "COOP:050125",
      "elevationUnit": "METERS",
      "longitude": -105.88333
    },
    {
      "elevation": 2298.2,
      "mindate": "2005-09-01",
      "maxdate": "2015-11-01",
      "latitude": 37.4702,
      "name": "ALAMOSA 1 E, CO US",
      "datacoverage": 0.984,
      "id": "COOP:050128",
      "elevationUnit": "METERS",
      "longitude": -105.8569
    },
    {
      "elevation": 2297.4,
      "mindate": "1948-01-01",
      "maxdate": "2015-11-01",
      "latitude": 37.43931,
      "name": "ALAMOSA BERGMAN FIELD, CO US",
      "datacoverage": 0.9976,
      "id": "COOP:050130",
      "elevationUnit": "METERS",
      "longitude": -105.8618
    },
    {
      "elevation": 2512.5,
      "mindate": "1944-11-01",
      "maxdate": "2014-01-01",
      "latitude": 40.188,
      "name": "ALLENSPARK 2 SE, CO US",
      "datacoverage": 0.9051,
      "id": "COOP:050183",
      "elevationUnit": "METERS",
      "longitude": -105.5019
    },
    {
      "elevation": 2590.8,
      "mindate": "1994-01-01",
      "maxdate": "2004-06-01",
      "latitude": 40.22889,
      "name": "ALLENSPARK 3 NW, CO US",
      "datacoverage": 0.9924,
      "id": "COOP:050185",
      "elevationUnit": "METERS",
      "longitude": -105.51833
    },
    {
      "elevation": 1718.2,
      "mindate": "1947-07-01",
      "maxdate": "2015-11-01",
      "latitude": 39.4992,
      "name": "ALTENBERN, CO US",
      "datacoverage": 0.9963,
      "id": "COOP:050214",
      "elevationUnit": "METERS",
      "longitude": -108.3809
    },
    {
      "elevation": 2651.8,
      "mindate": "1914-12-01",
      "maxdate": "1986-03-01",
      "latitude": 37.86667,
      "name": "AMES, CO US",
      "datacoverage": 0.9603,
      "id": "COOP:050228",
      "elevationUnit": "METERS",
      "longitude": -107.88333
    },
    {
      "elevation": 1598.1,
      "mindate": "1943-11-01",
      "maxdate": "1973-12-01",
      "latitude": 38.88333,
      "name": "AMY, CO US",
      "datacoverage": 0.9917,
      "id": "COOP:050242",
      "elevationUnit": "METERS",
      "longitude": -103.65
    },
    {
      "elevation": 2753.9,
      "mindate": "1966-06-01",
      "maxdate": "1968-01-01",
      "latitude": 38.96667,
      "name": "ANTERO JUNCTION 3 NN, CO US",
      "datacoverage": 0.998,
      "id": "COOP:050258",
      "elevationUnit": "METERS",
      "longitude": -105.95
    },
    {
      "elevation": 2724.6,
      "mindate": "1961-06-01",
      "maxdate": "2015-11-01",
      "latitude": 38.99305,
      "name": "ANTERO RESERVOIR, CO US",
      "datacoverage": 0.997,
      "id": "COOP:050263",
      "elevationUnit": "METERS",
      "longitude": -105.89145
    },
    {
      "elevation": 1262.5,
      "mindate": "1992-03-01",
      "maxdate": "2007-01-01",
      "latitude": 39.0372,
      "name": "ARAPAHOE 14 N, CO US",
      "datacoverage": 0.9941,
      "id": "COOP:050301",
      "elevationUnit": "METERS",
      "longitude": -102.1675
    },
    {
      "elevation": 1225.3,
      "mindate": "1948-08-01",
      "maxdate": "2015-11-01",
      "latitude": 38.8528,
      "name": "ARAPAHOE, CO US",
      "datacoverage": 0.3416,
      "id": "COOP:050304",
      "elevationUnit": "METERS",
      "longitude": -102.1764
    },
    {
      "elevation": 1239,
      "mindate": "2003-07-01",
      "maxdate": "2015-11-01",
      "latitude": 38.6841,
      "name": "ARAPAHOE 12 S, CO US",
      "datacoverage": 0.9663,
      "id": "COOP:050306",
      "elevationUnit": "METERS",
      "longitude": -102.1614
    },
    {
      "elevation": 1884.9,
      "mindate": "1957-10-01",
      "maxdate": "1963-09-01",
      "latitude": 37.01667,
      "name": "ARBOLES, CO US",
      "datacoverage": 1,
      "id": "COOP:050307",
      "elevationUnit": "METERS",
      "longitude": -107.41667
    },
    {
      "elevation": 1890.7,
      "mindate": "2002-11-01",
      "maxdate": "2007-07-01",
      "latitude": 37.0236,
      "name": "ARBOLES 1 W, CO US",
      "datacoverage": 1,
      "id": "COOP:050310",
      "elevationUnit": "METERS",
      "longitude": -107.4372
    },
    {
      "elevation": 1460.9,
      "mindate": "1943-11-01",
      "maxdate": "1972-12-01",
      "latitude": 38.91667,
      "name": "AROYA 6 NE, CO US",
      "datacoverage": 0.9999,
      "id": "COOP:050343",
      "elevationUnit": "METERS",
      "longitude": -103.08333
    },
    {
      "elevation": 1597.5,
      "mindate": "1931-01-01",
      "maxdate": "1958-10-01",
      "latitude": 39.28333,
      "name": "ARRIBA, CO US",
      "datacoverage": 0.9641,
      "id": "COOP:050348",
      "elevationUnit": "METERS",
      "longitude": -103.26667
    },
    {
      "elevation": 1816.6,
      "mindate": "1948-08-01",
      "maxdate": "1965-05-31",
      "latitude": 40.2441,
      "name": "DINOSAUR NATIONAL MONUMENT, CO US",
      "datacoverage": 0.297,
      "id": "COOP:050354",
      "elevationUnit": "METERS",
      "longitude": -108.9726
    },
    {
      "elevation": 1677.9,
      "mindate": "1938-08-01",
      "maxdate": "1944-11-01",
      "latitude": 39.83333,
      "name": "ARVADA, CO US",
      "datacoverage": 0.9471,
      "id": "COOP:050357",
      "elevationUnit": "METERS",
      "longitude": -105.13333
    },
    {
      "elevation": 2416.5,
      "mindate": "1899-08-01",
      "maxdate": "1980-07-25",
      "latitude": 39.18333,
      "name": "ASPEN, CO US",
      "datacoverage": 0.6425,
      "id": "COOP:050370",
      "elevationUnit": "METERS",
      "longitude": -106.83333
    },
    {
      "elevation": 2491.7,
      "mindate": "1980-06-01",
      "maxdate": "2015-11-01",
      "latitude": 39.1852,
      "name": "ASPEN 1 SW, CO US",
      "datacoverage": 0.9859,
      "id": "COOP:050372",
      "elevationUnit": "METERS",
      "longitude": -106.838
    },
    {
      "elevation": 2339.9,
      "mindate": "2012-01-01",
      "maxdate": "2015-11-01",
      "latitude": 39.22994,
      "name": "ASPEN PITKIN CO AIRPORT SARDY FIELD, CO US",
      "datacoverage": 1,
      "id": "COOP:050373",
      "elevationUnit": "METERS",
      "longitude": -106.87052
    },
    {
      "mindate": "1948-08-01",
      "maxdate": "1949-12-01",
      "latitude": 37.6,
      "name": "ATKINSON RANCH, CO US",
      "datacoverage": 0.5001,
      "id": "COOP:050381",
      "longitude": -108.88333
    },
    {
      "elevation": 2283.6,
      "mindate": "1981-08-01",
      "maxdate": "1989-10-01",
      "latitude": 39.63333,
      "name": "AVON, CO US",
      "datacoverage": 0.6766,
      "id": "COOP:050405",
      "elevationUnit": "METERS",
      "longitude": -106.51667
    },
    {
      "elevation": 2204.9,
      "mindate": "1944-01-01",
      "maxdate": "1970-03-01",
      "latitude": 39.01667,
      "name": "AYER RANCH, CO US",
      "datacoverage": 1,
      "id": "COOP:050437",
      "elevationUnit": "METERS",
      "longitude": -104.6
    },
    {
      "elevation": 2362.8,
      "mindate": "1938-03-01",
      "maxdate": "2015-11-01",
      "latitude": 39.4052,
      "name": "BAILEY, CO US",
      "datacoverage": 0.985,
      "id": "COOP:050454",
      "elevationUnit": "METERS",
      "longitude": -105.4765
    },
    {
      "elevation": 2019,
      "mindate": "1965-07-01",
      "maxdate": "1972-07-01",
      "latitude": 39.36667,
      "name": "BASALT, CO US",
      "datacoverage": 0.9644,
      "id": "COOP:050514",
      "elevationUnit": "METERS",
      "longitude": -107.03333
    },
    {
      "elevation": 1517.9,
      "mindate": "1997-01-01",
      "maxdate": "2005-04-01",
      "latitude": 38.3188,
      "name": "BEDROCK, CO US",
      "datacoverage": 1,
      "id": "COOP:050581",
      "elevationUnit": "METERS",
      "longitude": -108.8902
    },
    {
      "elevation": 1499.6,
      "mindate": "1988-02-01",
      "maxdate": "1988-02-20",
      "latitude": 38.35806,
      "name": "BEDROCK 4 NE, CO US",
      "datacoverage": 0.0065,
      "id": "COOP:050583",
      "elevationUnit": "METERS",
      "longitude": -108.83167
    },
    {
      "elevation": 1671.2,
      "mindate": "1989-01-01",
      "maxdate": "1995-01-01",
      "latitude": 39.75,
      "name": "BENNETT, CO US",
      "datacoverage": 0.6575,
      "id": "COOP:050620",
      "elevationUnit": "METERS",
      "longitude": -104.41667
    },
    {
      "elevation": 3448.2,
      "mindate": "1950-01-01",
      "maxdate": "1985-04-01",
      "latitude": 39.8,
      "name": "BERTHOUD PASS, CO US",
      "datacoverage": 0.6227,
      "id": "COOP:050674",
      "elevationUnit": "METERS",
      "longitude": -105.78333
    },
    {
      "elevation": 1281.1,
      "mindate": "1949-05-01",
      "maxdate": "1953-06-01",
      "latitude": 39.3,
      "name": "BETHUNE, CO US",
      "datacoverage": 0.7599,
      "id": "COOP:050686",
      "elevationUnit": "METERS",
      "longitude": -102.43333
    },
    {
      "elevation": 1841.9,
      "mindate": "1948-08-01",
      "maxdate": "1967-05-04",
      "latitude": 38.86667,
      "name": "BIG SPRINGS RANCH, CO US",
      "datacoverage": 0.9479,
      "id": "COOP:050712",
      "elevationUnit": "METERS",
      "longitude": -104.31667
    },
    {
      "elevation": 2484.4,
      "mindate": "2003-10-01",
      "maxdate": "2015-11-01",
      "latitude": 38.5547,
      "name": "BLACK CANYON OF THE GUNNISON, CO US",
      "datacoverage": 0.9863,
      "id": "COOP:050754",
      "elevationUnit": "METERS",
      "longitude": -107.6872
    },
    {
      "elevation": 2115.9,
      "mindate": "2010-04-01",
      "maxdate": "2015-11-01",
      "latitude": 39.02888,
      "name": "BLACK FOREST 6 WNW, CO US",
      "datacoverage": 0.9999,
      "id": "COOP:050756",
      "elevationUnit": "METERS",
      "longitude": -104.80177
    },
    {
      "elevation": 2349.7,
      "mindate": "1940-07-01",
      "maxdate": "2010-03-01",
      "latitude": 37.4787,
      "name": "BLANCA 4 NW, CO US",
      "datacoverage": 0.9773,
      "id": "COOP:050776",
      "elevationUnit": "METERS",
      "longitude": -105.5718
    },
    {
      "elevation": 1363.4,
      "mindate": "1931-01-01",
      "maxdate": "1954-01-01",
      "latitude": 37.68333,
      "name": "BLOOM, CO US",
      "datacoverage": 0.722,
      "id": "COOP:050784",
      "elevationUnit": "METERS",
      "longitude": -103.95
    },
    {
      "elevation": 2295.1,
      "mindate": "1966-04-01",
      "maxdate": "1967-10-01",
      "latitude": 38.45667,
      "name": "BLUE MESA DAM, CO US",
      "datacoverage": 0.9988,
      "id": "COOP:050794",
      "elevationUnit": "METERS",
      "longitude": -107.33278
    },
    {
      "elevation": 2306.7,
      "mindate": "1967-11-01",
      "maxdate": "2015-11-01",
      "latitude": 38.4666,
      "name": "BLUE MESA LAKE, CO US",
      "datacoverage": 0.9532,
      "id": "COOP:050797",
      "elevationUnit": "METERS",
      "longitude": -107.1677
    },
    {
      "elevation": 2044,
      "mindate": "1958-11-01",
      "maxdate": "1974-12-01",
      "latitude": 39.88333,
      "name": "BOND, CO US",
      "datacoverage": 0.9948,
      "id": "COOP:050810",
      "elevationUnit": "METERS",
      "longitude": -106.68333
    },
    {
      "elevation": 3009,
      "mindate": "1963-07-01",
      "maxdate": "2015-11-01",
      "latitude": 39.1025,
      "name": "BONHAM RESERVOIR, CO US",
      "datacoverage": 0.7996,
      "id": "COOP:050825",
      "elevationUnit": "METERS",
      "longitude": -107.8988
    },
    {
      "elevation": 1132.9,
      "mindate": "1949-06-01",
      "maxdate": "2015-11-01",
      "latitude": 39.6567,
      "name": "BONNY DAM 2 NE, CO US",
      "datacoverage": 0.9862,
      "id": "COOP:050834",
      "elevationUnit": "METERS",
      "longitude": -102.1193
    },
    {
      "elevation": 1400.9,
      "mindate": "2002-03-01",
      "maxdate": "2007-04-01",
      "latitude": 38.1728,
      "name": "BOONE 6 SSW, CO US",
      "datacoverage": 0.9839,
      "id": "COOP:050837",
      "elevationUnit": "METERS",
      "longitude": -104.3082
    },
    {
      "elevation": 1461.2,
      "mindate": "2002-03-01",
      "maxdate": "2015-11-01",
      "latitude": 38.3719,
      "name": "BOONE 9 NNW, CO US",
      "datacoverage": 0.9817,
      "id": "COOP:050839",
      "elevationUnit": "METERS",
      "longitude": -104.30579
    },
    {
      "elevation": 1351.8,
      "mindate": "1980-07-01",
      "maxdate": "1986-05-01",
      "latitude": 38.21667,
      "name": "BOONE 2 SE, CO US",
      "datacoverage": 0.8169,
      "id": "COOP:050840",
      "elevationUnit": "METERS",
      "longitude": -104.23333
    },
    {
      "elevation": 1654.1,
      "mindate": "1948-08-01",
      "maxdate": "2014-01-01",
      "latitude": 40.03399,
      "name": "BOULDER 2, CO US",
      "datacoverage": 0.9216,
      "id": "COOP:050843",
      "elevationUnit": "METERS",
      "longitude": -105.28125
    },
    {
      "elevation": 1673,
      "mindate": "1931-01-01",
      "maxdate": "2015-11-01",
      "latitude": 39.99282,
      "name": "BOULDER, CO US",
      "datacoverage": 0.9824,
      "id": "COOP:050848",
      "elevationUnit": "METERS",
      "longitude": -105.26683
    }
  ]
}
