{
  "metadata": {
    "resultset": {
      "offset": 130800,
      "count": 154115,
      "limit": 100
    }
  },
  "results": [
    {
      "elevation": 48.8,
      "mindate": "1917-01-01",
      "maxdate": "2010-12-31",
      "latitude": 38.68333,
      "name": "OWINGS FERRY LANDING, MD US",
      "datacoverage": 1,
      "id": "GHCND:USC00186770",
      "elevationUnit": "METERS",
      "longitude": -76.66667
    },
    {
      "elevation": 3,
      "mindate": "1937-08-01",
      "maxdate": "1954-10-31",
      "latitude": 38.7,
      "name": "OXFORD",
      "datacoverage": 0.9999,
      "id": "GHCND:USC00186785",
      "elevationUnit": "METERS",
      "longitude": -76.16667
    },
    {
      "elevation": 57.9,
      "mindate": "2002-01-01",
      "maxdate": "2021-07-24",
      "latitude": 38.7955,
      "name": "OXON HILL, MD US",
      "datacoverage": 1,
      "id": "GHCND:USC00186800",
      "elevationUnit": "METERS",
      "longitude": -76.99481
    },
    {
      "elevation": 182.9,
      "mindate": "1899-06-01",
      "maxdate": "1986-12-31",
      "latitude": 39.63333,
      "name": "PARKTON 2 SW, MD US",
      "datacoverage": 0.8903,
      "id": "GHCND:USC00186844",
      "elevationUnit": "METERS",
      "longitude": -76.7
    },
    {
      "elevation": 21,
      "mindate": "2021-07-01",
      "maxdate": "2025-03-07",
      "latitude": 38.39039,
      "name": "PARSONSBURG, MD US",
      "datacoverage": 0.9991,
      "id": "GHCND:USC00186850",
      "elevationUnit": "METERS",
      "longitude": -75.50267
    },
    {
      "elevation": 11.6,
      "mindate": "1948-08-01",
      "maxdate": "1990-06-30",
      "latitude": 38.33333,
      "name": "PATUXENT RIVER, MD US",
      "datacoverage": 0.9992,
      "id": "GHCND:USC00186915",
      "elevationUnit": "METERS",
      "longitude": -76.41667
    },
    {
      "elevation": 11.9,
      "mindate": "1936-01-01",
      "maxdate": "1954-03-31",
      "latitude": 39.55,
      "name": "PERRY POINT, MD US",
      "datacoverage": 0.9765,
      "id": "GHCND:USC00186980",
      "elevationUnit": "METERS",
      "longitude": -76.06667
    },
    {
      "elevation": 313.9,
      "mindate": "1927-04-01",
      "maxdate": "1973-03-31",
      "latitude": 39.55,
      "name": "PICARDY, MD US",
      "datacoverage": 0.9601,
      "id": "GHCND:USC00187010",
      "elevationUnit": "METERS",
      "longitude": -78.51667
    },
    {
      "elevation": 152.4,
      "mindate": "1948-08-01",
      "maxdate": "1962-02-28",
      "latitude": 39.38333,
      "name": "PIKESVILLE POL BRKS, MD US",
      "datacoverage": 1,
      "id": "GHCND:USC00187015",
      "elevationUnit": "METERS",
      "longitude": -76.71667
    },
    {
      "elevation": 201.2,
      "mindate": "1925-01-01",
      "maxdate": "1943-12-31",
      "latitude": 39.433333,
      "name": "PLEASANT HILL, MD US",
      "datacoverage": 0.9589,
      "id": "GHCND:USC00187070",
      "elevationUnit": "METERS",
      "longitude": -76.8
    },
    {
      "elevation": 6.1,
      "mindate": "1894-04-01",
      "maxdate": "1979-07-31",
      "latitude": 38.06667,
      "name": "POCOMOKE CITY, MD US",
      "datacoverage": 0.7119,
      "id": "GHCND:USC00187140",
      "elevationUnit": "METERS",
      "longitude": -75.55
    },
    {
      "elevation": 6.1,
      "mindate": "1894-07-01",
      "maxdate": "1895-08-31",
      "latitude": 38.4,
      "name": "POPES CREEK, MD ",
      "datacoverage": 0.7841,
      "id": "GHCND:USC00187205",
      "elevationUnit": "METERS",
      "longitude": -77
    },
    {
      "elevation": 91.4,
      "mindate": "1897-04-01",
      "maxdate": "2006-05-31",
      "latitude": 39.62917,
      "name": "PORT DEPOSIT 2 NE, MD US",
      "datacoverage": 0.0351,
      "id": "GHCND:USC00187230",
      "elevationUnit": "METERS",
      "longitude": -76.08472
    },
    {
      "elevation": 11.6,
      "mindate": "1905-01-01",
      "maxdate": "1912-11-30",
      "latitude": 38.183333,
      "name": "PORTO BELLO, MD US",
      "datacoverage": 0.9686,
      "id": "GHCND:USC00187250",
      "elevationUnit": "METERS",
      "longitude": -76.45
    },
    {
      "elevation": 82.3,
      "mindate": "1962-04-01",
      "maxdate": "2011-02-25",
      "latitude": 39.04,
      "name": "POTOMAC FILTER PLANT, MD US",
      "datacoverage": 1,
      "id": "GHCND:USC00187272",
      "elevationUnit": "METERS",
      "longitude": -77.2541
    },
    {
      "elevation": 14.9,
      "mindate": "1949-01-01",
      "maxdate": "1976-12-31",
      "latitude": 38.7,
      "name": "PRESTON 1 S, MD US",
      "datacoverage": 0.9993,
      "id": "GHCND:USC00187310",
      "elevationUnit": "METERS",
      "longitude": -75.91667
    },
    {
      "elevation": 238,
      "mindate": "1948-08-01",
      "maxdate": "1953-01-12",
      "latitude": 39.63333,
      "name": "PRETTYBOY DAM, MD US",
      "datacoverage": 0.9252,
      "id": "GHCND:USC00187315",
      "elevationUnit": "METERS",
      "longitude": -76.7
    },
    {
      "elevation": 43,
      "mindate": "1899-04-01",
      "maxdate": "1976-12-31",
      "latitude": 38.55,
      "name": "PRINCE FREDERICK 1 N, MD US",
      "datacoverage": 0.344,
      "id": "GHCND:USC00187325",
      "elevationUnit": "METERS",
      "longitude": -76.58333
    },
    {
      "elevation": 6.1,
      "mindate": "1894-07-01",
      "maxdate": "2025-03-06",
      "latitude": 38.2122,
      "name": "PRINCESS ANNE, MD US",
      "datacoverage": 1,
      "id": "GHCND:USC00187330",
      "elevationUnit": "METERS",
      "longitude": -75.6822
    },
    {
      "elevation": 3.7,
      "mindate": "1899-01-01",
      "maxdate": "2025-02-28",
      "latitude": 38.94466,
      "name": "QUEENSTOWN 3 S, US",
      "datacoverage": 0.732,
      "id": "GHCND:USC00187410",
      "elevationUnit": "METERS",
      "longitude": -76.16233
    },
    {
      "elevation": 189,
      "mindate": "1948-08-01",
      "maxdate": "1961-03-31",
      "latitude": 39.38333,
      "name": "RANDALLSTOWN POLICE, MD US",
      "datacoverage": 0.9993,
      "id": "GHCND:USC00187435",
      "elevationUnit": "METERS",
      "longitude": -76.83333
    },
    {
      "elevation": 112.8,
      "mindate": "1920-08-01",
      "maxdate": "1923-06-30",
      "latitude": 39.4,
      "name": "RIDERWOOD, MD US",
      "datacoverage": 1,
      "id": "GHCND:USC00187550",
      "elevationUnit": "METERS",
      "longitude": -76.65
    },
    {
      "elevation": 21,
      "mindate": "1922-06-01",
      "maxdate": "1952-02-29",
      "latitude": 38.95,
      "name": "RIDGELY, MD US",
      "datacoverage": 0.9664,
      "id": "GHCND:USC00187575",
      "elevationUnit": "METERS",
      "longitude": -75.88333
    },
    {
      "elevation": 197.2,
      "mindate": "2017-11-01",
      "maxdate": "2025-03-07",
      "latitude": 39.4507,
      "name": "REISTERSTOWN, MD US",
      "datacoverage": 0.8744,
      "id": "GHCND:USC00187580",
      "elevationUnit": "METERS",
      "longitude": -76.7997
    },
    {
      "elevation": 14.9,
      "mindate": "1946-01-01",
      "maxdate": "1955-02-28",
      "latitude": 38.96667,
      "name": "RIVERDALE, MD US",
      "datacoverage": 1,
      "id": "GHCND:USC00187615",
      "elevationUnit": "METERS",
      "longitude": -76.93333
    },
    {
      "elevation": 61,
      "mindate": "1945-08-01",
      "maxdate": "1949-11-30",
      "latitude": 39,
      "name": "ROCK CREEK FOREST, MD US",
      "datacoverage": 0.5384,
      "id": "GHCND:USC00187690",
      "elevationUnit": "METERS",
      "longitude": -77.06667
    },
    {
      "elevation": 6.1,
      "mindate": "1899-01-01",
      "maxdate": "1967-03-31",
      "latitude": 39.13333,
      "name": "ROCK HALL, MD US",
      "datacoverage": 0.685,
      "id": "GHCND:USC00187700",
      "elevationUnit": "METERS",
      "longitude": -76.23333
    },
    {
      "elevation": 134.1,
      "mindate": "1907-01-01",
      "maxdate": "2010-12-31",
      "latitude": 39.10083,
      "name": "ROCKVILLE 1 NE, MD US",
      "datacoverage": 1,
      "id": "GHCND:USC00187705",
      "elevationUnit": "METERS",
      "longitude": -77.14861
    },
    {
      "elevation": 3,
      "mindate": "1948-08-01",
      "maxdate": "2025-02-28",
      "latitude": 38.7152,
      "name": "ROYAL OAK 2 SSW, MD US",
      "datacoverage": 1,
      "id": "GHCND:USC00187806",
      "elevationUnit": "METERS",
      "longitude": -76.1907
    },
    {
      "elevation": 3,
      "mindate": "1893-02-01",
      "maxdate": "2011-12-31",
      "latitude": 38.365,
      "name": "SALISBURY, MD US",
      "datacoverage": 1,
      "id": "GHCND:USC00188000",
      "elevationUnit": "METERS",
      "longitude": -75.58917
    },
    {
      "elevation": 12.2,
      "mindate": "1948-08-01",
      "maxdate": "2005-12-31",
      "latitude": 38.42,
      "name": "SALISBURY POLICE BRK, MD US",
      "datacoverage": 0.3033,
      "id": "GHCND:USC00188003",
      "elevationUnit": "METERS",
      "longitude": -75.56417
    },
    {
      "elevation": 14.6,
      "mindate": "2012-01-01",
      "maxdate": "2025-02-28",
      "latitude": 38.4083,
      "name": "SALISBURY 2 N, MD US",
      "datacoverage": 0.9806,
      "id": "GHCND:USC00188004",
      "elevationUnit": "METERS",
      "longitude": -75.5922
    },
    {
      "elevation": 9.1,
      "mindate": "1950-03-01",
      "maxdate": "1954-07-31",
      "latitude": 38.36667,
      "name": "SALISBURY USGS, MD US",
      "datacoverage": 0.9618,
      "id": "GHCND:USC00188007",
      "elevationUnit": "METERS",
      "longitude": -75.58333
    },
    {
      "elevation": 3,
      "mindate": "1952-01-01",
      "maxdate": "1960-12-31",
      "latitude": 39.01667,
      "name": "SANDY POINT, MD US",
      "datacoverage": 0.9998,
      "id": "GHCND:USC00188030",
      "elevationUnit": "METERS",
      "longitude": -76.4
    },
    {
      "elevation": 3.7,
      "mindate": "1899-01-01",
      "maxdate": "1900-04-30",
      "latitude": 38.233333,
      "name": "SANDY POINT 1",
      "datacoverage": 1,
      "id": "GHCND:USC00188033",
      "elevationUnit": "METERS",
      "longitude": -75.2
    },
    {
      "elevation": 455.7,
      "mindate": "1945-02-01",
      "maxdate": "2025-03-07",
      "latitude": 39.5099,
      "name": "SAVAGE RIVER DAM, MD US",
      "datacoverage": 1,
      "id": "GHCND:USC00188065",
      "elevationUnit": "METERS",
      "longitude": -79.1401
    },
    {
      "elevation": 519.1,
      "mindate": "1950-05-01",
      "maxdate": "1966-10-31",
      "latitude": 39.38333,
      "name": "SHALLMAR, MD US",
      "datacoverage": 0.9998,
      "id": "GHCND:USC00188191",
      "elevationUnit": "METERS",
      "longitude": -79.2
    },
    {
      "elevation": 128,
      "mindate": "1894-11-01",
      "maxdate": "1904-04-30",
      "latitude": 39.45,
      "name": "SHARPSBURG, MD US",
      "datacoverage": 0.9128,
      "id": "GHCND:USC00188205",
      "elevationUnit": "METERS",
      "longitude": -77.75
    },
    {
      "elevation": 121.9,
      "mindate": "1998-01-01",
      "maxdate": "2022-04-30",
      "latitude": 39.3983,
      "name": "SHARPSBURG 5 S, MD US",
      "datacoverage": 1,
      "id": "GHCND:USC00188207",
      "elevationUnit": "METERS",
      "longitude": -77.7212
    },
    {
      "elevation": 3,
      "mindate": "1948-08-01",
      "maxdate": "1951-09-30",
      "latitude": 38.55,
      "name": "SHARPTOWN, MD US",
      "datacoverage": 0.9216,
      "id": "GHCND:USC00188210",
      "elevationUnit": "METERS",
      "longitude": -75.71667
    },
    {
      "elevation": 85,
      "mindate": "1951-12-01",
      "maxdate": "1953-12-31",
      "latitude": 38.83333,
      "name": "SILVER HILL OBSV, MD US",
      "datacoverage": 1,
      "id": "GHCND:USC00188289",
      "elevationUnit": "METERS",
      "longitude": -76.95
    },
    {
      "elevation": 82,
      "mindate": "1939-02-01",
      "maxdate": "1945-02-28",
      "latitude": 39,
      "name": "SILVER SPRING, MD US",
      "datacoverage": 1,
      "id": "GHCND:USC00188300",
      "elevationUnit": "METERS",
      "longitude": -77.01667
    },
    {
      "elevation": 621.8,
      "mindate": "1928-08-01",
      "maxdate": "2025-03-07",
      "latitude": 39.5227,
      "name": "SINES DEEP CREEK, MD US",
      "datacoverage": 0.4801,
      "id": "GHCND:USC00188315",
      "elevationUnit": "METERS",
      "longitude": -79.4131
    },
    {
      "elevation": 622.1,
      "mindate": "1963-01-01",
      "maxdate": "1969-11-30",
      "latitude": 39.53333,
      "name": "SINES DEEP CREEK 2, MD US",
      "datacoverage": 0.9996,
      "id": "GHCND:USC00188320",
      "elevationUnit": "METERS",
      "longitude": -79.41667
    },
    {
      "elevation": 274.3,
      "mindate": "1897-04-01",
      "maxdate": "1901-12-31",
      "latitude": 39.65,
      "name": "SMITHSBURG, MD US",
      "datacoverage": 1,
      "id": "GHCND:USC00188368",
      "elevationUnit": "METERS",
      "longitude": -77.55
    },
    {
      "elevation": 204.2,
      "mindate": "2001-12-01",
      "maxdate": "2019-08-25",
      "latitude": 39.66346,
      "name": "SMITHSBURG 2 NW, MD US",
      "datacoverage": 1,
      "id": "GHCND:USC00188371",
      "elevationUnit": "METERS",
      "longitude": -77.58309
    },
    {
      "elevation": 9.1,
      "mindate": "1916-01-01",
      "maxdate": "2024-11-30",
      "latitude": 38.23173,
      "name": "SNOW HILL 4 N, MD US",
      "datacoverage": 1,
      "id": "GHCND:USC00188380",
      "elevationUnit": "METERS",
      "longitude": -75.37606
    },
    {
      "elevation": 3.7,
      "mindate": "1893-01-01",
      "maxdate": "2024-09-30",
      "latitude": 38.31994,
      "name": "SOLOMONS, MD US",
      "datacoverage": 1,
      "id": "GHCND:USC00188405",
      "elevationUnit": "METERS",
      "longitude": -76.45271
    },
    {
      "elevation": 445,
      "mindate": "1909-01-01",
      "maxdate": "1947-12-31",
      "latitude": 39.716667,
      "name": "STATE SANATORIUM, MD US",
      "datacoverage": 0.9806,
      "id": "GHCND:USC00188510",
      "elevationUnit": "METERS",
      "longitude": -77.45
    },
    {
      "elevation": 3,
      "mindate": "1926-12-01",
      "maxdate": "2025-03-07",
      "latitude": 38.972,
      "name": "STEVENSVILLE 2 SW, MD US",
      "datacoverage": 1,
      "id": "GHCND:USC00188557",
      "elevationUnit": "METERS",
      "longitude": -76.338
    },
    {
      "elevation": 82,
      "mindate": "1962-12-01",
      "maxdate": "1974-01-31",
      "latitude": 38.85,
      "name": "SUITLAND, MD US",
      "datacoverage": 0.9474,
      "id": "GHCND:USC00188656",
      "elevationUnit": "METERS",
      "longitude": -76.93333
    },
    {
      "elevation": 30.5,
      "mindate": "2015-09-01",
      "maxdate": "2018-02-28",
      "latitude": 39.1639,
      "name": "SUDLERSVILLE 1 S, MD US",
      "datacoverage": 1,
      "id": "GHCND:USC00188657",
      "elevationUnit": "METERS",
      "longitude": -75.8547
    },
    {
      "elevation": 762,
      "mindate": "1893-01-01",
      "maxdate": "1903-05-31",
      "latitude": 39.333333,
      "name": "SUNNYSIDE, MD US",
      "datacoverage": 0.9847,
      "id": "GHCND:USC00188670",
      "elevationUnit": "METERS",
      "longitude": -79.45
    },
    {
      "elevation": 97.5,
      "mindate": "1899-04-01",
      "maxdate": "1949-01-31",
      "latitude": 38.983333,
      "name": "TAKOMA PARK NUMBER 1, MD US",
      "datacoverage": 0.9815,
      "id": "GHCND:USC00188715",
      "elevationUnit": "METERS",
      "longitude": -77.016667
    },
    {
      "elevation": 98.1,
      "mindate": "1948-08-01",
      "maxdate": "1949-02-28",
      "latitude": 38.98333,
      "name": "TAKOMA PK BALT AVE, MD US",
      "datacoverage": 1,
      "id": "GHCND:USC00188720",
      "elevationUnit": "METERS",
      "longitude": -77.01667
    },
    {
      "elevation": 70.1,
      "mindate": "1945-03-01",
      "maxdate": "1961-07-31",
      "latitude": 38.98333,
      "name": "TAKOMA PARK MISS AVE, MD US",
      "datacoverage": 0.9897,
      "id": "GHCND:USC00188725",
      "elevationUnit": "METERS",
      "longitude": -77
    },
    {
      "elevation": 152.4,
      "mindate": "1893-01-01",
      "maxdate": "1912-08-31",
      "latitude": 39.666667,
      "name": "TANEYTOWN, MD US",
      "datacoverage": 0.7078,
      "id": "GHCND:USC00188780",
      "elevationUnit": "METERS",
      "longitude": -77.166667
    },
    {
      "elevation": 167.9,
      "mindate": "1924-05-01",
      "maxdate": "1957-04-30",
      "latitude": 39.66667,
      "name": "TONOLOWAY, MD US",
      "datacoverage": 0.9874,
      "id": "GHCND:USC00188855",
      "elevationUnit": "METERS",
      "longitude": -78.25
    },
    {
      "elevation": 118.9,
      "mindate": "1907-01-01",
      "maxdate": "1996-09-30",
      "latitude": 39.38333,
      "name": "TOWSON, MD US",
      "datacoverage": 0.8449,
      "id": "GHCND:USC00188877",
      "elevationUnit": "METERS",
      "longitude": -76.56667
    },
    {
      "elevation": 16.8,
      "mindate": "1945-01-01",
      "maxdate": "1946-10-31",
      "latitude": 38.666667,
      "name": "TRAPPE, MD US",
      "datacoverage": 0.546,
      "id": "GHCND:USC00188900",
      "elevationUnit": "METERS",
      "longitude": -76.05
    },
    {
      "elevation": 140.2,
      "mindate": "1915-03-01",
      "maxdate": "1919-09-30",
      "latitude": 39.566667,
      "name": "UNION BRIDGE, MD US",
      "datacoverage": 0.9991,
      "id": "GHCND:USC00188990",
      "elevationUnit": "METERS",
      "longitude": -77.166667
    },
    {
      "elevation": 131.1,
      "mindate": "1940-07-01",
      "maxdate": "2010-12-31",
      "latitude": 39.45,
      "name": "UNIONVILLE, MD US",
      "datacoverage": 1,
      "id": "GHCND:USC00189030",
      "elevationUnit": "METERS",
      "longitude": -77.18333
    },
    {
      "elevation": 70.1,
      "mindate": "1948-08-01",
      "maxdate": "1977-12-31",
      "latitude": 38.93333,
      "name": "U S SOLDIERS HOME DC, DC US",
      "datacoverage": 0.9999,
      "id": "GHCND:USC00189035",
      "elevationUnit": "METERS",
      "longitude": -77.01667
    },
    {
      "elevation": 24.4,
      "mindate": "1895-01-01",
      "maxdate": "1896-02-29",
      "latitude": 38.8,
      "name": "UPPER MARLBORO, MD US",
      "datacoverage": 0.931,
      "id": "GHCND:USC00189065",
      "elevationUnit": "METERS",
      "longitude": -76.766667
    },
    {
      "elevation": 39.6,
      "mindate": "1956-05-01",
      "maxdate": "2016-08-31",
      "latitude": 38.8519,
      "name": "UPPER MARLBORO 3 NNW, MD US",
      "datacoverage": 1,
      "id": "GHCND:USC00189070",
      "elevationUnit": "METERS",
      "longitude": -76.7683
    },
    {
      "elevation": 30.5,
      "mindate": "1896-01-01",
      "maxdate": "1917-03-31",
      "latitude": 39.433333,
      "name": "VAN BIBBER, MD US",
      "datacoverage": 0.953,
      "id": "GHCND:USC00189115",
      "elevationUnit": "METERS",
      "longitude": -76.3
    },
    {
      "elevation": 3,
      "mindate": "1949-01-01",
      "maxdate": "2010-12-31",
      "latitude": 38.4875,
      "name": "VIENNA, MD US",
      "datacoverage": 1,
      "id": "GHCND:USC00189140",
      "elevationUnit": "METERS",
      "longitude": -75.8212
    },
    {
      "elevation": 92,
      "mindate": "1950-01-01",
      "maxdate": "1960-02-29",
      "latitude": 39.05,
      "name": "VIERS MILL, MD US",
      "datacoverage": 0.9741,
      "id": "GHCND:USC00189187",
      "elevationUnit": "METERS",
      "longitude": -77.08333
    },
    {
      "elevation": 64,
      "mindate": "1948-08-01",
      "maxdate": "1977-09-30",
      "latitude": 38.65167,
      "name": "WALDORF POLICE BRRCK, MD US",
      "datacoverage": 0.9943,
      "id": "GHCND:USC00189195",
      "elevationUnit": "METERS",
      "longitude": -76.88056
    },
    {
      "elevation": 70.1,
      "mindate": "1948-08-01",
      "maxdate": "1962-02-28",
      "latitude": 39.16667,
      "name": "WATERLOO POLICE BARR, MD US",
      "datacoverage": 1,
      "id": "GHCND:USC00189314",
      "elevationUnit": "METERS",
      "longitude": -76.78333
    },
    {
      "elevation": 49.1,
      "mindate": "1947-04-01",
      "maxdate": "1952-07-31",
      "latitude": 38.95,
      "name": "WEST LANHAM HILLS, MD US",
      "datacoverage": 0.9993,
      "id": "GHCND:USC00189400",
      "elevationUnit": "METERS",
      "longitude": -76.88333
    },
    {
      "elevation": 305.1,
      "mindate": "1894-11-01",
      "maxdate": "1968-11-30",
      "latitude": 39.48333,
      "name": "WESTERNPORT, WV US",
      "datacoverage": 1,
      "id": "GHCND:USC00189405",
      "elevationUnit": "METERS",
      "longitude": -79.05
    },
    {
      "elevation": 289.9,
      "mindate": "1968-01-01",
      "maxdate": "1977-03-31",
      "latitude": 39.48333,
      "name": "WESTERNPORT UPRC, WV US",
      "datacoverage": 0.8975,
      "id": "GHCND:USC00189409",
      "elevationUnit": "METERS",
      "longitude": -79.05
    },
    {
      "elevation": 262.1,
      "mindate": "1893-01-01",
      "maxdate": "1979-01-31",
      "latitude": 39.55,
      "name": "WESTMINSTER 2 SSE, MD US",
      "datacoverage": 0.7406,
      "id": "GHCND:USC00189435",
      "elevationUnit": "METERS",
      "longitude": -76.98333
    },
    {
      "elevation": 228.6,
      "mindate": "1979-01-01",
      "maxdate": "2013-08-15",
      "latitude": 39.5736,
      "name": "WESTMINSTER, MD US",
      "datacoverage": 1,
      "id": "GHCND:USC00189440",
      "elevationUnit": "METERS",
      "longitude": -76.9883
    },
    {
      "elevation": 9.1,
      "mindate": "1948-12-01",
      "maxdate": "1951-06-30",
      "latitude": 38.4,
      "name": "WHALEYSVILLE, MD US",
      "datacoverage": 1,
      "id": "GHCND:USC00189497",
      "elevationUnit": "METERS",
      "longitude": -75.3
    },
    {
      "elevation": 100.6,
      "mindate": "1961-01-01",
      "maxdate": "1977-12-31",
      "latitude": 39.06667,
      "name": "WHEATON REGIONAL PARK, MD US",
      "datacoverage": 0.9904,
      "id": "GHCND:USC00189502",
      "elevationUnit": "METERS",
      "longitude": -77.03333
    },
    {
      "elevation": 107,
      "mindate": "1948-08-01",
      "maxdate": "1953-06-30",
      "latitude": 39.61667,
      "name": "WHITE HALL, MD US",
      "datacoverage": 1,
      "id": "GHCND:USC00189507",
      "elevationUnit": "METERS",
      "longitude": -76.63333
    },
    {
      "elevation": 109.7,
      "mindate": "1938-11-01",
      "maxdate": "2025-03-07",
      "latitude": 39.6109,
      "name": "WILLIAMSPORT, MD US",
      "datacoverage": 1,
      "id": "GHCND:USC00189570",
      "elevationUnit": "METERS",
      "longitude": -77.8471
    },
    {
      "elevation": 144.8,
      "mindate": "1944-12-01",
      "maxdate": "1946-01-31",
      "latitude": 39.266667,
      "name": "WILTONDALE, MD US",
      "datacoverage": 0.4309,
      "id": "GHCND:USC00189590",
      "elevationUnit": "METERS",
      "longitude": -76.583333
    },
    {
      "elevation": 43.3,
      "mindate": "1860-02-01",
      "maxdate": "1866-01-31",
      "latitude": 38.90028,
      "name": "WISCONSIN AVE, DC US",
      "datacoverage": 0.6871,
      "id": "GHCND:USC00189674",
      "elevationUnit": "METERS",
      "longitude": -77.06111
    },
    {
      "elevation": 140.2,
      "mindate": "1893-01-01",
      "maxdate": "2010-12-31",
      "latitude": 39.33333,
      "name": "WOODSTOCK, MD US",
      "datacoverage": 1,
      "id": "GHCND:USC00189750",
      "elevationUnit": "METERS",
      "longitude": -76.86667
    },
    {
      "elevation": 228.9,
      "mindate": "1893-01-01",
      "maxdate": "1978-09-30",
      "latitude": 42.65,
      "name": "ADAMS, MA US",
      "datacoverage": 0.6589,
      "id": "GHCND:USC00190049",
      "elevationUnit": "METERS",
      "longitude": -73.1
    },
    {
      "elevation": 44.2,
      "mindate": "1893-01-01",
      "maxdate": "2025-03-07",
      "latitude": 42.3861,
      "name": "AMHERST, MA US",
      "datacoverage": 1,
      "id": "GHCND:USC00190120",
      "elevationUnit": "METERS",
      "longitude": -72.5374
    },
    {
      "elevation": 84.1,
      "mindate": "1890-01-01",
      "maxdate": "1897-08-31",
      "latitude": 42.65,
      "name": "ANDOVER, MA US",
      "datacoverage": 0.7066,
      "id": "GHCND:USC00190130",
      "elevationUnit": "METERS",
      "longitude": -71.133333
    },
    {
      "elevation": 54.9,
      "mindate": "1943-01-01",
      "maxdate": "1950-01-31",
      "latitude": 42.41667,
      "name": "ARLINGTON, MA US",
      "datacoverage": 1,
      "id": "GHCND:USC00190166",
      "elevationUnit": "METERS",
      "longitude": -71.18333
    },
    {
      "elevation": 337.7,
      "mindate": "1906-06-01",
      "maxdate": "2025-03-07",
      "latitude": 42.6178,
      "name": "ASHBURNHAM, MA US",
      "datacoverage": 1,
      "id": "GHCND:USC00190190",
      "elevationUnit": "METERS",
      "longitude": -71.9159
    },
    {
      "elevation": 349.3,
      "mindate": "2003-10-01",
      "maxdate": "2025-03-05",
      "latitude": 42.6617,
      "name": "ASHBURNHAM NORTH, MA US",
      "datacoverage": 1,
      "id": "GHCND:USC00190192",
      "elevationUnit": "METERS",
      "longitude": -71.9359
    },
    {
      "elevation": 408.4,
      "mindate": "1978-04-01",
      "maxdate": "2012-08-01",
      "latitude": 42.5134,
      "name": "ASHFIELD, MA US",
      "datacoverage": 1,
      "id": "GHCND:USC00190213",
      "elevationUnit": "METERS",
      "longitude": -72.8507
    },
    {
      "elevation": 294.1,
      "mindate": "2012-01-01",
      "maxdate": "2016-04-21",
      "latitude": 42.5457,
      "name": "ASHFIELD 2 NE, MA US",
      "datacoverage": 0.9994,
      "id": "GHCND:USC00190214",
      "elevationUnit": "METERS",
      "longitude": -72.7802
    },
    {
      "elevation": 70.1,
      "mindate": "1893-01-01",
      "maxdate": "1969-03-31",
      "latitude": 42.25,
      "name": "ASHLAND, MA US",
      "datacoverage": 0.9979,
      "id": "GHCND:USC00190218",
      "elevationUnit": "METERS",
      "longitude": -71.46667
    },
    {
      "elevation": 259.1,
      "mindate": "1930-10-01",
      "maxdate": "1960-09-30",
      "latitude": 42.58333,
      "name": "ATHOL, MA US",
      "datacoverage": 0.9833,
      "id": "GHCND:USC00190257",
      "elevationUnit": "METERS",
      "longitude": -72.21667
    },
    {
      "elevation": 30.5,
      "mindate": "1895-09-01",
      "maxdate": "1901-03-31",
      "latitude": 41.933333,
      "name": "ATTLEBORO, MA US",
      "datacoverage": 0.911,
      "id": "GHCND:USC00190270",
      "elevationUnit": "METERS",
      "longitude": -71.333333
    },
    {
      "elevation": 57,
      "mindate": "1905-11-01",
      "maxdate": "1925-07-31",
      "latitude": 42.1,
      "name": "BAKER S BRIDGE, MA US",
      "datacoverage": 0.9917,
      "id": "GHCND:USC00190360",
      "elevationUnit": "METERS",
      "longitude": -71.333333
    },
    {
      "elevation": 251.5,
      "mindate": "1959-01-01",
      "maxdate": "2025-03-06",
      "latitude": 42.428,
      "name": "BARRE FALLS DAM, MA US",
      "datacoverage": 1,
      "id": "GHCND:USC00190408",
      "elevationUnit": "METERS",
      "longitude": -72.0275
    },
    {
      "elevation": 485.2,
      "mindate": "1973-07-01",
      "maxdate": "1987-12-31",
      "latitude": 42.31667,
      "name": "BECKET 2 SW, MA US",
      "datacoverage": 0.9539,
      "id": "GHCND:USC00190510",
      "elevationUnit": "METERS",
      "longitude": -73.11667
    },
    {
      "elevation": 48.8,
      "mindate": "1957-01-01",
      "maxdate": "2010-12-31",
      "latitude": 42.48333,
      "name": "BEDFORD, MA US",
      "datacoverage": 1,
      "id": "GHCND:USC00190535",
      "elevationUnit": "METERS",
      "longitude": -71.28333
    },
    {
      "elevation": 48.8,
      "mindate": "1893-04-01",
      "maxdate": "1923-09-30",
      "latitude": 42.466667,
      "name": "BEDFORD, MA US",
      "datacoverage": 0.9892,
      "id": "GHCND:USC00190538",
      "elevationUnit": "METERS",
      "longitude": -71.25
    },
    {
      "elevation": 18.9,
      "mindate": "1936-02-01",
      "maxdate": "2010-12-31",
      "latitude": 42.23333,
      "name": "BEECHWOOD, MA US",
      "datacoverage": 1,
      "id": "GHCND:USC00190551",
      "elevationUnit": "METERS",
      "longitude": -70.81667
    },
    {
      "elevation": 167.6,
      "mindate": "1942-01-01",
      "maxdate": "2025-03-06",
      "latitude": 42.2796,
      "name": "BELCHERTOWN, MA US",
      "datacoverage": 1,
      "id": "GHCND:USC00190562",
      "elevationUnit": "METERS",
      "longitude": -72.3482
    }
  ]
}
