{
  "metadata": {
    "resultset": {
      "offset": 101500,
      "count": 154115,
      "limit": 100
    }
  },
  "results": [
    {
      "elevation": 719.9,
      "mindate": "2008-06-01",
      "maxdate": "2019-12-24",
      "latitude": 35.33631944,
      "name": "ETOWAH 1.9 NW, NC US",
      "datacoverage": 1,
      "id": "GHCND:US1NCHN0011",
      "elevationUnit": "METERS",
      "longitude": -82.61565278
    },
    {
      "elevation": 647.7,
      "mindate": "2008-07-01",
      "maxdate": "2025-03-07",
      "latitude": 35.291041,
      "name": "EAST FLAT ROCK 0.5 NNE, NC US",
      "datacoverage": 1,
      "id": "GHCND:US1NCHN0012",
      "elevationUnit": "METERS",
      "longitude": -82.414334
    },
    {
      "elevation": 667.5,
      "mindate": "2008-07-01",
      "maxdate": "2018-08-31",
      "latitude": 35.32015,
      "name": "FLAT ROCK 4.7 NE, NC US",
      "datacoverage": 0.9999,
      "id": "GHCND:US1NCHN0013",
      "elevationUnit": "METERS",
      "longitude": -82.39926
    },
    {
      "elevation": 695.6,
      "mindate": "2009-06-01",
      "maxdate": "2025-02-16",
      "latitude": 35.279975,
      "name": "HENDERSONVILLE 4.8 SW, NC US",
      "datacoverage": 0.9993,
      "id": "GHCND:US1NCHN0014",
      "elevationUnit": "METERS",
      "longitude": -82.530936
    },
    {
      "elevation": 845.5,
      "mindate": "2009-08-01",
      "maxdate": "2025-03-05",
      "latitude": 35.385745,
      "name": "HENDERSONVILLE 9.6 ENE, NC US",
      "datacoverage": 1,
      "id": "GHCND:US1NCHN0015",
      "elevationUnit": "METERS",
      "longitude": -82.3103188
    },
    {
      "elevation": 671.2,
      "mindate": "2010-01-01",
      "maxdate": "2025-03-03",
      "latitude": 35.357838,
      "name": "HENDERSONVILLE 3.4 NW, NC US",
      "datacoverage": 1,
      "id": "GHCND:US1NCHN0016",
      "elevationUnit": "METERS",
      "longitude": -82.503878
    },
    {
      "elevation": 797.1,
      "mindate": "2010-04-01",
      "maxdate": "2019-08-13",
      "latitude": 35.25,
      "name": "FLAT ROCK 1.5 S, NC US",
      "datacoverage": 0.9859,
      "id": "GHCND:US1NCHN0018",
      "elevationUnit": "METERS",
      "longitude": -82.443
    },
    {
      "elevation": 670.9,
      "mindate": "2009-09-01",
      "maxdate": "2021-06-14",
      "latitude": 35.441231,
      "name": "FLETCHER 2.5 E, NC US",
      "datacoverage": 0.9993,
      "id": "GHCND:US1NCHN0019",
      "elevationUnit": "METERS",
      "longitude": -82.45965
    },
    {
      "elevation": 694.3,
      "mindate": "2012-09-01",
      "maxdate": "2025-03-05",
      "latitude": 35.2408639083446,
      "name": "HENDERSONVILLE 6.1 SSW, NC US",
      "datacoverage": 1,
      "id": "GHCND:US1NCHN0025",
      "elevationUnit": "METERS",
      "longitude": -82.5044102600841
    },
    {
      "elevation": 675.1,
      "mindate": "2013-04-01",
      "maxdate": "2014-06-16",
      "latitude": 35.2696838378906,
      "name": "HENDERSONVILLE 3.6 S, NC US",
      "datacoverage": 1,
      "id": "GHCND:US1NCHN0026",
      "elevationUnit": "METERS",
      "longitude": -82.4695129394531
    },
    {
      "elevation": 698.6,
      "mindate": "2013-09-01",
      "maxdate": "2025-03-05",
      "latitude": 35.3915100097656,
      "name": "HENDERSONVILLE 4.9 NNE, NC US",
      "datacoverage": 1,
      "id": "GHCND:US1NCHN0027",
      "elevationUnit": "METERS",
      "longitude": -82.4440383911133
    },
    {
      "elevation": 654.1,
      "mindate": "2013-10-01",
      "maxdate": "2025-03-04",
      "latitude": 35.288337,
      "name": "HENDERSONVILLE 2.6 SSW, NC US",
      "datacoverage": 1,
      "id": "GHCND:US1NCHN0028",
      "elevationUnit": "METERS",
      "longitude": -82.482811
    },
    {
      "elevation": 753.2,
      "mindate": "2013-10-01",
      "maxdate": "2022-03-24",
      "latitude": 35.25262,
      "name": "FLAT ROCK 1.6 SE, NC US",
      "datacoverage": 0.9335,
      "id": "GHCND:US1NCHN0029",
      "elevationUnit": "METERS",
      "longitude": -82.42473
    },
    {
      "elevation": 823,
      "mindate": "2014-01-01",
      "maxdate": "2025-03-06",
      "latitude": 35.3084,
      "name": "LAUREL PARK 1.5 W, NC US",
      "datacoverage": 1,
      "id": "GHCND:US1NCHN0030",
      "elevationUnit": "METERS",
      "longitude": -82.5274
    },
    {
      "elevation": 647.1,
      "mindate": "2014-04-01",
      "maxdate": "2022-12-29",
      "latitude": 35.2904243469238,
      "name": "HENDERSONVILLE 2.4 SSE, NC US",
      "datacoverage": 0.9993,
      "id": "GHCND:US1NCHN0032",
      "elevationUnit": "METERS",
      "longitude": -82.4430770874023
    },
    {
      "elevation": 665.7,
      "mindate": "2014-05-01",
      "maxdate": "2025-03-05",
      "latitude": 35.288142,
      "name": "HENDERSONVILLE 5.1 WSW, NC US",
      "datacoverage": 0.9987,
      "id": "GHCND:US1NCHN0033",
      "elevationUnit": "METERS",
      "longitude": -82.542124
    },
    {
      "elevation": 677.3,
      "mindate": "2014-08-01",
      "maxdate": "2017-03-27",
      "latitude": 35.31494140625,
      "name": "HENDERSONVILLE 5.8 W, NC US",
      "datacoverage": 0.9996,
      "id": "GHCND:US1NCHN0034",
      "elevationUnit": "METERS",
      "longitude": -82.5650329589844
    },
    {
      "elevation": 695.9,
      "mindate": "2015-04-15",
      "maxdate": "2018-09-17",
      "latitude": 35.338018,
      "name": "DANA 0.3 NNE, NC US",
      "datacoverage": 0.2029,
      "id": "GHCND:US1NCHN0037",
      "elevationUnit": "METERS",
      "longitude": -82.373407
    },
    {
      "elevation": 675.7,
      "mindate": "2015-06-01",
      "maxdate": "2025-03-07",
      "latitude": 35.321685,
      "name": "ETOWAH 1.1 WNW, NC US",
      "datacoverage": 0.9991,
      "id": "GHCND:US1NCHN0038",
      "elevationUnit": "METERS",
      "longitude": -82.612622
    },
    {
      "elevation": 668.1,
      "mindate": "2016-04-28",
      "maxdate": "2025-03-05",
      "latitude": 35.3751,
      "name": "MOUNTAIN HOME 0.9 WNW, NC US",
      "datacoverage": 0.5962,
      "id": "GHCND:US1NCHN0039",
      "elevationUnit": "METERS",
      "longitude": -82.5191
    },
    {
      "elevation": 676.7,
      "mindate": "2016-05-22",
      "maxdate": "2025-03-07",
      "latitude": 35.356746,
      "name": "HENDERSONVILLE 4.4 NW, NC US",
      "datacoverage": 0.9461,
      "id": "GHCND:US1NCHN0040",
      "elevationUnit": "METERS",
      "longitude": -82.526631
    },
    {
      "elevation": 731.5,
      "mindate": "2016-07-31",
      "maxdate": "2020-12-24",
      "latitude": 35.296329498291,
      "name": "HENDERSONVILLE 4.6 WSW, NC US",
      "datacoverage": 0.3383,
      "id": "GHCND:US1NCHN0041",
      "elevationUnit": "METERS",
      "longitude": -82.5380477905273
    },
    {
      "elevation": 858.3,
      "mindate": "2017-01-18",
      "maxdate": "2025-03-07",
      "latitude": 35.476,
      "name": "GERTON 0.4 SW, NC US",
      "datacoverage": 0.9993,
      "id": "GHCND:US1NCHN0044",
      "elevationUnit": "METERS",
      "longitude": -82.353
    },
    {
      "elevation": 761.7,
      "mindate": "2016-06-30",
      "maxdate": "2024-09-20",
      "latitude": 35.346215,
      "name": "HENDERSONVILLE 3.5 WNW, NC US",
      "datacoverage": 0.7862,
      "id": "GHCND:US1NCHN0046",
      "elevationUnit": "METERS",
      "longitude": -82.515418
    },
    {
      "elevation": 709.3,
      "mindate": "2004-09-07",
      "maxdate": "2025-03-07",
      "latitude": 35.2852,
      "name": "HENDERSONVILLE 3.3 SW, NC US",
      "datacoverage": 0.9791,
      "id": "GHCND:US1NCHN0047",
      "elevationUnit": "METERS",
      "longitude": -82.50115
    },
    {
      "elevation": 671.5,
      "mindate": "2017-05-24",
      "maxdate": "2020-08-05",
      "latitude": 35.30527,
      "name": "HENDERSONVILLE 1.4 SW, NC US",
      "datacoverage": 0.7376,
      "id": "GHCND:US1NCHN0048",
      "elevationUnit": "METERS",
      "longitude": -82.47638
    },
    {
      "elevation": 639.2,
      "mindate": "2017-04-01",
      "maxdate": "2018-09-19",
      "latitude": 35.352798,
      "name": "HENDERSONVILLE 2.4 NNE, NC US",
      "datacoverage": 0.9308,
      "id": "GHCND:US1NCHN0049",
      "elevationUnit": "METERS",
      "longitude": -82.442428
    },
    {
      "elevation": 690.1,
      "mindate": "2017-03-25",
      "maxdate": "2018-10-19",
      "latitude": 35.24896,
      "name": "HENDERSONVILLE 6.3 SW, NC US",
      "datacoverage": 0.8955,
      "id": "GHCND:US1NCHN0051",
      "elevationUnit": "METERS",
      "longitude": -82.52971
    },
    {
      "elevation": 808.6,
      "mindate": "2017-03-30",
      "maxdate": "2018-10-16",
      "latitude": 35.343294,
      "name": "HENDERSONVILLE 3.1 WNW, NC US",
      "datacoverage": 0.9488,
      "id": "GHCND:US1NCHN0052",
      "elevationUnit": "METERS",
      "longitude": -82.510935
    },
    {
      "elevation": 661.7,
      "mindate": "2017-03-29",
      "maxdate": "2025-03-07",
      "latitude": 35.280196,
      "name": "FLAT ROCK 1.0 NE, NC US",
      "datacoverage": 0.9991,
      "id": "GHCND:US1NCHN0053",
      "elevationUnit": "METERS",
      "longitude": -82.428522
    },
    {
      "elevation": 654.4,
      "mindate": "2017-08-12",
      "maxdate": "2025-03-07",
      "latitude": 35.40352,
      "name": "MILLS RIVER 1.1 N, NC US",
      "datacoverage": 0.9991,
      "id": "GHCND:US1NCHN0054",
      "elevationUnit": "METERS",
      "longitude": -82.56427
    },
    {
      "elevation": 641,
      "mindate": "2017-12-28",
      "maxdate": "2020-07-31",
      "latitude": 35.314907,
      "name": "HENDERSONVILLE 1.1 ESE, NC US",
      "datacoverage": 0.8862,
      "id": "GHCND:US1NCHN0056",
      "elevationUnit": "METERS",
      "longitude": -82.44518
    },
    {
      "elevation": 652.3,
      "mindate": "2019-01-10",
      "maxdate": "2021-01-16",
      "latitude": 35.18562,
      "name": "SALUDA 3.8 SSW, NC US",
      "datacoverage": 0.2547,
      "id": "GHCND:US1NCHN0057",
      "elevationUnit": "METERS",
      "longitude": -82.36954
    },
    {
      "elevation": 634,
      "mindate": "2019-08-06",
      "maxdate": "2022-05-27",
      "latitude": 35.40001,
      "name": "FLETCHER 2.6 SSW, NC US",
      "datacoverage": 0.3843,
      "id": "GHCND:US1NCHN0060",
      "elevationUnit": "METERS",
      "longitude": -82.52373
    },
    {
      "elevation": 655,
      "mindate": "2019-11-16",
      "maxdate": "2025-03-07",
      "latitude": 35.307278,
      "name": "HENDERSONVILLE 1.0 SSW, NC US",
      "datacoverage": 0.9139,
      "id": "GHCND:US1NCHN0061",
      "elevationUnit": "METERS",
      "longitude": -82.466467
    },
    {
      "elevation": 703.8,
      "mindate": "2020-05-13",
      "maxdate": "2025-03-07",
      "latitude": 35.475405,
      "name": "BAT CAVE 1.8 NNW, NC US",
      "datacoverage": 0.9358,
      "id": "GHCND:US1NCHN0063",
      "elevationUnit": "METERS",
      "longitude": -82.30415
    },
    {
      "elevation": 645,
      "mindate": "2021-06-15",
      "maxdate": "2025-03-05",
      "latitude": 35.405879,
      "name": "FLETCHER 2.4 SW, NC US",
      "datacoverage": 0.9991,
      "id": "GHCND:US1NCHN0065",
      "elevationUnit": "METERS",
      "longitude": -82.527221
    },
    {
      "elevation": 881.2,
      "mindate": "2021-07-11",
      "maxdate": "2024-04-03",
      "latitude": 35.232388,
      "name": "ZIRCONIA 3.5 WSW, NC US",
      "datacoverage": 0.1263,
      "id": "GHCND:US1NCHN0066",
      "elevationUnit": "METERS",
      "longitude": -82.475886
    },
    {
      "elevation": 677.6,
      "mindate": "2023-01-28",
      "maxdate": "2025-03-07",
      "latitude": 35.19833,
      "name": "SALUDA 2.8 SSW, NC US",
      "datacoverage": 0.9625,
      "id": "GHCND:US1NCHN0067",
      "elevationUnit": "METERS",
      "longitude": -82.357778
    },
    {
      "elevation": 756.5,
      "mindate": "2023-08-30",
      "maxdate": "2025-03-07",
      "latitude": 35.303377,
      "name": "LAUREL PARK 0.9 SW, NC US",
      "datacoverage": 0.9083,
      "id": "GHCND:US1NCHN0071",
      "elevationUnit": "METERS",
      "longitude": -82.511943
    },
    {
      "elevation": 659.6,
      "mindate": "2023-11-29",
      "maxdate": "2025-03-05",
      "latitude": 35.37121,
      "name": "MOUNTAIN HOME 0.6 W, NC US",
      "datacoverage": 0.9819,
      "id": "GHCND:US1NCHN0072",
      "elevationUnit": "METERS",
      "longitude": -82.515229
    },
    {
      "elevation": 62.8,
      "mindate": "2007-08-01",
      "maxdate": "2009-09-22",
      "latitude": 35.41867,
      "name": "LILLINGTON 4.8 ENE, NC US",
      "datacoverage": 0.9993,
      "id": "GHCND:US1NCHR0001",
      "elevationUnit": "METERS",
      "longitude": -78.734146
    },
    {
      "elevation": 75.9,
      "mindate": "2007-08-01",
      "maxdate": "2025-03-07",
      "latitude": 35.4049,
      "name": "COATS 0.7 W, NC US",
      "datacoverage": 0.9998,
      "id": "GHCND:US1NCHR0002",
      "elevationUnit": "METERS",
      "longitude": -78.681
    },
    {
      "elevation": 103.9,
      "mindate": "2009-03-01",
      "maxdate": "2025-03-07",
      "latitude": 35.4028,
      "name": "LILLINGTON 2.0 W, NC US",
      "datacoverage": 0.9997,
      "id": "GHCND:US1NCHR0007",
      "elevationUnit": "METERS",
      "longitude": -78.8508
    },
    {
      "elevation": 123.7,
      "mindate": "2009-10-01",
      "maxdate": "2014-09-17",
      "latitude": 35.26685,
      "name": "CAMERON 10.5 ESE, NC US",
      "datacoverage": 0.9168,
      "id": "GHCND:US1NCHR0010",
      "elevationUnit": "METERS",
      "longitude": -79.0798196
    },
    {
      "elevation": 69.8,
      "mindate": "2010-07-01",
      "maxdate": "2015-01-25",
      "latitude": 35.4923,
      "name": "FUQUAY VARINA 6.8 S, NC US",
      "datacoverage": 0.9988,
      "id": "GHCND:US1NCHR0014",
      "elevationUnit": "METERS",
      "longitude": -78.7958
    },
    {
      "elevation": 84.7,
      "mindate": "2011-07-01",
      "maxdate": "2022-11-10",
      "latitude": 35.32866667,
      "name": "CAMERON 7.6 E, NC US",
      "datacoverage": 0.9994,
      "id": "GHCND:US1NCHR0017",
      "elevationUnit": "METERS",
      "longitude": -79.11633333
    },
    {
      "elevation": 104.9,
      "mindate": "2013-05-01",
      "maxdate": "2020-02-06",
      "latitude": 35.5014,
      "name": "FUQUAY VARINA 7.6 SW, NC US",
      "datacoverage": 0.9994,
      "id": "GHCND:US1NCHR0021",
      "elevationUnit": "METERS",
      "longitude": -78.8745
    },
    {
      "elevation": 74.1,
      "mindate": "2013-05-10",
      "maxdate": "2016-05-20",
      "latitude": 35.3552,
      "name": "DUNN 3.1 N, NC US",
      "datacoverage": 0.121,
      "id": "GHCND:US1NCHR0022",
      "elevationUnit": "METERS",
      "longitude": -78.6069
    },
    {
      "elevation": 105.2,
      "mindate": "2013-04-01",
      "maxdate": "2024-12-18",
      "latitude": 35.5041198730469,
      "name": "FUQUAY VARINA 6.1 SSW, NC US",
      "datacoverage": 0.9998,
      "id": "GHCND:US1NCHR0026",
      "elevationUnit": "METERS",
      "longitude": -78.8170471191406
    },
    {
      "elevation": 56.7,
      "mindate": "2013-06-23",
      "maxdate": "2016-05-17",
      "latitude": 35.3099,
      "name": "ERWIN 1.1 SSE, NC US",
      "datacoverage": 0.9925,
      "id": "GHCND:US1NCHR0028",
      "elevationUnit": "METERS",
      "longitude": -78.6643
    },
    {
      "elevation": 89.3,
      "mindate": "2016-08-14",
      "maxdate": "2020-02-22",
      "latitude": 35.405216,
      "name": "COATS 0.2 ESE, NC US",
      "datacoverage": 1,
      "id": "GHCND:US1NCHR0034",
      "elevationUnit": "METERS",
      "longitude": -78.665881
    },
    {
      "elevation": 65.2,
      "mindate": "2017-06-01",
      "maxdate": "2018-04-09",
      "latitude": 35.390279,
      "name": "COATS 2.5 WSW, NC US",
      "datacoverage": 0.3301,
      "id": "GHCND:US1NCHR0037",
      "elevationUnit": "METERS",
      "longitude": -78.708428
    },
    {
      "elevation": 136.2,
      "mindate": "2018-06-20",
      "maxdate": "2023-06-08",
      "latitude": 35.32299,
      "name": "LILLINGTON 11.0 WSW, NC US",
      "datacoverage": 0.9047,
      "id": "GHCND:US1NCHR0042",
      "elevationUnit": "METERS",
      "longitude": -78.98909
    },
    {
      "elevation": 69.2,
      "mindate": "2018-08-01",
      "maxdate": "2025-03-07",
      "latitude": 35.4029,
      "name": "LILLINGTON 0.7 WNW, NC US",
      "datacoverage": 0.9991,
      "id": "GHCND:US1NCHR0043",
      "elevationUnit": "METERS",
      "longitude": -78.8262
    },
    {
      "elevation": 88.1,
      "mindate": "2019-12-09",
      "maxdate": "2022-04-27",
      "latitude": 35.4999131,
      "name": "ANGIER 0.7 S, NC US",
      "datacoverage": 0.9113,
      "id": "GHCND:US1NCHR0045",
      "elevationUnit": "METERS",
      "longitude": -78.7392294
    },
    {
      "elevation": 109.4,
      "mindate": "2020-09-11",
      "maxdate": "2022-06-09",
      "latitude": 35.300779,
      "name": "LILLINGTON 11.1 SW, NC US",
      "datacoverage": 0.998,
      "id": "GHCND:US1NCHR0047",
      "elevationUnit": "METERS",
      "longitude": -78.973077
    },
    {
      "elevation": 83.5,
      "mindate": "2021-03-20",
      "maxdate": "2022-03-20",
      "latitude": 35.2532279,
      "name": "CAMERON 11.8 ESE, NC US",
      "datacoverage": 0.653,
      "id": "GHCND:US1NCHR0049",
      "elevationUnit": "METERS",
      "longitude": -79.0625365
    },
    {
      "elevation": 118.9,
      "mindate": "2021-03-16",
      "maxdate": "2025-03-07",
      "latitude": 35.5739,
      "name": "HOLLY SPRINGS 6.6 SSW, NC US",
      "datacoverage": 0.9986,
      "id": "GHCND:US1NCHR0050",
      "elevationUnit": "METERS",
      "longitude": -78.896727
    },
    {
      "elevation": 101.8,
      "mindate": "2021-06-19",
      "maxdate": "2025-03-06",
      "latitude": 35.516163,
      "name": "ANGIER 0.4 N, NC US",
      "datacoverage": 1,
      "id": "GHCND:US1NCHR0051",
      "elevationUnit": "METERS",
      "longitude": -78.738902
    },
    {
      "elevation": 78.9,
      "mindate": "2023-04-09",
      "maxdate": "2025-03-06",
      "latitude": 35.28182,
      "name": "SANFORD 16.1 SSE, NC US",
      "datacoverage": 0.9484,
      "id": "GHCND:US1NCHR0054",
      "elevationUnit": "METERS",
      "longitude": -79.0254
    },
    {
      "elevation": 89,
      "mindate": "2023-09-01",
      "maxdate": "2025-03-07",
      "latitude": 35.2507,
      "name": "SPRING LAKE 5.7 NNW, NC US",
      "datacoverage": 1,
      "id": "GHCND:US1NCHR0055",
      "elevationUnit": "METERS",
      "longitude": -79.0289
    },
    {
      "elevation": 66.4,
      "mindate": "2024-05-12",
      "maxdate": "2025-02-21",
      "latitude": 35.28863,
      "name": "BUNNLEVEL 7.7 W, NC US",
      "datacoverage": 0.9956,
      "id": "GHCND:US1NCHR0056",
      "elevationUnit": "METERS",
      "longitude": -78.91773
    },
    {
      "elevation": 792.5,
      "mindate": "2007-09-01",
      "maxdate": "2013-06-02",
      "latitude": 35.5295,
      "name": "CANTON 1.2 S, NC US",
      "datacoverage": 0.6145,
      "id": "GHCND:US1NCHW0001",
      "elevationUnit": "METERS",
      "longitude": -82.84349
    },
    {
      "elevation": 1051.6,
      "mindate": "2007-10-01",
      "maxdate": "2025-03-07",
      "latitude": 35.5389,
      "name": "MAGGIE VALLEY 2.9 ENE, NC US",
      "datacoverage": 0.9999,
      "id": "GHCND:US1NCHW0002",
      "elevationUnit": "METERS",
      "longitude": -83.0467
    },
    {
      "elevation": 816.9,
      "mindate": "2007-11-01",
      "maxdate": "2025-03-07",
      "latitude": 35.488416,
      "name": "WAYNESVILLE 0.7 ENE, NC US",
      "datacoverage": 0.9803,
      "id": "GHCND:US1NCHW0004",
      "elevationUnit": "METERS",
      "longitude": -82.986752
    },
    {
      "elevation": 1112.8,
      "mindate": "2007-12-01",
      "maxdate": "2019-02-06",
      "latitude": 35.43889,
      "name": "CANTON 8.0 SSE, NC US",
      "datacoverage": 0.9999,
      "id": "GHCND:US1NCHW0005",
      "elevationUnit": "METERS",
      "longitude": -82.78734
    },
    {
      "elevation": 867.5,
      "mindate": "2007-11-01",
      "maxdate": "2020-01-14",
      "latitude": 35.46656,
      "name": "WAYNESVILLE 2.3 WSW, NC US",
      "datacoverage": 1,
      "id": "GHCND:US1NCHW0009",
      "elevationUnit": "METERS",
      "longitude": -83.03128
    },
    {
      "elevation": 1068.9,
      "mindate": "2007-12-01",
      "maxdate": "2014-05-13",
      "latitude": 35.4943666,
      "name": "WAYNESVILLE 3.9 E, NC US",
      "datacoverage": 1,
      "id": "GHCND:US1NCHW0010",
      "elevationUnit": "METERS",
      "longitude": -82.9287333
    },
    {
      "elevation": 1610,
      "mindate": "2007-12-01",
      "maxdate": "2015-07-06",
      "latitude": 35.47673,
      "name": "WAYNESVILLE 4.7 W, NC US",
      "datacoverage": 1,
      "id": "GHCND:US1NCHW0011",
      "elevationUnit": "METERS",
      "longitude": -83.08022
    },
    {
      "elevation": 837.6,
      "mindate": "2007-12-01",
      "maxdate": "2012-06-06",
      "latitude": 35.5193,
      "name": "CLYDE 1.5 SW, NC US",
      "datacoverage": 1,
      "id": "GHCND:US1NCHW0012",
      "elevationUnit": "METERS",
      "longitude": -82.933
    },
    {
      "elevation": 849.2,
      "mindate": "2007-12-01",
      "maxdate": "2016-02-05",
      "latitude": 35.563453,
      "name": "CLYDE 2.4 NNW, NC US",
      "datacoverage": 1,
      "id": "GHCND:US1NCHW0013",
      "elevationUnit": "METERS",
      "longitude": -82.933714
    },
    {
      "elevation": 954.6,
      "mindate": "2007-12-01",
      "maxdate": "2015-01-13",
      "latitude": 35.3981,
      "name": "CANTON 10.3 S, NC US",
      "datacoverage": 0.9995,
      "id": "GHCND:US1NCHW0014",
      "elevationUnit": "METERS",
      "longitude": -82.815215
    },
    {
      "elevation": 855.6,
      "mindate": "2008-01-01",
      "maxdate": "2019-11-24",
      "latitude": 35.600833,
      "name": "LAKE JUNALUSKA 5.1 N, NC US",
      "datacoverage": 1,
      "id": "GHCND:US1NCHW0015",
      "elevationUnit": "METERS",
      "longitude": -82.980833
    },
    {
      "elevation": 779.7,
      "mindate": "1998-06-01",
      "maxdate": "2023-12-14",
      "latitude": 35.526097,
      "name": "CLYDE 0.6 SSE, NC US",
      "datacoverage": 0.9366,
      "id": "GHCND:US1NCHW0016",
      "elevationUnit": "METERS",
      "longitude": -82.907325
    },
    {
      "elevation": 847.6,
      "mindate": "1998-06-01",
      "maxdate": "2021-11-16",
      "latitude": 35.56776,
      "name": "CANTON 1.5 N, NC US",
      "datacoverage": 0.89,
      "id": "GHCND:US1NCHW0017",
      "elevationUnit": "METERS",
      "longitude": -82.83938
    },
    {
      "elevation": 867.2,
      "mindate": "2008-02-01",
      "maxdate": "2011-10-05",
      "latitude": 35.53056,
      "name": "WAYNESVILLE 3.3 N, NC US",
      "datacoverage": 0.8377,
      "id": "GHCND:US1NCHW0018",
      "elevationUnit": "METERS",
      "longitude": -82.98521
    },
    {
      "elevation": 805.6,
      "mindate": "2008-04-01",
      "maxdate": "2010-10-14",
      "latitude": 35.5235,
      "name": "CLYDE 0.9 SW, NC US",
      "datacoverage": 0.9995,
      "id": "GHCND:US1NCHW0021",
      "elevationUnit": "METERS",
      "longitude": -82.9215
    },
    {
      "elevation": 785.8,
      "mindate": "2008-09-01",
      "maxdate": "2011-01-07",
      "latitude": 35.528416,
      "name": "CLYDE 2.6 W, NC US",
      "datacoverage": 0.7928,
      "id": "GHCND:US1NCHW0023",
      "elevationUnit": "METERS",
      "longitude": -82.95781
    },
    {
      "elevation": 979.3,
      "mindate": "2008-09-01",
      "maxdate": "2012-03-31",
      "latitude": 35.478402,
      "name": "WAYNESVILLE 2.7 W, NC US",
      "datacoverage": 1,
      "id": "GHCND:US1NCHW0024",
      "elevationUnit": "METERS",
      "longitude": -83.04414
    },
    {
      "elevation": 926.6,
      "mindate": "2009-01-01",
      "maxdate": "2025-03-07",
      "latitude": 35.493224,
      "name": "WAYNESVILLE 1.0 NW, NC US",
      "datacoverage": 1,
      "id": "GHCND:US1NCHW0025",
      "elevationUnit": "METERS",
      "longitude": -83.012711
    },
    {
      "elevation": 1008.9,
      "mindate": "2008-08-01",
      "maxdate": "2009-05-07",
      "latitude": 35.4462,
      "name": "WAYNESVILLE 4.2 SW, NC US",
      "datacoverage": 1,
      "id": "GHCND:US1NCHW0027",
      "elevationUnit": "METERS",
      "longitude": -83.0564
    },
    {
      "elevation": 902.5,
      "mindate": "2009-05-01",
      "maxdate": "2009-10-20",
      "latitude": 35.5161,
      "name": "MAGGIE VALLEY 0.3 ESE, NC US",
      "datacoverage": 0.998,
      "id": "GHCND:US1NCHW0029",
      "elevationUnit": "METERS",
      "longitude": -83.0867
    },
    {
      "elevation": 1126.8,
      "mindate": "2010-07-01",
      "maxdate": "2025-03-07",
      "latitude": 35.458483,
      "name": "WAYNESVILLE 2.2 SE, NC US",
      "datacoverage": 0.9996,
      "id": "GHCND:US1NCHW0030",
      "elevationUnit": "METERS",
      "longitude": -82.973765
    },
    {
      "elevation": 862.3,
      "mindate": "2011-02-01",
      "maxdate": "2016-07-08",
      "latitude": 35.429681,
      "name": "CANTON 8.6 SSW, NC US",
      "datacoverage": 1,
      "id": "GHCND:US1NCHW0031",
      "elevationUnit": "METERS",
      "longitude": -82.922228
    },
    {
      "elevation": 847,
      "mindate": "2012-04-01",
      "maxdate": "2017-01-29",
      "latitude": 35.6696968078613,
      "name": "CLYDE 9.5 N, NC US",
      "datacoverage": 1,
      "id": "GHCND:US1NCHW0032",
      "elevationUnit": "METERS",
      "longitude": -82.9348754882813
    },
    {
      "elevation": 792.2,
      "mindate": "2012-06-01",
      "maxdate": "2015-07-06",
      "latitude": 35.538611,
      "name": "CLYDE 0.4 NNE, NC US",
      "datacoverage": 1,
      "id": "GHCND:US1NCHW0034",
      "elevationUnit": "METERS",
      "longitude": -82.909722
    },
    {
      "elevation": 827.8,
      "mindate": "2012-07-01",
      "maxdate": "2025-03-07",
      "latitude": 35.558258,
      "name": "WAYNESVILLE 5.5 NNW, NC US",
      "datacoverage": 0.9998,
      "id": "GHCND:US1NCHW0035",
      "elevationUnit": "METERS",
      "longitude": -83.034368
    },
    {
      "elevation": 955.5,
      "mindate": "2013-06-01",
      "maxdate": "2016-03-15",
      "latitude": 35.3932952880859,
      "name": "CANTON 10.7 S, NC US",
      "datacoverage": 1,
      "id": "GHCND:US1NCHW0037",
      "elevationUnit": "METERS",
      "longitude": -82.8140029907227
    },
    {
      "elevation": 822,
      "mindate": "2013-06-01",
      "maxdate": "2014-05-19",
      "latitude": 35.488705,
      "name": "WAYNESVILLE 0.7 ENE, NC US",
      "datacoverage": 1,
      "id": "GHCND:US1NCHW0038",
      "elevationUnit": "METERS",
      "longitude": -82.986944
    },
    {
      "elevation": 1092.4,
      "mindate": "2014-01-01",
      "maxdate": "2022-08-17",
      "latitude": 35.5316505432129,
      "name": "MAGGIE VALLEY 2.1 ENE, NC US",
      "datacoverage": 1,
      "id": "GHCND:US1NCHW0039",
      "elevationUnit": "METERS",
      "longitude": -83.0595321655273
    },
    {
      "elevation": 1006.8,
      "mindate": "2014-01-01",
      "maxdate": "2017-08-23",
      "latitude": 35.573,
      "name": "CANTON 3.6 ENE, NC US",
      "datacoverage": 1,
      "id": "GHCND:US1NCHW0041",
      "elevationUnit": "METERS",
      "longitude": -82.789
    },
    {
      "elevation": 1604.2,
      "mindate": "2014-04-01",
      "maxdate": "2015-06-13",
      "latitude": 35.5475407093763,
      "name": "MAGGIE VALLEY 3.0 NW, NC US",
      "datacoverage": 0.998,
      "id": "GHCND:US1NCHW0045",
      "elevationUnit": "METERS",
      "longitude": -83.1283917278051
    },
    {
      "elevation": 783.9,
      "mindate": "2014-05-01",
      "maxdate": "2016-11-09",
      "latitude": 35.5713043212891,
      "name": "WAYNESVILLE 6.1 NNW, NC US",
      "datacoverage": 0.9497,
      "id": "GHCND:US1NCHW0047",
      "elevationUnit": "METERS",
      "longitude": -83.0208892822266
    },
    {
      "elevation": 824.8,
      "mindate": "2014-07-01",
      "maxdate": "2025-03-05",
      "latitude": 35.5374298095703,
      "name": "WAYNESVILLE 4.1 NNW, NC US",
      "datacoverage": 0.9987,
      "id": "GHCND:US1NCHW0048",
      "elevationUnit": "METERS",
      "longitude": -83.0303192138672
    },
    {
      "elevation": 849.8,
      "mindate": "2014-06-01",
      "maxdate": "2015-08-31",
      "latitude": 35.485945,
      "name": "WAYNESVILLE 0.2 NE, NC US",
      "datacoverage": 0.999,
      "id": "GHCND:US1NCHW0053",
      "elevationUnit": "METERS",
      "longitude": -82.994873
    },
    {
      "elevation": 1157,
      "mindate": "2015-03-01",
      "maxdate": "2017-03-26",
      "latitude": 35.50448,
      "name": "WAYNESVILLE 1.8 NW, NC US",
      "datacoverage": 0.9935,
      "id": "GHCND:US1NCHW0054",
      "elevationUnit": "METERS",
      "longitude": -83.01907
    },
    {
      "elevation": 864.4,
      "mindate": "2018-06-11",
      "maxdate": "2025-03-07",
      "latitude": 35.60944,
      "name": "CRABTREE 1.7 ENE, NC US",
      "datacoverage": 0.9915,
      "id": "GHCND:US1NCHW0058",
      "elevationUnit": "METERS",
      "longitude": -82.91278
    },
    {
      "elevation": 988.2,
      "mindate": "2019-01-01",
      "maxdate": "2020-03-23",
      "latitude": 35.5982,
      "name": "MAGGIE VALLEY 6.2 NNE, NC US",
      "datacoverage": 0.8356,
      "id": "GHCND:US1NCHW0061",
      "elevationUnit": "METERS",
      "longitude": -83.0455
    },
    {
      "elevation": 927.8,
      "mindate": "2020-04-24",
      "maxdate": "2020-08-30",
      "latitude": 35.44411,
      "name": "WAYNESVILLE 2.8 S, NC US",
      "datacoverage": 0.7984,
      "id": "GHCND:US1NCHW0062",
      "elevationUnit": "METERS",
      "longitude": -83.00024
    }
  ]
}
