{
  "metadata": {
    "resultset": {
      "offset": 99300,
      "count": 154115,
      "limit": 100
    }
  },
  "results": [
    {
      "elevation": 160,
      "mindate": "2022-09-20",
      "maxdate": "2025-03-07",
      "latitude": 38.3947,
      "name": "ARNOLD 2.3 S, MO US",
      "datacoverage": 1,
      "id": "GHCND:US1MOJF0032",
      "elevationUnit": "METERS",
      "longitude": -90.3725
    },
    {
      "elevation": 217.6,
      "mindate": "2021-12-05",
      "maxdate": "2025-03-07",
      "latitude": 38.2297273,
      "name": "CEDAR HILL LAKES 7.9 SSW, MO US",
      "datacoverage": 0.9223,
      "id": "GHCND:US1MOJF0034",
      "elevationUnit": "METERS",
      "longitude": -90.7269768
    },
    {
      "elevation": 157.3,
      "mindate": "2023-02-23",
      "maxdate": "2025-03-07",
      "latitude": 38.428447,
      "name": "ARNOLD 0.3 E, MO US",
      "datacoverage": 0.9341,
      "id": "GHCND:US1MOJF0036",
      "elevationUnit": "METERS",
      "longitude": -90.363712
    },
    {
      "elevation": 223.4,
      "mindate": "2024-08-01",
      "maxdate": "2025-03-04",
      "latitude": 38.431,
      "name": "PACIFIC 4.2 SE, MO US",
      "datacoverage": 0.9925,
      "id": "GHCND:US1MOJF0041",
      "elevationUnit": "METERS",
      "longitude": -90.704
    },
    {
      "elevation": 263,
      "mindate": "2006-05-01",
      "maxdate": "2025-03-06",
      "latitude": 38.6234,
      "name": "HOLDEN 6.2 S, MO US",
      "datacoverage": 1,
      "id": "GHCND:US1MOJH0001",
      "elevationUnit": "METERS",
      "longitude": -93.9869
    },
    {
      "elevation": 271.3,
      "mindate": "2008-07-01",
      "maxdate": "2011-02-18",
      "latitude": 38.739565,
      "name": "KINGSVILLE 0.2 SSE, MO US",
      "datacoverage": 1,
      "id": "GHCND:US1MOJH0003",
      "elevationUnit": "METERS",
      "longitude": -94.067385
    },
    {
      "elevation": 260,
      "mindate": "2014-03-01",
      "maxdate": "2017-08-06",
      "latitude": 38.906229,
      "name": "ODESSA 6.7 SSW, MO US",
      "datacoverage": 0.9986,
      "id": "GHCND:US1MOJH0005",
      "elevationUnit": "METERS",
      "longitude": -94.000517
    },
    {
      "elevation": 278,
      "mindate": "2015-05-01",
      "maxdate": "2019-10-24",
      "latitude": 38.7312,
      "name": "KINGSVILLE 2.2 WSW, MO US",
      "datacoverage": 0.9965,
      "id": "GHCND:US1MOJH0006",
      "elevationUnit": "METERS",
      "longitude": -94.1071
    },
    {
      "elevation": 310,
      "mindate": "2017-08-22",
      "maxdate": "2023-11-20",
      "latitude": 38.838187,
      "name": "KINGSVILLE 6.7 NNW, MO US",
      "datacoverage": 0.0714,
      "id": "GHCND:US1MOJH0008",
      "elevationUnit": "METERS",
      "longitude": -94.093227
    },
    {
      "elevation": 261.5,
      "mindate": "2021-01-01",
      "maxdate": "2025-03-07",
      "latitude": 38.915,
      "name": "WARRENSBURG 10.7 N, MO US",
      "datacoverage": 0.9382,
      "id": "GHCND:US1MOJH0011",
      "elevationUnit": "METERS",
      "longitude": -93.736
    },
    {
      "elevation": 259.1,
      "mindate": "2021-09-01",
      "maxdate": "2024-04-28",
      "latitude": 38.7350484,
      "name": "KNOB NOSTER 3.0 SE, MO US",
      "datacoverage": 0.643,
      "id": "GHCND:US1MOJH0012",
      "elevationUnit": "METERS",
      "longitude": -93.529423
    },
    {
      "elevation": 316.1,
      "mindate": "2006-03-01",
      "maxdate": "2025-01-11",
      "latitude": 37.105778,
      "name": "OAKLAND PARK 0.6 ESE, MO US",
      "datacoverage": 0.7449,
      "id": "GHCND:US1MOJS0003",
      "elevationUnit": "METERS",
      "longitude": -94.462992
    },
    {
      "elevation": 326.1,
      "mindate": "2007-01-01",
      "maxdate": "2017-10-21",
      "latitude": 37.155903,
      "name": "CARTHAGE 0.8 S, MO US",
      "datacoverage": 1,
      "id": "GHCND:US1MOJS0008",
      "elevationUnit": "METERS",
      "longitude": -94.314883
    },
    {
      "elevation": 271,
      "mindate": "2007-07-01",
      "maxdate": "2025-03-07",
      "latitude": 37.144641,
      "name": "CARL JUNCTION 3.1 WSW, MO US",
      "datacoverage": 0.9997,
      "id": "GHCND:US1MOJS0010",
      "elevationUnit": "METERS",
      "longitude": -94.596152
    },
    {
      "elevation": 285.9,
      "mindate": "2011-02-01",
      "maxdate": "2012-07-08",
      "latitude": 37.1632729,
      "name": "CARL JUNCTION 1.6 E, MO US",
      "datacoverage": 0.946,
      "id": "GHCND:US1MOJS0013",
      "elevationUnit": "METERS",
      "longitude": -94.51638
    },
    {
      "elevation": 305.7,
      "mindate": "2011-02-01",
      "maxdate": "2025-03-07",
      "latitude": 37.124585,
      "name": "CARTHAGE 3.8 SW, MO US",
      "datacoverage": 1,
      "id": "GHCND:US1MOJS0016",
      "elevationUnit": "METERS",
      "longitude": -94.357643
    },
    {
      "elevation": 285,
      "mindate": "2011-02-01",
      "maxdate": "2015-03-06",
      "latitude": 37.1448444,
      "name": "CARL JUNCTION 1.6 SE, MO US",
      "datacoverage": 1,
      "id": "GHCND:US1MOJS0018",
      "elevationUnit": "METERS",
      "longitude": -94.5273808
    },
    {
      "elevation": 350.2,
      "mindate": "2011-06-01",
      "maxdate": "2025-03-05",
      "latitude": 37.0650534,
      "name": "SARCOXIE 1.0 W, MO US",
      "datacoverage": 0.9925,
      "id": "GHCND:US1MOJS0019",
      "elevationUnit": "METERS",
      "longitude": -94.1401187
    },
    {
      "elevation": 341.7,
      "mindate": "2016-06-23",
      "maxdate": "2017-10-21",
      "latitude": 37.2256,
      "name": "SARCOXIE 11.4 NNE, MO US",
      "datacoverage": 0.9898,
      "id": "GHCND:US1MOJS0027",
      "elevationUnit": "METERS",
      "longitude": -94.0682
    },
    {
      "elevation": 327.1,
      "mindate": "2018-02-20",
      "maxdate": "2025-03-05",
      "latitude": 37.157328,
      "name": "CARTHAGE 4.5 E, MO US",
      "datacoverage": 0.9382,
      "id": "GHCND:US1MOJS0030",
      "elevationUnit": "METERS",
      "longitude": -94.233332
    },
    {
      "elevation": 319.4,
      "mindate": "2022-02-07",
      "maxdate": "2024-08-19",
      "latitude": 37.05846,
      "name": "JOPLIN 2.8 SW, MO US",
      "datacoverage": 0.1232,
      "id": "GHCND:US1MOJS0031",
      "elevationUnit": "METERS",
      "longitude": -94.5452
    },
    {
      "elevation": 303,
      "mindate": "2019-09-01",
      "maxdate": "2025-03-05",
      "latitude": 37.09597,
      "name": "JOPLIN 1.3 NW, MO US",
      "datacoverage": 0.9991,
      "id": "GHCND:US1MOJS0034",
      "elevationUnit": "METERS",
      "longitude": -94.519182
    },
    {
      "elevation": 247.5,
      "mindate": "2010-01-01",
      "maxdate": "2012-12-31",
      "latitude": 40.018917,
      "name": "NOVELTY 1.0 ENE, MO US",
      "datacoverage": 0.9165,
      "id": "GHCND:US1MOKN0001",
      "elevationUnit": "METERS",
      "longitude": -92.19078
    },
    {
      "elevation": 258.5,
      "mindate": "2015-09-20",
      "maxdate": "2018-05-02",
      "latitude": 40.0524698303408,
      "name": "NOVELTY 3.5 NW, MO US",
      "datacoverage": 0.4997,
      "id": "GHCND:US1MOKN0002",
      "elevationUnit": "METERS",
      "longitude": -92.2495637836255
    },
    {
      "elevation": 229.2,
      "mindate": "2017-05-21",
      "maxdate": "2024-06-26",
      "latitude": 40.101024,
      "name": "KNOX CITY 2.9 S, MO US",
      "datacoverage": 0.7567,
      "id": "GHCND:US1MOKN0003",
      "elevationUnit": "METERS",
      "longitude": -92.014175
    },
    {
      "elevation": 223.4,
      "mindate": "2011-02-01",
      "maxdate": "2012-07-04",
      "latitude": 39.196732,
      "name": "BOWLING GREEN 10.0 S, MO US",
      "datacoverage": 1,
      "id": "GHCND:US1MOLC0003",
      "elevationUnit": "METERS",
      "longitude": -91.16101
    },
    {
      "elevation": 177.7,
      "mindate": "2015-07-01",
      "maxdate": "2017-05-01",
      "latitude": 39.065,
      "name": "FOLEY 2.3 NW, MO US",
      "datacoverage": 0.6641,
      "id": "GHCND:US1MOLC0004",
      "elevationUnit": "METERS",
      "longitude": -90.775204
    },
    {
      "elevation": 369.1,
      "mindate": "2006-06-01",
      "maxdate": "2015-11-28",
      "latitude": 37.705141,
      "name": "LEBANON 7.5 WNW, MO US",
      "datacoverage": 1,
      "id": "GHCND:US1MOLD0001",
      "elevationUnit": "METERS",
      "longitude": -92.790188
    },
    {
      "elevation": 412.1,
      "mindate": "2008-01-01",
      "maxdate": "2019-10-15",
      "latitude": 37.585303,
      "name": "PHILLIPSBURG 3.4 NE, MO US",
      "datacoverage": 0.5515,
      "id": "GHCND:US1MOLD0008",
      "elevationUnit": "METERS",
      "longitude": -92.737481
    },
    {
      "elevation": 343.2,
      "mindate": "2009-08-01",
      "maxdate": "2012-03-20",
      "latitude": 37.814744,
      "name": "ELDRIDGE 0.9 N, MO US",
      "datacoverage": 1,
      "id": "GHCND:US1MOLD0013",
      "elevationUnit": "METERS",
      "longitude": -92.746094
    },
    {
      "elevation": 393.2,
      "mindate": "2009-09-01",
      "maxdate": "2015-10-20",
      "latitude": 37.5033,
      "name": "CONWAY 9.0 E, MO US",
      "datacoverage": 1,
      "id": "GHCND:US1MOLD0014",
      "elevationUnit": "METERS",
      "longitude": -92.6603
    },
    {
      "elevation": 383.1,
      "mindate": "2012-03-01",
      "maxdate": "2020-01-04",
      "latitude": 37.6458,
      "name": "LEBANON 2.4 SE, MO US",
      "datacoverage": 0.9999,
      "id": "GHCND:US1MOLD0021",
      "elevationUnit": "METERS",
      "longitude": -92.6298
    },
    {
      "elevation": 387.4,
      "mindate": "2012-03-01",
      "maxdate": "2013-11-22",
      "latitude": 37.66417,
      "name": "LEBANON 2.4 E, MO US",
      "datacoverage": 0.9987,
      "id": "GHCND:US1MOLD0022",
      "elevationUnit": "METERS",
      "longitude": -92.61822
    },
    {
      "elevation": 387.7,
      "mindate": "2012-03-01",
      "maxdate": "2025-03-07",
      "latitude": 37.6798858642578,
      "name": "LEBANON 0.6 N, MO US",
      "datacoverage": 0.9996,
      "id": "GHCND:US1MOLD0023",
      "elevationUnit": "METERS",
      "longitude": -92.6615295410156
    },
    {
      "elevation": 394.4,
      "mindate": "2008-03-30",
      "maxdate": "2025-02-10",
      "latitude": 37.6056938171387,
      "name": "PHILLIPSBURG 5.0 NW, MO US",
      "datacoverage": 0.998,
      "id": "GHCND:US1MOLD0026",
      "elevationUnit": "METERS",
      "longitude": -92.8484344482422
    },
    {
      "elevation": 392,
      "mindate": "2016-11-28",
      "maxdate": "2018-11-04",
      "latitude": 37.61346,
      "name": "LEBANON 9.8 WSW, MO US",
      "datacoverage": 0.2107,
      "id": "GHCND:US1MOLD0028",
      "elevationUnit": "METERS",
      "longitude": -92.823989
    },
    {
      "elevation": 365.5,
      "mindate": "2018-08-20",
      "maxdate": "2024-12-31",
      "latitude": 37.7618,
      "name": "LEBANON 6.3 N, MO US",
      "datacoverage": 0.9819,
      "id": "GHCND:US1MOLD0029",
      "elevationUnit": "METERS",
      "longitude": -92.6691
    },
    {
      "elevation": 273.1,
      "mindate": "2006-06-01",
      "maxdate": "2009-10-30",
      "latitude": 38.926053,
      "name": "ODESSA 5.5 SSE, MO US",
      "datacoverage": 0.9998,
      "id": "GHCND:US1MOLF0001",
      "elevationUnit": "METERS",
      "longitude": -93.909752
    },
    {
      "elevation": 245.4,
      "mindate": "2011-07-01",
      "maxdate": "2022-04-06",
      "latitude": 39.0784552,
      "name": "HIGGINSVILLE 1.0 NNW, MO US",
      "datacoverage": 0.8675,
      "id": "GHCND:US1MOLF0004",
      "elevationUnit": "METERS",
      "longitude": -93.7310772
    },
    {
      "elevation": 222.8,
      "mindate": "2011-04-01",
      "maxdate": "2011-12-05",
      "latitude": 38.9898384,
      "name": "CONCORDIA 2.1 E, MO US",
      "datacoverage": 0.998,
      "id": "GHCND:US1MOLF0005",
      "elevationUnit": "METERS",
      "longitude": -93.52876
    },
    {
      "elevation": 272.2,
      "mindate": "2012-01-01",
      "maxdate": "2017-08-06",
      "latitude": 39.0073062,
      "name": "ODESSA 1.9 ENE, MO US",
      "datacoverage": 0.706,
      "id": "GHCND:US1MOLF0006",
      "elevationUnit": "METERS",
      "longitude": -93.9212441
    },
    {
      "elevation": 271,
      "mindate": "2012-11-01",
      "maxdate": "2020-09-27",
      "latitude": 39.1532287597656,
      "name": "LEXINGTON 2.0 S, MO US",
      "datacoverage": 0.7811,
      "id": "GHCND:US1MOLF0007",
      "elevationUnit": "METERS",
      "longitude": -93.8780059814453
    },
    {
      "elevation": 262.1,
      "mindate": "2017-06-15",
      "maxdate": "2020-10-25",
      "latitude": 39.1847,
      "name": "LEXINGTON 0.3 NW, MO US",
      "datacoverage": 0.6729,
      "id": "GHCND:US1MOLF0012",
      "elevationUnit": "METERS",
      "longitude": -93.8785
    },
    {
      "elevation": 264,
      "mindate": "2016-11-24",
      "maxdate": "2021-12-29",
      "latitude": 39.1822,
      "name": "LEXINGTON 0.0 ENE, MO US",
      "datacoverage": 0.8462,
      "id": "GHCND:US1MOLF0013",
      "elevationUnit": "METERS",
      "longitude": -93.8745
    },
    {
      "elevation": 230.7,
      "mindate": "2020-09-20",
      "maxdate": "2024-08-24",
      "latitude": 38.97269,
      "name": "EMMA 0.3 S, MO US",
      "datacoverage": 0.9011,
      "id": "GHCND:US1MOLF0014",
      "elevationUnit": "METERS",
      "longitude": -93.495155
    },
    {
      "elevation": 253.6,
      "mindate": "2008-09-01",
      "maxdate": "2025-03-07",
      "latitude": 39.83804,
      "name": "BROOKFIELD 3.7 NNE, MO US",
      "datacoverage": 1,
      "id": "GHCND:US1MOLN0004",
      "elevationUnit": "METERS",
      "longitude": -93.06225
    },
    {
      "elevation": 272.5,
      "mindate": "2008-09-01",
      "maxdate": "2009-11-25",
      "latitude": 39.957009,
      "name": "PURDIN 6.4 E, MO US",
      "datacoverage": 1,
      "id": "GHCND:US1MOLN0005",
      "elevationUnit": "METERS",
      "longitude": -93.04712
    },
    {
      "elevation": 228.3,
      "mindate": "2010-08-01",
      "maxdate": "2012-01-12",
      "latitude": 39.7832242,
      "name": "BROOKFIELD 0.5 ESE, MO US",
      "datacoverage": 0.998,
      "id": "GHCND:US1MOLN0006",
      "elevationUnit": "METERS",
      "longitude": -93.0675019
    },
    {
      "elevation": 253.3,
      "mindate": "1998-06-17",
      "maxdate": "2025-03-03",
      "latitude": 39.947714,
      "name": "PURDIN 4.3 W, MO US",
      "datacoverage": 0.9986,
      "id": "GHCND:US1MOLN0008",
      "elevationUnit": "METERS",
      "longitude": -93.247935
    },
    {
      "elevation": 262.7,
      "mindate": "2021-02-21",
      "maxdate": "2023-10-03",
      "latitude": 39.855319,
      "name": "LINNEUS 4.4 ESE, MO US",
      "datacoverage": 0.9998,
      "id": "GHCND:US1MOLN0009",
      "elevationUnit": "METERS",
      "longitude": -93.110306
    },
    {
      "elevation": 148.4,
      "mindate": "2011-08-01",
      "maxdate": "2016-04-13",
      "latitude": 40.1293353,
      "name": "CANTON 0.3 E, MO US",
      "datacoverage": 0.5356,
      "id": "GHCND:US1MOLS0002",
      "elevationUnit": "METERS",
      "longitude": -91.5186028
    },
    {
      "elevation": 203.3,
      "mindate": "2017-07-05",
      "maxdate": "2024-07-07",
      "latitude": 40.005533,
      "name": "EWING 0.3 SW, MO US",
      "datacoverage": 0.0488,
      "id": "GHCND:US1MOLS0004",
      "elevationUnit": "METERS",
      "longitude": -91.718637
    },
    {
      "elevation": 232.9,
      "mindate": "2008-05-01",
      "maxdate": "2020-11-18",
      "latitude": 39.797851,
      "name": "CHILLICOTHE 0.9 WNW, MO US",
      "datacoverage": 0.9998,
      "id": "GHCND:US1MOLV0001",
      "elevationUnit": "METERS",
      "longitude": -93.568249
    },
    {
      "elevation": 227.7,
      "mindate": "2015-07-20",
      "maxdate": "2017-05-04",
      "latitude": 39.794126,
      "name": "CHILLICOTHE 0.8 WNW, MO US",
      "datacoverage": 0.4733,
      "id": "GHCND:US1MOLV0002",
      "elevationUnit": "METERS",
      "longitude": -93.56814
    },
    {
      "elevation": 224,
      "mindate": "2015-07-01",
      "maxdate": "2025-03-07",
      "latitude": 39.7750748,
      "name": "FSA CHILLICOTHE 1.5 SE, MO US",
      "datacoverage": 0.862,
      "id": "GHCND:US1MOLV0006",
      "elevationUnit": "METERS",
      "longitude": -93.53664
    },
    {
      "elevation": 234.4,
      "mindate": "2023-10-26",
      "maxdate": "2025-03-06",
      "latitude": 39.7449,
      "name": "UTICA 0.1 ESE, MO US",
      "datacoverage": 1,
      "id": "GHCND:US1MOLV0007",
      "elevationUnit": "METERS",
      "longitude": -93.6271
    },
    {
      "elevation": 445,
      "mindate": "2006-06-01",
      "maxdate": "2025-03-07",
      "latitude": 36.93056,
      "name": "AURORA 2.7 S, MO US",
      "datacoverage": 0.8813,
      "id": "GHCND:US1MOLW0003",
      "elevationUnit": "METERS",
      "longitude": -93.71884
    },
    {
      "elevation": 370.3,
      "mindate": "2006-03-01",
      "maxdate": "2022-08-12",
      "latitude": 37.249183,
      "name": "MILLER 6.2 WNW, MO US",
      "datacoverage": 0.9034,
      "id": "GHCND:US1MOLW0004",
      "elevationUnit": "METERS",
      "longitude": -93.943888
    },
    {
      "elevation": 371.9,
      "mindate": "2006-07-01",
      "maxdate": "2017-08-07",
      "latitude": 37.171955,
      "name": "HALLTOWN 1.6 SSE, MO US",
      "datacoverage": 0.282,
      "id": "GHCND:US1MOLW0005",
      "elevationUnit": "METERS",
      "longitude": -93.620894
    },
    {
      "elevation": 346.3,
      "mindate": "2008-04-01",
      "maxdate": "2025-03-06",
      "latitude": 37.253115,
      "name": "MILLER 9.2 WNW, MO US",
      "datacoverage": 0.9993,
      "id": "GHCND:US1MOLW0009",
      "elevationUnit": "METERS",
      "longitude": -94.000162
    },
    {
      "elevation": 411.8,
      "mindate": "2008-04-01",
      "maxdate": "2024-04-28",
      "latitude": 36.98258,
      "name": "VERONA 4.0 WNW, MO US",
      "datacoverage": 0.9986,
      "id": "GHCND:US1MOLW0012",
      "elevationUnit": "METERS",
      "longitude": -93.861733
    },
    {
      "elevation": 423.7,
      "mindate": "2008-06-01",
      "maxdate": "2010-08-14",
      "latitude": 36.995832,
      "name": "MARIONVILLE 0.4 SW, MO US",
      "datacoverage": 0.7406,
      "id": "GHCND:US1MOLW0013",
      "elevationUnit": "METERS",
      "longitude": -93.641929
    },
    {
      "elevation": 349,
      "mindate": "2009-09-01",
      "maxdate": "2010-02-19",
      "latitude": 37.17591,
      "name": "HALLTOWN 4.7 WSW, MO US",
      "datacoverage": 1,
      "id": "GHCND:US1MOLW0016",
      "elevationUnit": "METERS",
      "longitude": -93.71074
    },
    {
      "elevation": 376.4,
      "mindate": "2011-05-20",
      "maxdate": "2025-03-07",
      "latitude": 37.1022361,
      "name": "MOUNT VERNON 0.2 E, MO US",
      "datacoverage": 0.9996,
      "id": "GHCND:US1MOLW0025",
      "elevationUnit": "METERS",
      "longitude": -93.8134738
    },
    {
      "elevation": 414.2,
      "mindate": "2013-05-01",
      "maxdate": "2025-03-06",
      "latitude": 36.9466333,
      "name": "MONETT 1.8 N, MO US",
      "datacoverage": 0.9994,
      "id": "GHCND:US1MOLW0028",
      "elevationUnit": "METERS",
      "longitude": -93.9299
    },
    {
      "elevation": 420,
      "mindate": "2013-08-01",
      "maxdate": "2014-12-13",
      "latitude": 36.9652366638184,
      "name": "AURORA 1.2 WSW, MO US",
      "datacoverage": 1,
      "id": "GHCND:US1MOLW0030",
      "elevationUnit": "METERS",
      "longitude": -93.7413177490234
    },
    {
      "elevation": 393.8,
      "mindate": "2013-08-01",
      "maxdate": "2014-03-17",
      "latitude": 37.1025314331055,
      "name": "MOUNT VERNON 3.6 E, MO US",
      "datacoverage": 1,
      "id": "GHCND:US1MOLW0031",
      "elevationUnit": "METERS",
      "longitude": -93.7533416748047
    },
    {
      "elevation": 435.3,
      "mindate": "2018-03-19",
      "maxdate": "2025-02-18",
      "latitude": 37.068039,
      "name": "MARIONVILLE 4.7 N, MO US",
      "datacoverage": 0.8241,
      "id": "GHCND:US1MOLW0036",
      "elevationUnit": "METERS",
      "longitude": -93.634286
    },
    {
      "elevation": 401.4,
      "mindate": "2018-02-24",
      "maxdate": "2025-03-06",
      "latitude": 37.006959,
      "name": "PIERCE CITY 5.0 NE, MO US",
      "datacoverage": 0.9991,
      "id": "GHCND:US1MOLW0037",
      "elevationUnit": "METERS",
      "longitude": -93.950986
    },
    {
      "elevation": 214,
      "mindate": "2006-07-01",
      "maxdate": "2013-03-09",
      "latitude": 39.93125,
      "name": "EWING 7.4 SW, MO US",
      "datacoverage": 0.8455,
      "id": "GHCND:US1MOMA0001",
      "elevationUnit": "METERS",
      "longitude": -91.81257
    },
    {
      "elevation": 200.9,
      "mindate": "2006-09-01",
      "maxdate": "2009-01-01",
      "latitude": 39.795307,
      "name": "PALMYRA 0.1 SSW, MO US",
      "datacoverage": 0.875,
      "id": "GHCND:US1MOMA0003",
      "elevationUnit": "METERS",
      "longitude": -91.52557
    },
    {
      "elevation": 197.8,
      "mindate": "2010-11-01",
      "maxdate": "2025-03-07",
      "latitude": 39.70880055,
      "name": "HANNIBAL 0.4 ENE, MO US",
      "datacoverage": 0.9848,
      "id": "GHCND:US1MOMA0004",
      "elevationUnit": "METERS",
      "longitude": -91.37664079
    },
    {
      "elevation": 200.9,
      "mindate": "2011-03-01",
      "maxdate": "2025-03-07",
      "latitude": 39.8536379,
      "name": "PALMYRA 4.5 NNW, MO US",
      "datacoverage": 0.9993,
      "id": "GHCND:US1MOMA0005",
      "elevationUnit": "METERS",
      "longitude": -91.564134
    },
    {
      "elevation": 224.6,
      "mindate": "2015-10-01",
      "maxdate": "2024-05-16",
      "latitude": 39.657749,
      "name": "MONROE CITY 0.3 NW, MO US",
      "datacoverage": 0.998,
      "id": "GHCND:US1MOMA0007",
      "elevationUnit": "METERS",
      "longitude": -91.736704
    },
    {
      "elevation": 212.4,
      "mindate": "2023-09-12",
      "maxdate": "2024-11-21",
      "latitude": 39.725603,
      "name": "HANNIBAL 1.3 N, MO US",
      "datacoverage": 0.8271,
      "id": "GHCND:US1MOMA0010",
      "elevationUnit": "METERS",
      "longitude": -91.382172
    },
    {
      "elevation": 182.3,
      "mindate": "2023-08-01",
      "maxdate": "2025-03-07",
      "latitude": 39.74861,
      "name": "HANNIBAL 9.1 WNW, MO US",
      "datacoverage": 0.9466,
      "id": "GHCND:US1MOMA0011",
      "elevationUnit": "METERS",
      "longitude": -91.54611
    },
    {
      "elevation": 179.5,
      "mindate": "2024-03-08",
      "maxdate": "2025-03-07",
      "latitude": 39.7594,
      "name": "HANNIBAL 8.2 WNW, MO US",
      "datacoverage": 0.5968,
      "id": "GHCND:US1MOMA0013",
      "elevationUnit": "METERS",
      "longitude": -91.52252
    },
    {
      "elevation": 287.1,
      "mindate": "2006-06-01",
      "maxdate": "2011-11-08",
      "latitude": 39.909572,
      "name": "ETHEL 1.4 NW, MO US",
      "datacoverage": 0.6969,
      "id": "GHCND:US1MOMC0001",
      "elevationUnit": "METERS",
      "longitude": -92.757254
    },
    {
      "elevation": 240.8,
      "mindate": "2012-08-01",
      "maxdate": "2025-03-07",
      "latitude": 39.789509,
      "name": "MACON 4.6 NE, MO US",
      "datacoverage": 1,
      "id": "GHCND:US1MOMC0002",
      "elevationUnit": "METERS",
      "longitude": -92.413763
    },
    {
      "elevation": 267.6,
      "mindate": "2014-06-01",
      "maxdate": "2018-07-30",
      "latitude": 39.744154,
      "name": "MACON 0.4 NNW, MO US",
      "datacoverage": 0.9994,
      "id": "GHCND:US1MOMC0004",
      "elevationUnit": "METERS",
      "longitude": -92.473537
    },
    {
      "elevation": 256,
      "mindate": "2020-07-09",
      "maxdate": "2021-07-14",
      "latitude": 39.739151,
      "name": "MACON 0.8 E, MO US",
      "datacoverage": 1,
      "id": "GHCND:US1MOMC0006",
      "elevationUnit": "METERS",
      "longitude": -92.456377
    },
    {
      "elevation": 272.8,
      "mindate": "2020-06-01",
      "maxdate": "2024-11-05",
      "latitude": 39.82469,
      "name": "MACON 5.9 N, MO US",
      "datacoverage": 0.9947,
      "id": "GHCND:US1MOMC0007",
      "elevationUnit": "METERS",
      "longitude": -92.474338
    },
    {
      "elevation": 271.6,
      "mindate": "2023-02-24",
      "maxdate": "2025-03-07",
      "latitude": 39.8672222,
      "name": "CALLAO 7.3 N, MO US",
      "datacoverage": 0.9993,
      "id": "GHCND:US1MOMC0008",
      "elevationUnit": "METERS",
      "longitude": -92.6322222
    },
    {
      "elevation": 259.1,
      "mindate": "2007-06-01",
      "maxdate": "2020-05-26",
      "latitude": 36.5921,
      "name": "NOEL 3.8 NNE, MO US",
      "datacoverage": 0.9998,
      "id": "GHCND:US1MOMD0001",
      "elevationUnit": "METERS",
      "longitude": -94.4507
    },
    {
      "elevation": 324,
      "mindate": "2007-07-01",
      "maxdate": "2017-12-21",
      "latitude": 36.5952,
      "name": "NOEL 3.7 NNW, MO US",
      "datacoverage": 0.6731,
      "id": "GHCND:US1MOMD0002",
      "elevationUnit": "METERS",
      "longitude": -94.508
    },
    {
      "elevation": 271.6,
      "mindate": "2013-10-01",
      "maxdate": "2025-03-06",
      "latitude": 36.66226389,
      "name": "ANDERSON 6.8 W, MO US",
      "datacoverage": 1,
      "id": "GHCND:US1MOMD0005",
      "elevationUnit": "METERS",
      "longitude": -94.57025278
    },
    {
      "elevation": 332.8,
      "mindate": "2014-08-01",
      "maxdate": "2017-05-04",
      "latitude": 36.694889,
      "name": "GOODMAN 3.2 SSW, MO US",
      "datacoverage": 0.4113,
      "id": "GHCND:US1MOMD0006",
      "elevationUnit": "METERS",
      "longitude": -94.431095
    },
    {
      "elevation": 336.5,
      "mindate": "2020-05-27",
      "maxdate": "2025-03-07",
      "latitude": 36.651265,
      "name": "ANDERSON 4.2 W, MO US",
      "datacoverage": 1,
      "id": "GHCND:US1MOMD0007",
      "elevationUnit": "METERS",
      "longitude": -94.519971
    },
    {
      "elevation": 340.8,
      "mindate": "2020-11-21",
      "maxdate": "2021-12-19",
      "latitude": 36.5427,
      "name": "PINEVILLE 7.5 ESE, MO US",
      "datacoverage": 1,
      "id": "GHCND:US1MOMD0009",
      "elevationUnit": "METERS",
      "longitude": -94.2635
    },
    {
      "elevation": 406.9,
      "mindate": "2021-01-14",
      "maxdate": "2025-01-06",
      "latitude": 36.73444,
      "name": "ROCKY COMFORT 0.8 S, MO US",
      "datacoverage": 0.3473,
      "id": "GHCND:US1MOMD0010",
      "elevationUnit": "METERS",
      "longitude": -94.088334
    },
    {
      "elevation": 388.9,
      "mindate": "2023-08-10",
      "maxdate": "2025-03-07",
      "latitude": 36.732421,
      "name": "STELLA 2.8 SW, MO US",
      "datacoverage": 1,
      "id": "GHCND:US1MOMD0011",
      "elevationUnit": "METERS",
      "longitude": -94.223175
    },
    {
      "elevation": 242.3,
      "mindate": "2023-10-01",
      "maxdate": "2024-12-30",
      "latitude": 36.618443,
      "name": "ANDERSON 7.5 WSW, MO US",
      "datacoverage": 1,
      "id": "GHCND:US1MOMD0012",
      "elevationUnit": "METERS",
      "longitude": -94.575422
    },
    {
      "elevation": 249,
      "mindate": "2006-06-01",
      "maxdate": "2008-02-21",
      "latitude": 39.47349,
      "name": "MADISON 0.1 WNW, MO US",
      "datacoverage": 1,
      "id": "GHCND:US1MOME0001",
      "elevationUnit": "METERS",
      "longitude": -92.213594
    },
    {
      "elevation": 211.2,
      "mindate": "2011-10-01",
      "maxdate": "2019-02-04",
      "latitude": 39.37917,
      "name": "SANTA FE 1.4 WNW, MO US",
      "datacoverage": 0.9998,
      "id": "GHCND:US1MOME0004",
      "elevationUnit": "METERS",
      "longitude": -91.8413
    },
    {
      "elevation": 217.6,
      "mindate": "2011-10-01",
      "maxdate": "2015-08-28",
      "latitude": 39.562609,
      "name": "PARIS 7.6 NW, MO US",
      "datacoverage": 1,
      "id": "GHCND:US1MOME0005",
      "elevationUnit": "METERS",
      "longitude": -92.093861
    },
    {
      "elevation": 201.5,
      "mindate": "2013-08-01",
      "maxdate": "2017-12-22",
      "latitude": 38.269027,
      "name": "GRAVOIS MILLS 3.7 SE, MO US",
      "datacoverage": 0.8125,
      "id": "GHCND:US1MOMG0003",
      "elevationUnit": "METERS",
      "longitude": -92.778766
    },
    {
      "elevation": 325.8,
      "mindate": "2016-07-09",
      "maxdate": "2025-03-06",
      "latitude": 38.461993,
      "name": "STOVER 2.3 NW, MO US",
      "datacoverage": 0.9276,
      "id": "GHCND:US1MOMG0005",
      "elevationUnit": "METERS",
      "longitude": -93.023924
    },
    {
      "elevation": 306,
      "mindate": "2018-12-01",
      "maxdate": "2023-12-22",
      "latitude": 38.39807,
      "name": "STOVER 3.2 SSE, MO US",
      "datacoverage": 0.9527,
      "id": "GHCND:US1MOMG0006",
      "elevationUnit": "METERS",
      "longitude": -92.970118
    },
    {
      "elevation": 304.5,
      "mindate": "2019-07-09",
      "maxdate": "2024-12-15",
      "latitude": 38.43429,
      "name": "VERSAILLES 2.7 E, MO US",
      "datacoverage": 0.9991,
      "id": "GHCND:US1MOMG0007",
      "elevationUnit": "METERS",
      "longitude": -92.796173
    },
    {
      "elevation": 271.9,
      "mindate": "2006-08-01",
      "maxdate": "2024-02-16",
      "latitude": 38.3861,
      "name": "ELDON 3.8 NW, MO US",
      "datacoverage": 0.9999,
      "id": "GHCND:US1MOML0001",
      "elevationUnit": "METERS",
      "longitude": -92.6308
    }
  ]
}
