{
  "metadata": {
    "resultset": {
      "offset": 50300,
      "count": 154115,
      "limit": 100
    }
  },
  "results": [
    {
      "elevation": 379,
      "mindate": "1886-09-01",
      "maxdate": "1976-02-15",
      "latitude": 48.6,
      "name": "WHITE RIVER, CA",
      "datacoverage": 0.9833,
      "id": "GHCND:CA006059475",
      "elevationUnit": "METERS",
      "longitude": -85.2833
    },
    {
      "elevation": 287,
      "mindate": "1977-01-01",
      "maxdate": "2014-10-01",
      "latitude": 47.9667,
      "name": "WAWA A, CA",
      "datacoverage": 0.9868,
      "id": "GHCND:CA006059D09",
      "elevationUnit": "METERS",
      "longitude": -84.7833
    },
    {
      "elevation": 196,
      "mindate": "1992-12-01",
      "maxdate": "2022-10-03",
      "latitude": 45.9667,
      "name": "KILLARNEY AUT, CA",
      "datacoverage": 0.9751,
      "id": "GHCND:CA00605DJ25",
      "elevationUnit": "METERS",
      "longitude": -81.4833
    },
    {
      "elevation": 305,
      "mindate": "1978-07-01",
      "maxdate": "1983-11-30",
      "latitude": 46.4333,
      "name": "AGNEW MINE, CA",
      "datacoverage": 0.9993,
      "id": "GHCND:CA006060070",
      "elevationUnit": "METERS",
      "longitude": -81.6167
    },
    {
      "elevation": 387,
      "mindate": "1948-11-01",
      "maxdate": "1956-09-30",
      "latitude": 46.5167,
      "name": "BENNY, CA",
      "datacoverage": 0.9791,
      "id": "GHCND:CA006060725",
      "elevationUnit": "METERS",
      "longitude": -81.6333
    },
    {
      "elevation": 407,
      "mindate": "1914-01-01",
      "maxdate": "2000-10-31",
      "latitude": 47.3,
      "name": "BISCOTASING, CA",
      "datacoverage": 0.8772,
      "id": "GHCND:CA006060773",
      "elevationUnit": "METERS",
      "longitude": -82.1
    },
    {
      "elevation": 421,
      "mindate": "1886-08-01",
      "maxdate": "1948-11-30",
      "latitude": 46.7,
      "name": "CARTIER, CA",
      "datacoverage": 0.2246,
      "id": "GHCND:CA006061263",
      "elevationUnit": "METERS",
      "longitude": -81.5667
    },
    {
      "elevation": 428,
      "mindate": "1965-11-01",
      "maxdate": "1976-03-31",
      "latitude": 47.8333,
      "name": "CHAPLEAU, CA",
      "datacoverage": 1,
      "id": "GHCND:CA006061358",
      "elevationUnit": "METERS",
      "longitude": -83.4333
    },
    {
      "elevation": 432,
      "mindate": "1886-09-01",
      "maxdate": "1966-10-31",
      "latitude": 47.8333,
      "name": "CHAPLEAU 2, CA",
      "datacoverage": 0.6487,
      "id": "GHCND:CA006061359",
      "elevationUnit": "METERS",
      "longitude": -83.4333
    },
    {
      "elevation": 448,
      "mindate": "1978-07-01",
      "maxdate": "2015-03-12",
      "latitude": 47.8167,
      "name": "CHAPLEAU A, CA",
      "datacoverage": 1,
      "id": "GHCND:CA006061361",
      "elevationUnit": "METERS",
      "longitude": -83.35
    },
    {
      "elevation": 237,
      "mindate": "1921-04-01",
      "maxdate": "1976-01-31",
      "latitude": 46.4667,
      "name": "CONISTON, CA",
      "datacoverage": 0.9863,
      "id": "GHCND:CA006061847",
      "elevationUnit": "METERS",
      "longitude": -80.8167
    },
    {
      "elevation": 268,
      "mindate": "1962-02-01",
      "maxdate": "2002-10-31",
      "latitude": 46.4833,
      "name": "CONISTON STP, CA",
      "datacoverage": 0.9592,
      "id": "GHCND:CA006061850",
      "elevationUnit": "METERS",
      "longitude": -80.85
    },
    {
      "elevation": 274,
      "mindate": "1906-10-01",
      "maxdate": "1968-05-31",
      "latitude": 46.4833,
      "name": "COPPER CLIFF, CA",
      "datacoverage": 0.7495,
      "id": "GHCND:CA006061870",
      "elevationUnit": "METERS",
      "longitude": -81.05
    },
    {
      "elevation": 329,
      "mindate": "1931-04-01",
      "maxdate": "1974-01-31",
      "latitude": 48.25,
      "name": "FOLEYET, CA",
      "datacoverage": 0.6828,
      "id": "GHCND:CA006062425",
      "elevationUnit": "METERS",
      "longitude": -82.4333
    },
    {
      "elevation": 290,
      "mindate": "1962-06-01",
      "maxdate": "1965-02-28",
      "latitude": 46.5667,
      "name": "GARSON, CA",
      "datacoverage": 0.4851,
      "id": "GHCND:CA006062665",
      "elevationUnit": "METERS",
      "longitude": -80.8667
    },
    {
      "elevation": 352,
      "mindate": "1989-11-01",
      "maxdate": "1992-05-31",
      "latitude": 47.6833,
      "name": "GOGAMA TREE NURSERY, CA",
      "datacoverage": 1,
      "id": "GHCND:CA006062860",
      "elevationUnit": "METERS",
      "longitude": -81.7167
    },
    {
      "elevation": 282,
      "mindate": "1981-05-01",
      "maxdate": "1991-09-30",
      "latitude": 46.4333,
      "name": "LIVELY, CA",
      "datacoverage": 0.9839,
      "id": "GHCND:CA006064460",
      "elevationUnit": "METERS",
      "longitude": -81.15
    },
    {
      "elevation": 335,
      "mindate": "1973-10-01",
      "maxdate": "1975-12-31",
      "latitude": 48.2167,
      "name": "MANVILLE REEVES, CA",
      "datacoverage": 0.8517,
      "id": "GHCND:CA006064942",
      "elevationUnit": "METERS",
      "longitude": -82.0833
    },
    {
      "elevation": 200,
      "mindate": "1983-06-01",
      "maxdate": "2024-03-30",
      "latitude": 46.2,
      "name": "MASSEY, CA",
      "datacoverage": 0.9847,
      "id": "GHCND:CA006065006",
      "elevationUnit": "METERS",
      "longitude": -82.0167
    },
    {
      "elevation": 328,
      "mindate": "1950-11-01",
      "maxdate": "1957-01-31",
      "latitude": 48.0167,
      "name": "MATTAGAMI LAKE DAM, CA",
      "datacoverage": 1,
      "id": "GHCND:CA006065015",
      "elevationUnit": "METERS",
      "longitude": -81.55
    },
    {
      "elevation": 329,
      "mindate": "1957-03-01",
      "maxdate": "1961-10-16",
      "latitude": 47.9,
      "name": "MATTAGAMI PATROL, CA",
      "datacoverage": 1,
      "id": "GHCND:CA006065020",
      "elevationUnit": "METERS",
      "longitude": -81.55
    },
    {
      "elevation": 213,
      "mindate": "1950-05-01",
      "maxdate": "1974-06-30",
      "latitude": 46.2833,
      "name": "MCVITTIES, CA",
      "datacoverage": 0.9724,
      "id": "GHCND:CA006065043",
      "elevationUnit": "METERS",
      "longitude": -80.85
    },
    {
      "elevation": 221,
      "mindate": "1963-07-01",
      "maxdate": "2012-03-31",
      "latitude": 46.15,
      "name": "MONETVILLE, CA",
      "datacoverage": 0.9025,
      "id": "GHCND:CA006065250",
      "elevationUnit": "METERS",
      "longitude": -80.3
    },
    {
      "elevation": 430,
      "mindate": "1973-08-01",
      "maxdate": "1983-05-31",
      "latitude": 47.45,
      "name": "RAMSAY, CA",
      "datacoverage": 0.9747,
      "id": "GHCND:CA006066873",
      "elevationUnit": "METERS",
      "longitude": -82.3333
    },
    {
      "elevation": 426,
      "mindate": "1948-11-01",
      "maxdate": "1967-09-30",
      "latitude": 47.4167,
      "name": "RAMSEY, CA",
      "datacoverage": 0.9077,
      "id": "GHCND:CA006066875",
      "elevationUnit": "METERS",
      "longitude": -82.3167
    },
    {
      "elevation": 402,
      "mindate": "1984-06-01",
      "maxdate": "1986-07-31",
      "latitude": 47.4667,
      "name": "RAMSEY 2, CA",
      "datacoverage": 0.3078,
      "id": "GHCND:CA006066877",
      "elevationUnit": "METERS",
      "longitude": -81.8667
    },
    {
      "elevation": 410,
      "mindate": "1915-07-01",
      "maxdate": "1959-03-14",
      "latitude": 47.3,
      "name": "RUEL, CA",
      "datacoverage": 0.939,
      "id": "GHCND:CA006067211",
      "elevationUnit": "METERS",
      "longitude": -81.45
    },
    {
      "elevation": 236,
      "mindate": "1979-09-01",
      "maxdate": "1984-09-30",
      "latitude": 46.3667,
      "name": "ST CHARLES, CA",
      "datacoverage": 0.9986,
      "id": "GHCND:CA006067308",
      "elevationUnit": "METERS",
      "longitude": -80.5167
    },
    {
      "elevation": 348,
      "mindate": "1977-07-01",
      "maxdate": "2025-03-06",
      "latitude": 46.6333,
      "name": "SUDBURY CLIMATE, CA",
      "datacoverage": 0.9978,
      "id": "GHCND:CA006068145",
      "elevationUnit": "METERS",
      "longitude": -80.8
    },
    {
      "elevation": 259,
      "mindate": "1887-06-01",
      "maxdate": "1977-09-30",
      "latitude": 46.4833,
      "name": "SUDBURY, CA",
      "datacoverage": 0.4423,
      "id": "GHCND:CA006068148",
      "elevationUnit": "METERS",
      "longitude": -80.9833
    },
    {
      "elevation": 348,
      "mindate": "1954-02-01",
      "maxdate": "2013-03-13",
      "latitude": 46.6333,
      "name": "SUDBURY A, CA",
      "datacoverage": 1,
      "id": "GHCND:CA006068150",
      "elevationUnit": "METERS",
      "longitude": -80.8
    },
    {
      "elevation": 348,
      "mindate": "2013-03-01",
      "maxdate": "2024-04-28",
      "latitude": 46.6333,
      "name": "SUDBURY A, CA",
      "datacoverage": 0.9999,
      "id": "GHCND:CA006068153",
      "elevationUnit": "METERS",
      "longitude": -80.8
    },
    {
      "elevation": 259,
      "mindate": "1977-10-01",
      "maxdate": "1979-05-31",
      "latitude": 46.4667,
      "name": "SUDBURY MOE, CA",
      "datacoverage": 1,
      "id": "GHCND:CA006068155",
      "elevationUnit": "METERS",
      "longitude": -81.0333
    },
    {
      "elevation": 263,
      "mindate": "1986-05-01",
      "maxdate": "1996-10-31",
      "latitude": 46.4667,
      "name": "SUDBURY SCIENCE NORTH, CA",
      "datacoverage": 0.8488,
      "id": "GHCND:CA006068158",
      "elevationUnit": "METERS",
      "longitude": -81
    },
    {
      "elevation": 206,
      "mindate": "1914-06-01",
      "maxdate": "1990-03-31",
      "latitude": 46.3833,
      "name": "TURBINE, CA",
      "datacoverage": 0.9857,
      "id": "GHCND:CA006068980",
      "elevationUnit": "METERS",
      "longitude": -81.5667
    },
    {
      "elevation": 213,
      "mindate": "1978-08-01",
      "maxdate": "1989-04-30",
      "latitude": 46.3167,
      "name": "WABAGISHIK, CA",
      "datacoverage": 0.8761,
      "id": "GHCND:CA006069165",
      "elevationUnit": "METERS",
      "longitude": -81.5167
    },
    {
      "elevation": 750,
      "mindate": "1990-05-01",
      "maxdate": "1991-07-31",
      "latitude": 46.4333,
      "name": "WAHNAPITAE STOKES, CA",
      "datacoverage": 0.999,
      "id": "GHCND:CA006069197",
      "elevationUnit": "METERS",
      "longitude": -80.7167
    },
    {
      "elevation": 196,
      "mindate": "1983-10-01",
      "maxdate": "1986-09-30",
      "latitude": 46.2667,
      "name": "WEBBWOOD, CA",
      "datacoverage": 0.9998,
      "id": "GHCND:CA006069428",
      "elevationUnit": "METERS",
      "longitude": -81.8833
    },
    {
      "elevation": 212,
      "mindate": "1987-11-01",
      "maxdate": "1998-07-31",
      "latitude": 46.4333,
      "name": "WARREN, CA",
      "datacoverage": 1,
      "id": "GHCND:CA006069K90",
      "elevationUnit": "METERS",
      "longitude": -80.3167
    },
    {
      "elevation": 204,
      "mindate": "1931-02-01",
      "maxdate": "1963-10-31",
      "latitude": 49.8833,
      "name": "ABITIBI CANYON, CA",
      "datacoverage": 0.9899,
      "id": "GHCND:CA006070027",
      "elevationUnit": "METERS",
      "longitude": -81.5667
    },
    {
      "elevation": 245,
      "mindate": "1990-12-01",
      "maxdate": "2024-04-28",
      "latitude": 49.3833,
      "name": "BONNER LAKE, CA",
      "datacoverage": 0.9477,
      "id": "GHCND:CA006070QK6",
      "elevationUnit": "METERS",
      "longitude": -82.1167
    },
    {
      "elevation": 275,
      "mindate": "1910-06-01",
      "maxdate": "1993-04-30",
      "latitude": 49.0667,
      "name": "COCHRANE, CA",
      "datacoverage": 0.9558,
      "id": "GHCND:CA006071712",
      "elevationUnit": "METERS",
      "longitude": -81.0333
    },
    {
      "elevation": 281,
      "mindate": "1962-01-01",
      "maxdate": "1981-11-30",
      "latitude": 48.6167,
      "name": "CONNAUGHT, CA",
      "datacoverage": 0.9457,
      "id": "GHCND:CA006071855",
      "elevationUnit": "METERS",
      "longitude": -80.9167
    },
    {
      "elevation": 281,
      "mindate": "2010-08-01",
      "maxdate": "2012-09-10",
      "latitude": 48.6167,
      "name": "CONNAUGHT, CA",
      "datacoverage": 0.9992,
      "id": "GHCND:CA006071860",
      "elevationUnit": "METERS",
      "longitude": -80.9
    },
    {
      "elevation": 198,
      "mindate": "1973-05-01",
      "maxdate": "1998-09-30",
      "latitude": 47.5167,
      "name": "DYMOND ONT HYDRO, CA",
      "datacoverage": 0.9672,
      "id": "GHCND:CA006072183",
      "elevationUnit": "METERS",
      "longitude": -79.6833
    },
    {
      "elevation": 244,
      "mindate": "2011-10-01",
      "maxdate": "2024-04-28",
      "latitude": 47.7,
      "name": "EARLTON, CA",
      "datacoverage": 0.9998,
      "id": "GHCND:CA006072223",
      "elevationUnit": "METERS",
      "longitude": -79.85
    },
    {
      "elevation": 243,
      "mindate": "2000-09-01",
      "maxdate": "2011-10-19",
      "latitude": 47.7,
      "name": "EARLTON AWOS, CA",
      "datacoverage": 0.9031,
      "id": "GHCND:CA006072224",
      "elevationUnit": "METERS",
      "longitude": -79.85
    },
    {
      "elevation": 243,
      "mindate": "1938-09-01",
      "maxdate": "2005-01-19",
      "latitude": 47.7,
      "name": "EARLTON A, CA",
      "datacoverage": 1,
      "id": "GHCND:CA006072225",
      "elevationUnit": "METERS",
      "longitude": -79.85
    },
    {
      "elevation": 243,
      "mindate": "2008-11-01",
      "maxdate": "2024-04-28",
      "latitude": 47.7,
      "name": "EARLTON CLIMATE, CA",
      "datacoverage": 1,
      "id": "GHCND:CA006072230",
      "elevationUnit": "METERS",
      "longitude": -79.85
    },
    {
      "elevation": 252,
      "mindate": "1948-05-01",
      "maxdate": "2000-12-31",
      "latitude": 47.8167,
      "name": "ENGLEHART, CA",
      "datacoverage": 0.9762,
      "id": "GHCND:CA006072325",
      "elevationUnit": "METERS",
      "longitude": -79.9
    },
    {
      "elevation": 15,
      "mindate": "1968-08-01",
      "maxdate": "1993-06-30",
      "latitude": 52.2167,
      "name": "FORT ALBANY, CA",
      "datacoverage": 0.7961,
      "id": "GHCND:CA006072460",
      "elevationUnit": "METERS",
      "longitude": -81.6667
    },
    {
      "elevation": 284,
      "mindate": "1950-01-01",
      "maxdate": "1961-10-31",
      "latitude": 48.7667,
      "name": "FREDERICKHOUSE LAKE DAM, CA",
      "datacoverage": 0.993,
      "id": "GHCND:CA006072595",
      "elevationUnit": "METERS",
      "longitude": -80.9833
    },
    {
      "elevation": 189,
      "mindate": "1893-12-01",
      "maxdate": "1977-11-30",
      "latitude": 47.45,
      "name": "HAILEYBURY, CA",
      "datacoverage": 0.6994,
      "id": "GHCND:CA006073138",
      "elevationUnit": "METERS",
      "longitude": -79.6333
    },
    {
      "elevation": 222,
      "mindate": "1928-11-01",
      "maxdate": "1967-04-30",
      "latitude": 47.8,
      "name": "HEASLIP, CA",
      "datacoverage": 0.8941,
      "id": "GHCND:CA006073420",
      "elevationUnit": "METERS",
      "longitude": -79.8333
    },
    {
      "elevation": 279,
      "mindate": "1950-05-01",
      "maxdate": "1969-09-30",
      "latitude": 47.3,
      "name": "HOUND CHUTE, CA",
      "datacoverage": 0.9992,
      "id": "GHCND:CA006073600",
      "elevationUnit": "METERS",
      "longitude": -79.7
    },
    {
      "elevation": 274,
      "mindate": "1950-02-01",
      "maxdate": "1973-04-30",
      "latitude": 49.1167,
      "name": "HUNTA, CA",
      "datacoverage": 0.9716,
      "id": "GHCND:CA006073630",
      "elevationUnit": "METERS",
      "longitude": -81.2667
    },
    {
      "elevation": 293,
      "mindate": "1950-02-01",
      "maxdate": "1972-01-31",
      "latitude": 47.85,
      "name": "INDIAN CHUTE, CA",
      "datacoverage": 0.9849,
      "id": "GHCND:CA006073750",
      "elevationUnit": "METERS",
      "longitude": -80.45
    },
    {
      "elevation": 259,
      "mindate": "1913-03-01",
      "maxdate": "1998-12-31",
      "latitude": 48.75,
      "name": "IROQUOIS FALLS, CA",
      "datacoverage": 0.9844,
      "id": "GHCND:CA006073810",
      "elevationUnit": "METERS",
      "longitude": -80.6667
    },
    {
      "elevation": 259,
      "mindate": "1955-03-01",
      "maxdate": "1996-12-30",
      "latitude": 49.5833,
      "name": "ISLAND FALLS, CA",
      "datacoverage": 0.9999,
      "id": "GHCND:CA006073840",
      "elevationUnit": "METERS",
      "longitude": -81.3667
    },
    {
      "elevation": 218,
      "mindate": "1918-01-01",
      "maxdate": "2001-12-31",
      "latitude": 49.4,
      "name": "KAPUSKASING CDA, CA",
      "datacoverage": 1,
      "id": "GHCND:CA006073960",
      "elevationUnit": "METERS",
      "longitude": -82.4333
    },
    {
      "elevation": 227,
      "mindate": "1937-04-01",
      "maxdate": "2025-03-06",
      "latitude": 49.4167,
      "name": "KAPUSKASING A, CA",
      "datacoverage": 0.9989,
      "id": "GHCND:CA006073975",
      "elevationUnit": "METERS",
      "longitude": -82.4667
    },
    {
      "elevation": 218,
      "mindate": "2000-08-01",
      "maxdate": "2025-03-06",
      "latitude": 49.4,
      "name": "KAPUSKASING CDA ON, CA",
      "datacoverage": 1,
      "id": "GHCND:CA006073980",
      "elevationUnit": "METERS",
      "longitude": -82.45
    },
    {
      "elevation": 277,
      "mindate": "1968-05-01",
      "maxdate": "1979-09-30",
      "latitude": 48.6833,
      "name": "KIDD CREEK MINE, CA",
      "datacoverage": 0.9416,
      "id": "GHCND:CA006074100",
      "elevationUnit": "METERS",
      "longitude": -81.3667
    },
    {
      "elevation": 324,
      "mindate": "1950-02-01",
      "maxdate": "1996-12-31",
      "latitude": 48.15,
      "name": "KIRKLAND LAKE, CA",
      "datacoverage": 0.945,
      "id": "GHCND:CA006074209",
      "elevationUnit": "METERS",
      "longitude": -80
    },
    {
      "elevation": 324,
      "mindate": "1997-06-01",
      "maxdate": "2022-08-24",
      "latitude": 48.15,
      "name": "KIRKLAND LAKE CS, CA",
      "datacoverage": 0.969,
      "id": "GHCND:CA006074211",
      "elevationUnit": "METERS",
      "longitude": -80
    },
    {
      "elevation": 270,
      "mindate": "1951-05-01",
      "maxdate": "1966-09-30",
      "latitude": 48.9167,
      "name": "LOWBUSH, CA",
      "datacoverage": 0.7188,
      "id": "GHCND:CA006074620",
      "elevationUnit": "METERS",
      "longitude": -80.1167
    },
    {
      "elevation": 247,
      "mindate": "1950-09-01",
      "maxdate": "1967-08-31",
      "latitude": 48.8167,
      "name": "LOWER STURGEON, CA",
      "datacoverage": 1,
      "id": "GHCND:CA006074630",
      "elevationUnit": "METERS",
      "longitude": -81.4833
    },
    {
      "elevation": 259,
      "mindate": "1968-05-01",
      "maxdate": "1972-05-31",
      "latitude": 48.5333,
      "name": "MATHESON, CA",
      "datacoverage": 0.8364,
      "id": "GHCND:CA006075012",
      "elevationUnit": "METERS",
      "longitude": -80.45
    },
    {
      "elevation": 274,
      "mindate": "1983-06-01",
      "maxdate": "1992-09-30",
      "latitude": 48.5333,
      "name": "MATHESON ONT HYDRO, CA",
      "datacoverage": 0.9995,
      "id": "GHCND:CA006075013",
      "elevationUnit": "METERS",
      "longitude": -80.4667
    },
    {
      "elevation": 233,
      "mindate": "1966-11-01",
      "maxdate": "1995-02-28",
      "latitude": 49.6,
      "name": "MATTICE TCPL, CA",
      "datacoverage": 0.9855,
      "id": "GHCND:CA006075024",
      "elevationUnit": "METERS",
      "longitude": -83.1667
    },
    {
      "elevation": 320,
      "mindate": "1950-06-01",
      "maxdate": "1960-05-31",
      "latitude": 48.05,
      "name": "MISTINIKON LAKE DAM, CA",
      "datacoverage": 0.9999,
      "id": "GHCND:CA006075211",
      "elevationUnit": "METERS",
      "longitude": -80.7167
    },
    {
      "elevation": 183,
      "mindate": "1910-12-01",
      "maxdate": "1967-10-31",
      "latitude": 47.1167,
      "name": "MONTREAL RIVER, CA",
      "datacoverage": 0.9971,
      "id": "GHCND:CA006075379",
      "elevationUnit": "METERS",
      "longitude": -79.4833
    },
    {
      "elevation": 9,
      "mindate": "1877-10-01",
      "maxdate": "1938-12-31",
      "latitude": 51.2333,
      "name": "MOOSE FACTORY, CA",
      "datacoverage": 0.8422,
      "id": "GHCND:CA006075400",
      "elevationUnit": "METERS",
      "longitude": -80.5
    },
    {
      "elevation": 9,
      "mindate": "2010-09-01",
      "maxdate": "2024-04-28",
      "latitude": 51.2833,
      "name": "MOOSONEE",
      "datacoverage": 1,
      "id": "GHCND:CA006075420",
      "elevationUnit": "METERS",
      "longitude": -80.6
    },
    {
      "elevation": 10,
      "mindate": "1932-10-01",
      "maxdate": "2023-03-31",
      "latitude": 51.2667,
      "name": "MOOSONEE UA, CA",
      "datacoverage": 0.9491,
      "id": "GHCND:CA006075425",
      "elevationUnit": "METERS",
      "longitude": -80.65
    },
    {
      "elevation": 9,
      "mindate": "1995-04-01",
      "maxdate": "2006-03-26",
      "latitude": 51.2833,
      "name": "MOOSONEE A",
      "datacoverage": 0.9999,
      "id": "GHCND:CA006075428",
      "elevationUnit": "METERS",
      "longitude": -80.6
    },
    {
      "elevation": 9,
      "mindate": "1982-01-01",
      "maxdate": "2025-03-06",
      "latitude": 51.2833,
      "name": "MOOSONEE AWOS",
      "datacoverage": 0.9421,
      "id": "GHCND:CA006075431",
      "elevationUnit": "METERS",
      "longitude": -80.6
    },
    {
      "elevation": 9,
      "mindate": "2003-11-01",
      "maxdate": "2025-03-06",
      "latitude": 51.3,
      "name": "MOOSONEE RCS, CA",
      "datacoverage": 1,
      "id": "GHCND:CA006075435",
      "elevationUnit": "METERS",
      "longitude": -80.6167
    },
    {
      "elevation": 244,
      "mindate": "1964-09-01",
      "maxdate": "1969-11-25",
      "latitude": 49.7667,
      "name": "NAGAGAMI, CA",
      "datacoverage": 0.9685,
      "id": "GHCND:CA006075542",
      "elevationUnit": "METERS",
      "longitude": -84.5167
    },
    {
      "elevation": 264,
      "mindate": "1982-01-01",
      "maxdate": "2025-03-06",
      "latitude": 49.75,
      "name": "NAGAGAMI AUT, CA",
      "datacoverage": 0.9554,
      "id": "GHCND:CA006075543",
      "elevationUnit": "METERS",
      "longitude": -84.1667
    },
    {
      "elevation": 194,
      "mindate": "1923-10-01",
      "maxdate": "1984-05-31",
      "latitude": 47.5,
      "name": "NEW LISKEARD, CA",
      "datacoverage": 0.8901,
      "id": "GHCND:CA006075594",
      "elevationUnit": "METERS",
      "longitude": -79.6667
    },
    {
      "elevation": 189,
      "mindate": "1918-05-01",
      "maxdate": "1934-11-30",
      "latitude": 50.05,
      "name": "PAGWA, CA",
      "datacoverage": 0.8943,
      "id": "GHCND:CA006076180",
      "elevationUnit": "METERS",
      "longitude": -85.3
    },
    {
      "elevation": 189,
      "mindate": "1938-08-01",
      "maxdate": "1964-10-09",
      "latitude": 50.0333,
      "name": "PAGWA A, CA",
      "datacoverage": 1,
      "id": "GHCND:CA006076200",
      "elevationUnit": "METERS",
      "longitude": -85.2667
    },
    {
      "elevation": 232,
      "mindate": "1963-11-01",
      "maxdate": "1982-07-31",
      "latitude": 49.85,
      "name": "PINARD, CA",
      "datacoverage": 0.9601,
      "id": "GHCND:CA006076540",
      "elevationUnit": "METERS",
      "longitude": -81.6
    },
    {
      "elevation": 299,
      "mindate": "1969-07-01",
      "maxdate": "2001-11-30",
      "latitude": 48.4667,
      "name": "PORCUPINE ONT HYDRO, CA",
      "datacoverage": 0.9562,
      "id": "GHCND:CA006076572",
      "elevationUnit": "METERS",
      "longitude": -81.2667
    },
    {
      "elevation": 308,
      "mindate": "1938-10-01",
      "maxdate": "1955-03-31",
      "latitude": 48.7333,
      "name": "PORQUIS JUNCTION A, CA",
      "datacoverage": 1,
      "id": "GHCND:CA006076575",
      "elevationUnit": "METERS",
      "longitude": -80.8
    },
    {
      "elevation": 287,
      "mindate": "1960-11-01",
      "maxdate": "1966-08-31",
      "latitude": 48.3333,
      "name": "RAMORE TS, CA",
      "datacoverage": 1,
      "id": "GHCND:CA006076870",
      "elevationUnit": "METERS",
      "longitude": -80.4333
    },
    {
      "elevation": 262,
      "mindate": "1950-09-01",
      "maxdate": "1964-06-30",
      "latitude": 48.5167,
      "name": "SANDY FALLS, CA",
      "datacoverage": 0.9881,
      "id": "GHCND:CA006077475",
      "elevationUnit": "METERS",
      "longitude": -81.4333
    },
    {
      "elevation": 183,
      "mindate": "1933-10-01",
      "maxdate": "1997-04-30",
      "latitude": 50.0667,
      "name": "SMOKY FALLS, CA",
      "datacoverage": 0.9922,
      "id": "GHCND:CA006077845",
      "elevationUnit": "METERS",
      "longitude": -82.1667
    },
    {
      "elevation": 335,
      "mindate": "1922-04-01",
      "maxdate": "1957-12-31",
      "latitude": 48.5,
      "name": "TIMMINS, CA",
      "datacoverage": 0.9929,
      "id": "GHCND:CA006078280",
      "elevationUnit": "METERS",
      "longitude": -81.3333
    },
    {
      "elevation": 294,
      "mindate": "2008-10-01",
      "maxdate": "2024-04-28",
      "latitude": 48.55,
      "name": "TIMMINS CLIMATE, CA",
      "datacoverage": 1,
      "id": "GHCND:CA006078282",
      "elevationUnit": "METERS",
      "longitude": -81.3833
    },
    {
      "elevation": 295,
      "mindate": "1955-04-01",
      "maxdate": "2012-07-11",
      "latitude": 48.5667,
      "name": "TIMMINS VICTOR POWER A, CA",
      "datacoverage": 1,
      "id": "GHCND:CA006078285",
      "elevationUnit": "METERS",
      "longitude": -81.3833
    },
    {
      "elevation": 295,
      "mindate": "2012-07-01",
      "maxdate": "2024-04-28",
      "latitude": 48.5667,
      "name": "TIMMINS A, CA",
      "datacoverage": 0.9998,
      "id": "GHCND:CA006078286",
      "elevationUnit": "METERS",
      "longitude": -81.3833
    },
    {
      "elevation": 308,
      "mindate": "1951-07-01",
      "maxdate": "1969-07-31",
      "latitude": 48.4667,
      "name": "TIMMINS ONT HYDRO, CA",
      "datacoverage": 0.8176,
      "id": "GHCND:CA006078290",
      "elevationUnit": "METERS",
      "longitude": -81.3667
    },
    {
      "elevation": 274,
      "mindate": "1955-03-01",
      "maxdate": "1973-09-30",
      "latitude": 48.75,
      "name": "TWIN FALLS, CA",
      "datacoverage": 0.9639,
      "id": "GHCND:CA006079040",
      "elevationUnit": "METERS",
      "longitude": -80.5833
    },
    {
      "elevation": 241,
      "mindate": "1950-06-01",
      "maxdate": "1971-06-30",
      "latitude": 47.25,
      "name": "UPPER NOTCH, CA",
      "datacoverage": 0.9803,
      "id": "GHCND:CA006079068",
      "elevationUnit": "METERS",
      "longitude": -79.5833
    },
    {
      "elevation": 271,
      "mindate": "1913-01-01",
      "maxdate": "1965-07-31",
      "latitude": 48.35,
      "name": "WAWAITIN, CA",
      "datacoverage": 0.9731,
      "id": "GHCND:CA006079415",
      "elevationUnit": "METERS",
      "longitude": -81.4
    },
    {
      "elevation": 433,
      "mindate": "1917-07-01",
      "maxdate": "1960-08-31",
      "latitude": 45.5833,
      "name": "ALGONQUIN PARK, CA",
      "datacoverage": 0.996,
      "id": "GHCND:CA006080189",
      "elevationUnit": "METERS",
      "longitude": -78.55
    },
    {
      "elevation": 412,
      "mindate": "1961-05-01",
      "maxdate": "1972-11-30",
      "latitude": 45.5333,
      "name": "ALGONQUIN PARK EAST, CA",
      "datacoverage": 0.8199,
      "id": "GHCND:CA006080191",
      "elevationUnit": "METERS",
      "longitude": -78.2667
    },
    {
      "elevation": 397,
      "mindate": "2004-09-01",
      "maxdate": "2024-04-28",
      "latitude": 45.5333,
      "name": "ALGONQUIN PARK EAST GATE, CA",
      "datacoverage": 1,
      "id": "GHCND:CA006080192",
      "elevationUnit": "METERS",
      "longitude": -78.2667
    }
  ]
}
