{
  "metadata": {
    "resultset": {
      "offset": 44700,
      "count": 154115,
      "limit": 100
    }
  },
  "results": [
    {
      "elevation": 30,
      "mindate": "1965-09-01",
      "maxdate": "1983-12-31",
      "latitude": -8.32,
      "name": "ENGENHO ALGODOAIS, BR",
      "datacoverage": 0.8864,
      "id": "GHCND:BR039606050",
      "elevationUnit": "METERS",
      "longitude": -34.98
    },
    {
      "elevation": 630,
      "mindate": "1962-09-01",
      "maxdate": "1979-10-31",
      "latitude": -10.05,
      "name": "GALHEIRO, BR",
      "datacoverage": 0.8835,
      "id": "GHCND:BR046091270",
      "elevationUnit": "METERS",
      "longitude": -45.37
    },
    {
      "elevation": 490,
      "mindate": "1962-10-01",
      "maxdate": "1983-12-31",
      "latitude": -10.05,
      "name": "FAZENDA BARRA, BR",
      "datacoverage": 0.9137,
      "id": "GHCND:BR046091870",
      "elevationUnit": "METERS",
      "longitude": -45.07
    },
    {
      "elevation": 434,
      "mindate": "1962-10-01",
      "maxdate": "1983-12-31",
      "latitude": -10.45,
      "name": "CORRENTE, BR",
      "datacoverage": 0.953,
      "id": "GHCND:BR046099710",
      "elevationUnit": "METERS",
      "longitude": -45.15
    },
    {
      "elevation": 500,
      "mindate": "1962-10-01",
      "maxdate": "1983-12-31",
      "latitude": -10.52,
      "name": "CAXINGO, BR",
      "datacoverage": 0.949,
      "id": "GHCND:BR046190580",
      "elevationUnit": "METERS",
      "longitude": -45.22
    },
    {
      "elevation": 600,
      "mindate": "1962-10-01",
      "maxdate": "1983-12-31",
      "latitude": -10.58,
      "name": "CRISTALANDIA DO PIAUI, BR",
      "datacoverage": 0.949,
      "id": "GHCND:BR046191460",
      "elevationUnit": "METERS",
      "longitude": -45.28
    },
    {
      "elevation": 510,
      "mindate": "1962-10-01",
      "maxdate": "1983-12-31",
      "latitude": -10.65,
      "name": "JENIPAPEIRO, BR",
      "datacoverage": 0.9534,
      "id": "GHCND:BR046193640",
      "elevationUnit": "METERS",
      "longitude": -45.18
    },
    {
      "elevation": 448,
      "mindate": "1965-10-01",
      "maxdate": "1983-12-31",
      "latitude": -11.02,
      "name": "SAO MARCELO, BR",
      "datacoverage": 0.9817,
      "id": "GHCND:BR046280950",
      "elevationUnit": "METERS",
      "longitude": -45.53
    },
    {
      "elevation": 700,
      "mindate": "1964-10-01",
      "maxdate": "1979-10-31",
      "latitude": -11.17,
      "name": "FAZENDA SANTANA, BR",
      "datacoverage": 0.9172,
      "id": "GHCND:BR046294670",
      "elevationUnit": "METERS",
      "longitude": -45.09
    },
    {
      "elevation": 505,
      "mindate": "1939-08-01",
      "maxdate": "1982-11-30",
      "latitude": -11.53,
      "name": "CARIPARE, BR",
      "datacoverage": 0.9384,
      "id": "GHCND:BR046390890",
      "elevationUnit": "METERS",
      "longitude": -45.07
    },
    {
      "elevation": 450,
      "mindate": "1964-10-01",
      "maxdate": "1977-11-30",
      "latitude": -11.82,
      "name": "FAZENDA SAO FRANCISCO, BR",
      "datacoverage": 0.9993,
      "id": "GHCND:BR046396720",
      "elevationUnit": "METERS",
      "longitude": -45.15
    },
    {
      "elevation": 480,
      "mindate": "1962-10-01",
      "maxdate": "1983-12-31",
      "latitude": -10.08,
      "name": "FAZENDA RIACHO FRIO, BR",
      "datacoverage": 0.8745,
      "id": "GHCND:BR047001060",
      "elevationUnit": "METERS",
      "longitude": -44.98
    },
    {
      "elevation": 316,
      "mindate": "1962-11-01",
      "maxdate": "1983-12-31",
      "latitude": -10.22,
      "name": "PARNAGUA, BR",
      "datacoverage": 0.9725,
      "id": "GHCND:BR047004750",
      "elevationUnit": "METERS",
      "longitude": -44.63
    },
    {
      "elevation": 350,
      "mindate": "1962-10-01",
      "maxdate": "1983-12-31",
      "latitude": -10.03,
      "name": "CURIMATA, BR",
      "datacoverage": 0.8235,
      "id": "GHCND:BR047010460",
      "elevationUnit": "METERS",
      "longitude": -44.28
    },
    {
      "elevation": 600,
      "mindate": "1962-10-01",
      "maxdate": "1983-08-31",
      "latitude": -10.47,
      "name": "SAO FRANCISCO, BR",
      "datacoverage": 0.7891,
      "id": "GHCND:BR047019920",
      "elevationUnit": "METERS",
      "longitude": -44.05
    },
    {
      "elevation": 400,
      "mindate": "1962-10-01",
      "maxdate": "1983-12-31",
      "latitude": -10.03,
      "name": "AVELINO LOPES, BR",
      "datacoverage": 0.8666,
      "id": "GHCND:BR047020130",
      "elevationUnit": "METERS",
      "longitude": -43.95
    },
    {
      "elevation": 500,
      "mindate": "1964-01-01",
      "maxdate": "1983-10-31",
      "latitude": -10.37,
      "name": "VEREDA DA MATA, BR",
      "datacoverage": 0.8025,
      "id": "GHCND:BR047027080",
      "elevationUnit": "METERS",
      "longitude": -43.97
    },
    {
      "elevation": 450,
      "mindate": "1963-09-01",
      "maxdate": "1970-12-31",
      "latitude": -10.05,
      "name": "NOVA HOLANDA, BR",
      "datacoverage": 0.8635,
      "id": "GHCND:BR047031140",
      "elevationUnit": "METERS",
      "longitude": -43.43
    },
    {
      "elevation": 470,
      "mindate": "1963-09-01",
      "maxdate": "1983-12-31",
      "latitude": -10.1,
      "name": "BREJO DA SERRA, BR",
      "datacoverage": 0.959,
      "id": "GHCND:BR047032470",
      "elevationUnit": "METERS",
      "longitude": -43.27
    },
    {
      "elevation": 350,
      "mindate": "1964-01-01",
      "maxdate": "1983-12-31",
      "latitude": -10.04,
      "name": "CAJUI TABOLEIRO ALTO, BR",
      "datacoverage": 0.7958,
      "id": "GHCND:BR047051610",
      "elevationUnit": "METERS",
      "longitude": -42.21
    },
    {
      "elevation": 358,
      "mindate": "1911-06-01",
      "maxdate": "1983-12-31",
      "latitude": -10.17,
      "name": "PILAO ARCADO, BR",
      "datacoverage": 0.9243,
      "id": "GHCND:BR047053150",
      "elevationUnit": "METERS",
      "longitude": -42.43
    },
    {
      "elevation": 358,
      "mindate": "1946-10-01",
      "maxdate": "1972-12-31",
      "latitude": -10.18,
      "name": "PILAO ARCADO, BR",
      "datacoverage": 1,
      "id": "GHCND:BR047053160",
      "elevationUnit": "METERS",
      "longitude": -42.43
    },
    {
      "elevation": 400,
      "mindate": "1963-09-01",
      "maxdate": "1983-12-31",
      "latitude": -10.15,
      "name": "PONTA DAGUA, BR",
      "datacoverage": 0.959,
      "id": "GHCND:BR047053920",
      "elevationUnit": "METERS",
      "longitude": -42.08
    },
    {
      "elevation": 350,
      "mindate": "1937-11-01",
      "maxdate": "1983-12-31",
      "latitude": -10.43,
      "name": "IBITIARA BOM SUCESSO, BR",
      "datacoverage": 0.9621,
      "id": "GHCND:BR047058390",
      "elevationUnit": "METERS",
      "longitude": -42.32
    },
    {
      "elevation": 380,
      "mindate": "1963-09-01",
      "maxdate": "1983-12-31",
      "latitude": -10.32,
      "name": "AMANIU OURO BRANCO, BR",
      "datacoverage": 0.9508,
      "id": "GHCND:BR047066390",
      "elevationUnit": "METERS",
      "longitude": -41.83
    },
    {
      "elevation": 850,
      "mindate": "1963-09-01",
      "maxdate": "1983-12-31",
      "latitude": -10.28,
      "name": "MIMOSO, BR",
      "datacoverage": 0.8483,
      "id": "GHCND:BR047075180",
      "elevationUnit": "METERS",
      "longitude": -41.41
    },
    {
      "elevation": 950,
      "mindate": "1919-07-01",
      "maxdate": "1983-12-31",
      "latitude": -10.38,
      "name": "CAMPO LARGO, BR",
      "datacoverage": 0.9831,
      "id": "GHCND:BR047077190",
      "elevationUnit": "METERS",
      "longitude": -41.42
    },
    {
      "elevation": 660,
      "mindate": "1964-10-01",
      "maxdate": "1983-11-30",
      "latitude": -10.45,
      "name": "DELFINO, BR",
      "datacoverage": 0.8914,
      "id": "GHCND:BR047078630",
      "elevationUnit": "METERS",
      "longitude": -41.21
    },
    {
      "elevation": 0,
      "mindate": "1943-01-01",
      "maxdate": "1963-08-31",
      "latitude": -10.47,
      "name": "UPAMIRIM, BR",
      "datacoverage": 0.988,
      "id": "GHCND:BR047079540",
      "elevationUnit": "METERS",
      "longitude": -41.25
    },
    {
      "elevation": 520,
      "mindate": "1964-01-01",
      "maxdate": "1983-12-31",
      "latitude": -10.01,
      "name": "ABREUS, BR",
      "datacoverage": 0.9336,
      "id": "GHCND:BR047080640",
      "elevationUnit": "METERS",
      "longitude": -40.69
    },
    {
      "elevation": 570,
      "mindate": "1964-01-01",
      "maxdate": "1983-12-31",
      "latitude": -10.18,
      "name": "LAJE DOS PRETOS, BR",
      "datacoverage": 0.9584,
      "id": "GHCND:BR047083080",
      "elevationUnit": "METERS",
      "longitude": -40.84
    },
    {
      "elevation": 550,
      "mindate": "1963-09-01",
      "maxdate": "1983-10-31",
      "latitude": -10.28,
      "name": "LAGOA BRANCA, BR",
      "datacoverage": 0.8925,
      "id": "GHCND:BR047085480",
      "elevationUnit": "METERS",
      "longitude": -40.75
    },
    {
      "elevation": 500,
      "mindate": "1964-01-01",
      "maxdate": "1983-12-31",
      "latitude": -10.05,
      "name": "FAZENDA VOLTA, BR",
      "datacoverage": 0.9834,
      "id": "GHCND:BR047091840",
      "elevationUnit": "METERS",
      "longitude": -40.08
    },
    {
      "elevation": 660,
      "mindate": "1934-01-01",
      "maxdate": "1983-12-31",
      "latitude": -10.26,
      "name": "JAGUARARI, BR",
      "datacoverage": 0.9934,
      "id": "GHCND:BR047095640",
      "elevationUnit": "METERS",
      "longitude": -40.2
    },
    {
      "elevation": 460,
      "mindate": "1952-10-01",
      "maxdate": "1983-12-31",
      "latitude": -10.37,
      "name": "ACUDE SOHEM, BR",
      "datacoverage": 0.9893,
      "id": "GHCND:BR047097860",
      "elevationUnit": "METERS",
      "longitude": -40.09
    },
    {
      "elevation": 544,
      "mindate": "1911-04-01",
      "maxdate": "1983-12-31",
      "latitude": -10.47,
      "name": "SENHOR DO BONFIM, BR",
      "datacoverage": 0.9657,
      "id": "GHCND:BR047099640",
      "elevationUnit": "METERS",
      "longitude": -40.19
    },
    {
      "elevation": 558,
      "mindate": "1938-10-01",
      "maxdate": "1996-08-04",
      "latitude": -10.467,
      "name": "SENHOR DO BONFIM, BR",
      "datacoverage": 0.8309,
      "id": "GHCND:BR047099650",
      "elevationUnit": "METERS",
      "longitude": -40.183
    },
    {
      "elevation": 550,
      "mindate": "1941-09-01",
      "maxdate": "1979-08-31",
      "latitude": -10.45,
      "name": "SENHOR DO BONFIM VFFLB, BR",
      "datacoverage": 0.896,
      "id": "GHCND:BR047099660",
      "elevationUnit": "METERS",
      "longitude": -40.18
    },
    {
      "elevation": 620,
      "mindate": "1962-10-01",
      "maxdate": "1983-12-31",
      "latitude": -10.6,
      "name": "FAZENDA MOCAMBO, BR",
      "datacoverage": 0.8158,
      "id": "GHCND:BR047102640",
      "elevationUnit": "METERS",
      "longitude": -44.68
    },
    {
      "elevation": 580,
      "mindate": "1964-10-01",
      "maxdate": "1983-12-31",
      "latitude": -10.7,
      "name": "TANQUE, BR",
      "datacoverage": 0.9916,
      "id": "GHCND:BR047114340",
      "elevationUnit": "METERS",
      "longitude": -44.45
    },
    {
      "elevation": 536,
      "mindate": "1936-08-01",
      "maxdate": "1983-12-31",
      "latitude": -10.72,
      "name": "MANSIDAO, BR",
      "datacoverage": 0.9596,
      "id": "GHCND:BR047114950",
      "elevationUnit": "METERS",
      "longitude": -44.03
    },
    {
      "elevation": 494,
      "mindate": "1964-08-01",
      "maxdate": "1983-12-31",
      "latitude": -10.71,
      "name": "BURITIRAMA, BR",
      "datacoverage": 0.9442,
      "id": "GHCND:BR047124750",
      "elevationUnit": "METERS",
      "longitude": -43.63
    },
    {
      "elevation": 500,
      "mindate": "1964-08-01",
      "maxdate": "1983-06-30",
      "latitude": -10.8,
      "name": "FAZENDA SAO JOAO, BR",
      "datacoverage": 0.9297,
      "id": "GHCND:BR047126440",
      "elevationUnit": "METERS",
      "longitude": -43.82
    },
    {
      "elevation": 480,
      "mindate": "1964-10-01",
      "maxdate": "1983-12-31",
      "latitude": -10.81,
      "name": "BREJO DOS OLHOS DAGUA, BR",
      "datacoverage": 0.9048,
      "id": "GHCND:BR047136310",
      "elevationUnit": "METERS",
      "longitude": -43.35
    },
    {
      "elevation": 400,
      "mindate": "1964-08-01",
      "maxdate": "1983-12-31",
      "latitude": -10.87,
      "name": "LAGOA DE JOAO CARLOS, BR",
      "datacoverage": 0.9914,
      "id": "GHCND:BR047138030",
      "elevationUnit": "METERS",
      "longitude": -43.55
    },
    {
      "elevation": 480,
      "mindate": "1963-08-01",
      "maxdate": "1983-08-31",
      "latitude": -10.62,
      "name": "FORTALEZA, BR",
      "datacoverage": 0.9584,
      "id": "GHCND:BR047142840",
      "elevationUnit": "METERS",
      "longitude": -42.6
    },
    {
      "elevation": 403,
      "mindate": "1917-11-01",
      "maxdate": "1981-09-30",
      "latitude": -10.83,
      "name": "XIQUE XIQUE IGATU, BR",
      "datacoverage": 0.9557,
      "id": "GHCND:BR047146590",
      "elevationUnit": "METERS",
      "longitude": -42.72
    },
    {
      "elevation": 420,
      "mindate": "1963-08-01",
      "maxdate": "1983-12-31",
      "latitude": -10.91,
      "name": "VARGEM GRANDE VARZEDO, BR",
      "datacoverage": 0.9223,
      "id": "GHCND:BR047158010",
      "elevationUnit": "METERS",
      "longitude": -42.51
    },
    {
      "elevation": 420,
      "mindate": "1963-09-01",
      "maxdate": "1983-12-31",
      "latitude": -10.95,
      "name": "LAGOA DA CARNAUBA, BR",
      "datacoverage": 0.8114,
      "id": "GHCND:BR047159310",
      "elevationUnit": "METERS",
      "longitude": -42.35
    },
    {
      "elevation": 412,
      "mindate": "1964-01-01",
      "maxdate": "1983-12-31",
      "latitude": -10.7,
      "name": "PICADA, BR",
      "datacoverage": 0.95,
      "id": "GHCND:BR047164540",
      "elevationUnit": "METERS",
      "longitude": -41.73
    },
    {
      "elevation": 450,
      "mindate": "1964-01-01",
      "maxdate": "1983-12-31",
      "latitude": -10.9,
      "name": "JAGUARACI, BR",
      "datacoverage": 0.9421,
      "id": "GHCND:BR047168840",
      "elevationUnit": "METERS",
      "longitude": -41.58
    },
    {
      "elevation": 900,
      "mindate": "1964-01-01",
      "maxdate": "1979-07-31",
      "latitude": -10.62,
      "name": "RODOLEIRO, BR",
      "datacoverage": 0.9146,
      "id": "GHCND:BR047172150",
      "elevationUnit": "METERS",
      "longitude": -41.43
    },
    {
      "elevation": 680,
      "mindate": "1964-07-01",
      "maxdate": "1983-12-31",
      "latitude": -10.68,
      "name": "ALAGADICO, BR",
      "datacoverage": 0.8762,
      "id": "GHCND:BR047173440",
      "elevationUnit": "METERS",
      "longitude": -41.29
    },
    {
      "elevation": 510,
      "mindate": "1963-09-01",
      "maxdate": "1983-12-31",
      "latitude": -10.99,
      "name": "BELA VISTA, BR",
      "datacoverage": 0.8239,
      "id": "GHCND:BR047174960",
      "elevationUnit": "METERS",
      "longitude": -40.75
    },
    {
      "elevation": 650,
      "mindate": "1963-10-01",
      "maxdate": "1983-12-31",
      "latitude": -10.92,
      "name": "OLHO DAGUA DO FACUNDO, BR",
      "datacoverage": 0.6349,
      "id": "GHCND:BR047179470",
      "elevationUnit": "METERS",
      "longitude": -41.27
    },
    {
      "elevation": 820,
      "mindate": "1962-12-01",
      "maxdate": "1983-12-31",
      "latitude": -10.67,
      "name": "OCO DAGUA, BR",
      "datacoverage": 0.8302,
      "id": "GHCND:BR047181930",
      "elevationUnit": "METERS",
      "longitude": -40.63
    },
    {
      "elevation": 550,
      "mindate": "1937-11-01",
      "maxdate": "1983-03-31",
      "latitude": -10.6,
      "name": "SAO TOME, BR",
      "datacoverage": 0.9359,
      "id": "GHCND:BR047182110",
      "elevationUnit": "METERS",
      "longitude": -40.95
    },
    {
      "elevation": 580,
      "mindate": "1963-01-01",
      "maxdate": "1983-12-31",
      "latitude": -10.89,
      "name": "TAQUARANDI, BR",
      "datacoverage": 0.9643,
      "id": "GHCND:BR047187630",
      "elevationUnit": "METERS",
      "longitude": -40.7
    },
    {
      "elevation": 590,
      "mindate": "1962-12-01",
      "maxdate": "1983-12-31",
      "latitude": -10.95,
      "name": "ACUDE SERRINHA, BR",
      "datacoverage": 0.9723,
      "id": "GHCND:BR047189140",
      "elevationUnit": "METERS",
      "longitude": -40.93
    },
    {
      "elevation": 930,
      "mindate": "1959-09-01",
      "maxdate": "1983-12-31",
      "latitude": -10.95,
      "name": "MIRANGABA RIACHUELO, BR",
      "datacoverage": 0.9931,
      "id": "GHCND:BR047189840",
      "elevationUnit": "METERS",
      "longitude": -40.58
    },
    {
      "elevation": 512,
      "mindate": "1959-03-01",
      "maxdate": "1983-12-31",
      "latitude": -10.49,
      "name": "ACUDE QUICE, BR",
      "datacoverage": 0.9864,
      "id": "GHCND:BR047190960",
      "elevationUnit": "METERS",
      "longitude": -40.01
    },
    {
      "elevation": 600,
      "mindate": "1933-12-01",
      "maxdate": "1983-12-31",
      "latitude": -10.73,
      "name": "PINDOBACU, BR",
      "datacoverage": 0.99,
      "id": "GHCND:BR047194330",
      "elevationUnit": "METERS",
      "longitude": -40.35
    },
    {
      "elevation": 600,
      "mindate": "1945-01-01",
      "maxdate": "1972-12-31",
      "latitude": -10.7,
      "name": "PINDOBACU, BR",
      "datacoverage": 0.9792,
      "id": "GHCND:BR047194340",
      "elevationUnit": "METERS",
      "longitude": -40.33
    },
    {
      "elevation": 350,
      "mindate": "1964-01-01",
      "maxdate": "1983-12-31",
      "latitude": -10.87,
      "name": "PONTO NOVO, BR",
      "datacoverage": 0.9877,
      "id": "GHCND:BR047197780",
      "elevationUnit": "METERS",
      "longitude": -40.12
    },
    {
      "elevation": 535,
      "mindate": "1934-01-01",
      "maxdate": "1983-12-31",
      "latitude": -10.93,
      "name": "SAUDE, BR",
      "datacoverage": 0.9767,
      "id": "GHCND:BR047198230",
      "elevationUnit": "METERS",
      "longitude": -40.4
    },
    {
      "elevation": 450,
      "mindate": "1964-10-01",
      "maxdate": "1983-12-31",
      "latitude": -11.01,
      "name": "BARRO VERMELHO IBIPITANGA, BR",
      "datacoverage": 0.9654,
      "id": "GHCND:BR047200320",
      "elevationUnit": "METERS",
      "longitude": -44.87
    },
    {
      "elevation": 434,
      "mindate": "1919-07-01",
      "maxdate": "1978-10-31",
      "latitude": -11,
      "name": "SANTA RITA DE CASSIA, BR",
      "datacoverage": 0.9719,
      "id": "GHCND:BR047200970",
      "elevationUnit": "METERS",
      "longitude": -44.52
    },
    {
      "elevation": 450,
      "mindate": "1964-08-01",
      "maxdate": "1983-11-30",
      "latitude": -11.18,
      "name": "ESTREITO, BR",
      "datacoverage": 0.9871,
      "id": "GHCND:BR047213760",
      "elevationUnit": "METERS",
      "longitude": -44.13
    },
    {
      "elevation": 440,
      "mindate": "1964-08-01",
      "maxdate": "1983-11-30",
      "latitude": -11.2,
      "name": "FAZENDA AGRESTE, BR",
      "datacoverage": 0.8883,
      "id": "GHCND:BR047224540",
      "elevationUnit": "METERS",
      "longitude": -43.67
    },
    {
      "elevation": 470,
      "mindate": "1964-10-01",
      "maxdate": "1983-12-31",
      "latitude": -11.11,
      "name": "FAZENDA VARZEA FORMOSA, BR",
      "datacoverage": 0.9697,
      "id": "GHCND:BR047230350",
      "elevationUnit": "METERS",
      "longitude": -43.29
    },
    {
      "elevation": 402,
      "mindate": "1911-08-01",
      "maxdate": "1983-12-31",
      "latitude": -11.083,
      "name": "BARRA, BR",
      "datacoverage": 0.9212,
      "id": "GHCND:BR047231730",
      "elevationUnit": "METERS",
      "longitude": -43.167
    },
    {
      "elevation": 410,
      "mindate": "1964-01-01",
      "maxdate": "1983-12-31",
      "latitude": -11.3,
      "name": "COPIXABA IBIACEMA, BR",
      "datacoverage": 0.8458,
      "id": "GHCND:BR047236670",
      "elevationUnit": "METERS",
      "longitude": -43.17
    },
    {
      "elevation": 520,
      "mindate": "1937-12-01",
      "maxdate": "1983-12-31",
      "latitude": -11.12,
      "name": "SANTO INACIO, BR",
      "datacoverage": 0.991,
      "id": "GHCND:BR047242550",
      "elevationUnit": "METERS",
      "longitude": -42.73
    },
    {
      "elevation": 855,
      "mindate": "1964-01-01",
      "maxdate": "1983-12-31",
      "latitude": -11.32,
      "name": "GAMELEIRA DO ASSURUA, BR",
      "datacoverage": 0.9208,
      "id": "GHCND:BR047246650",
      "elevationUnit": "METERS",
      "longitude": -42.68
    },
    {
      "elevation": 431,
      "mindate": "1962-11-01",
      "maxdate": "1981-12-31",
      "latitude": -11,
      "name": "TIRIRICA, BR",
      "datacoverage": 0.7739,
      "id": "GHCND:BR047250210",
      "elevationUnit": "METERS",
      "longitude": -42.4
    },
    {
      "elevation": 697,
      "mindate": "1915-05-01",
      "maxdate": "1983-12-31",
      "latitude": -11.15,
      "name": "CENTRAL, BR",
      "datacoverage": 0.4996,
      "id": "GHCND:BR047253770",
      "elevationUnit": "METERS",
      "longitude": -42.12
    },
    {
      "elevation": 600,
      "mindate": "1963-08-01",
      "maxdate": "1983-10-31",
      "latitude": -11.33,
      "name": "UIBAI CANABRAVA DO GONCALO, BR",
      "datacoverage": 0.9384,
      "id": "GHCND:BR047256760",
      "elevationUnit": "METERS",
      "longitude": -42.13
    },
    {
      "elevation": 1040,
      "mindate": "1964-01-01",
      "maxdate": "1983-12-31",
      "latitude": -11.42,
      "name": "GENTIO DO OURO, BR",
      "datacoverage": 0.9669,
      "id": "GHCND:BR047258020",
      "elevationUnit": "METERS",
      "longitude": -42.5
    },
    {
      "elevation": 470,
      "mindate": "1962-11-01",
      "maxdate": "1983-12-31",
      "latitude": -11.43,
      "name": "ALTO DA BOA VISTA, BR",
      "datacoverage": 0.9214,
      "id": "GHCND:BR047258390",
      "elevationUnit": "METERS",
      "longitude": -42.32
    },
    {
      "elevation": 680,
      "mindate": "1963-09-01",
      "maxdate": "1983-12-31",
      "latitude": -11.02,
      "name": "ARRECIFE, BR",
      "datacoverage": 0.9877,
      "id": "GHCND:BR047260250",
      "elevationUnit": "METERS",
      "longitude": -41.88
    },
    {
      "elevation": 747,
      "mindate": "1943-09-01",
      "maxdate": "1996-10-15",
      "latitude": -11.3,
      "name": "IRECE, BR",
      "datacoverage": 0.9993,
      "id": "GHCND:BR047266270",
      "elevationUnit": "METERS",
      "longitude": -41.867
    },
    {
      "elevation": 700,
      "mindate": "1963-09-01",
      "maxdate": "1983-12-31",
      "latitude": -11.37,
      "name": "IPANEMA, BR",
      "datacoverage": 0.9754,
      "id": "GHCND:BR047267820",
      "elevationUnit": "METERS",
      "longitude": -41.6
    },
    {
      "elevation": 620,
      "mindate": "1963-09-01",
      "maxdate": "1971-08-31",
      "latitude": -11.23,
      "name": "FAZENDA GARAPA, BR",
      "datacoverage": 0.9689,
      "id": "GHCND:BR047274330",
      "elevationUnit": "METERS",
      "longitude": -41.35
    },
    {
      "elevation": 460,
      "mindate": "1914-05-01",
      "maxdate": "1979-06-30",
      "latitude": -11.17,
      "name": "JACOBINA, BR",
      "datacoverage": 0.9808,
      "id": "GHCND:BR047283980",
      "elevationUnit": "METERS",
      "longitude": -40.52
    },
    {
      "elevation": 820,
      "mindate": "1962-12-01",
      "maxdate": "1972-10-31",
      "latitude": -11.2,
      "name": "TOMBADOR DO ARAUJO, BR",
      "datacoverage": 0.9993,
      "id": "GHCND:BR047284610",
      "elevationUnit": "METERS",
      "longitude": -40.7
    },
    {
      "elevation": 693,
      "mindate": "1962-12-01",
      "maxdate": "1983-12-31",
      "latitude": -11.25,
      "name": "VARZEA NOVA, BR",
      "datacoverage": 0.9764,
      "id": "GHCND:BR047285170",
      "elevationUnit": "METERS",
      "longitude": -40.92
    },
    {
      "elevation": 538,
      "mindate": "1962-12-01",
      "maxdate": "1983-12-31",
      "latitude": -11.42,
      "name": "MIGUEL CALMON, BR",
      "datacoverage": 0.996,
      "id": "GHCND:BR047288820",
      "elevationUnit": "METERS",
      "longitude": -40.6
    },
    {
      "elevation": 533,
      "mindate": "1941-07-01",
      "maxdate": "1962-12-31",
      "latitude": -11.42,
      "name": "MIGUEL CALMON RFN, BR",
      "datacoverage": 0.9534,
      "id": "GHCND:BR047288830",
      "elevationUnit": "METERS",
      "longitude": -40.6
    },
    {
      "elevation": 800,
      "mindate": "1962-12-01",
      "maxdate": "1983-11-30",
      "latitude": -11.45,
      "name": "FLORES, BR",
      "datacoverage": 0.9127,
      "id": "GHCND:BR047289040",
      "elevationUnit": "METERS",
      "longitude": -40.98
    },
    {
      "elevation": 500,
      "mindate": "1959-01-01",
      "maxdate": "1983-12-31",
      "latitude": -11.09,
      "name": "CAEM, BR",
      "datacoverage": 0.9867,
      "id": "GHCND:BR047291160",
      "elevationUnit": "METERS",
      "longitude": -40.44
    },
    {
      "elevation": 350,
      "mindate": "1962-12-01",
      "maxdate": "1983-12-31",
      "latitude": -11.19,
      "name": "GONCALO, BR",
      "datacoverage": 0.996,
      "id": "GHCND:BR047293490",
      "elevationUnit": "METERS",
      "longitude": -40.27
    },
    {
      "elevation": 370,
      "mindate": "1928-08-01",
      "maxdate": "1983-12-31",
      "latitude": -11.2,
      "name": "ACUDE RIO DO PEIXE, BR",
      "datacoverage": 0.9865,
      "id": "GHCND:BR047294970",
      "elevationUnit": "METERS",
      "longitude": -40.02
    },
    {
      "elevation": 500,
      "mindate": "1962-12-01",
      "maxdate": "1983-12-31",
      "latitude": -11.32,
      "name": "ITAPEIPU, BR",
      "datacoverage": 0.9608,
      "id": "GHCND:BR047296340",
      "elevationUnit": "METERS",
      "longitude": -40.35
    },
    {
      "elevation": 445,
      "mindate": "1951-05-01",
      "maxdate": "1983-12-31",
      "latitude": -11.4,
      "name": "ACUDE SERROTE, BR",
      "datacoverage": 0.9849,
      "id": "GHCND:BR047298570",
      "elevationUnit": "METERS",
      "longitude": -40.3
    },
    {
      "elevation": 498,
      "mindate": "1964-08-01",
      "maxdate": "1983-12-31",
      "latitude": -11.75,
      "name": "RIACHAO DAS NEVES, BR",
      "datacoverage": 0.9229,
      "id": "GHCND:BR047305180",
      "elevationUnit": "METERS",
      "longitude": -44.91
    },
    {
      "elevation": 413,
      "mindate": "1964-08-01",
      "maxdate": "1983-12-31",
      "latitude": -11.42,
      "name": "NUPEBA, BR",
      "datacoverage": 0.8798,
      "id": "GHCND:BR047307540",
      "elevationUnit": "METERS",
      "longitude": -44.99
    },
    {
      "elevation": 460,
      "mindate": "1964-08-01",
      "maxdate": "1983-12-31",
      "latitude": -11.82,
      "name": "JUPAGUA, BR",
      "datacoverage": 0.9442,
      "id": "GHCND:BR047316340",
      "elevationUnit": "METERS",
      "longitude": -44.34
    },
    {
      "elevation": 415,
      "mindate": "1936-08-01",
      "maxdate": "1983-12-31",
      "latitude": -11.57,
      "name": "MORPARA, BR",
      "datacoverage": 0.9508,
      "id": "GHCND:BR047331450",
      "elevationUnit": "METERS",
      "longitude": -43.28
    },
    {
      "elevation": 430,
      "mindate": "1963-11-01",
      "maxdate": "1972-08-31",
      "latitude": -11.83,
      "name": "BOA VISTA DO LAGAMAR, BR",
      "datacoverage": 0.9809,
      "id": "GHCND:BR047336430",
      "elevationUnit": "METERS",
      "longitude": -43.3
    },
    {
      "elevation": 450,
      "mindate": "1964-01-01",
      "maxdate": "1982-12-31",
      "latitude": -11.5,
      "name": "PATOS, BR",
      "datacoverage": 0.8326,
      "id": "GHCND:BR047340210",
      "elevationUnit": "METERS",
      "longitude": -42.9
    }
  ]
}
