{
  "metadata": {
    "resultset": {
      "offset": 53800,
      "count": 154115,
      "limit": 100
    }
  },
  "results": [
    {
      "elevation": 46,
      "mindate": "2023-01-01",
      "maxdate": "2025-03-07",
      "latitude": 46.7744385,
      "name": "ROGERSVILLE 5.6 NW, CA",
      "datacoverage": 0.8116,
      "id": "GHCND:CA1NB000171",
      "elevationUnit": "METERS",
      "longitude": -65.4743313
    },
    {
      "elevation": 14.9,
      "mindate": "2023-01-22",
      "maxdate": "2025-03-07",
      "latitude": 44.63373,
      "name": "WHITE HEAD 1.5 ESE, CA",
      "datacoverage": 0.9993,
      "id": "GHCND:CA1NB000172",
      "elevationUnit": "METERS",
      "longitude": -66.69665
    },
    {
      "elevation": 139.9,
      "mindate": "2023-03-25",
      "maxdate": "2025-03-07",
      "latitude": 46.01577,
      "name": "MCLEOD HILL 1.3 SSW, CA",
      "datacoverage": 1,
      "id": "GHCND:CA1NB000174",
      "elevationUnit": "METERS",
      "longitude": -66.68965
    },
    {
      "elevation": 253.9,
      "mindate": "2023-05-15",
      "maxdate": "2024-09-05",
      "latitude": 47.144342,
      "name": "VIOLETTE SETTLEMENT 3.6 S, CA",
      "datacoverage": 0.2396,
      "id": "GHCND:CA1NB000175",
      "elevationUnit": "METERS",
      "longitude": -67.810195
    },
    {
      "mindate": "2023-12-02",
      "maxdate": "2025-03-07",
      "latitude": 45.92723,
      "name": "FREDERICTON 3.6 SSE, CA",
      "datacoverage": 0.5065,
      "id": "GHCND:CA1NB000176",
      "longitude": -66.62318
    },
    {
      "elevation": 58.8,
      "mindate": "2013-11-01",
      "maxdate": "2025-03-07",
      "latitude": 47.564043,
      "name": "ST. JOHN S 0.4 N, CA",
      "datacoverage": 1,
      "id": "GHCND:CA1NL000002",
      "elevationUnit": "METERS",
      "longitude": -52.71336
    },
    {
      "elevation": 11,
      "mindate": "2013-11-01",
      "maxdate": "2015-04-28",
      "latitude": 47.453482,
      "name": "CONCEPTION BAY SOUTH 10.7 SW, CA",
      "datacoverage": 0.7804,
      "id": "GHCND:CA1NL000005",
      "elevationUnit": "METERS",
      "longitude": -53.089409
    },
    {
      "elevation": 128.3,
      "mindate": "2013-10-01",
      "maxdate": "2015-11-17",
      "latitude": 48.953556,
      "name": "GANDER 0.6 WSW, CA",
      "datacoverage": 0.962,
      "id": "GHCND:CA1NL000006",
      "elevationUnit": "METERS",
      "longitude": -54.618592
    },
    {
      "elevation": 138.7,
      "mindate": "2013-11-10",
      "maxdate": "2021-03-24",
      "latitude": 47.503472,
      "name": "MOUNT PEARL 2.1 SSE, CA",
      "datacoverage": 0.3299,
      "id": "GHCND:CA1NL000011",
      "elevationUnit": "METERS",
      "longitude": -52.797274
    },
    {
      "elevation": 44.8,
      "mindate": "2013-11-01",
      "maxdate": "2025-03-06",
      "latitude": 51.435,
      "name": "L ANSE AU CLAIR 0.1 NW, CA",
      "datacoverage": 1,
      "id": "GHCND:CA1NL000013",
      "elevationUnit": "METERS",
      "longitude": -57.065
    },
    {
      "elevation": 74.1,
      "mindate": "2013-11-01",
      "maxdate": "2025-03-06",
      "latitude": 47.42741,
      "name": "WHITBOURNE 1.4 NE, CA",
      "datacoverage": 1,
      "id": "GHCND:CA1NL000014",
      "elevationUnit": "METERS",
      "longitude": -53.51946
    },
    {
      "elevation": 33.5,
      "mindate": "2013-11-01",
      "maxdate": "2025-03-07",
      "latitude": 51.52017,
      "name": "L ANSE AU LOUP 0.7 SSW, CA",
      "datacoverage": 1,
      "id": "GHCND:CA1NL000017",
      "elevationUnit": "METERS",
      "longitude": -56.836933
    },
    {
      "elevation": 22.3,
      "mindate": "2013-11-01",
      "maxdate": "2014-11-30",
      "latitude": 47.860085,
      "name": "SUNNYSIDE 0.0 S, CA",
      "datacoverage": 1,
      "id": "GHCND:CA1NL000021",
      "elevationUnit": "METERS",
      "longitude": -53.923264
    },
    {
      "elevation": 52.4,
      "mindate": "2013-11-01",
      "maxdate": "2014-04-26",
      "latitude": 49.0094,
      "name": "PASADENA 0.5 SE, CA",
      "datacoverage": 1,
      "id": "GHCND:CA1NL000026",
      "elevationUnit": "METERS",
      "longitude": -57.5849
    },
    {
      "elevation": 15.5,
      "mindate": "2013-11-01",
      "maxdate": "2014-07-26",
      "latitude": 46.909943,
      "name": "ST. MARY S 0.6 WSW, CA",
      "datacoverage": 1,
      "id": "GHCND:CA1NL000031",
      "elevationUnit": "METERS",
      "longitude": -53.583755
    },
    {
      "elevation": 12.5,
      "mindate": "2013-10-01",
      "maxdate": "2014-04-12",
      "latitude": 49.335436,
      "name": "POINT LEAMINGTON 0.2 SW, CA",
      "datacoverage": 1,
      "id": "GHCND:CA1NL000035",
      "elevationUnit": "METERS",
      "longitude": -55.401392
    },
    {
      "elevation": 6.7,
      "mindate": "2013-11-01",
      "maxdate": "2024-10-28",
      "latitude": 47.86048,
      "name": "ST. ALBAN S 2.1 SSE, CA",
      "datacoverage": 0.8517,
      "id": "GHCND:CA1NL000036",
      "elevationUnit": "METERS",
      "longitude": -55.836104
    },
    {
      "elevation": 21.3,
      "mindate": "2013-11-01",
      "maxdate": "2014-09-23",
      "latitude": 47.174457,
      "name": "MARYSTOWN 1.1 SSW, CA",
      "datacoverage": 1,
      "id": "GHCND:CA1NL000049",
      "elevationUnit": "METERS",
      "longitude": -55.152245
    },
    {
      "elevation": 79.2,
      "mindate": "2013-11-01",
      "maxdate": "2025-03-07",
      "latitude": 47.595512,
      "name": "ST. JOHN S 4.3 NNE, CA",
      "datacoverage": 1,
      "id": "GHCND:CA1NL000050",
      "elevationUnit": "METERS",
      "longitude": -52.687125
    },
    {
      "elevation": 2.7,
      "mindate": "2013-06-01",
      "maxdate": "2017-06-14",
      "latitude": 49.312662,
      "name": "EMBREE 0.2 W, CA",
      "datacoverage": 0.8614,
      "id": "GHCND:CA1NL000062",
      "elevationUnit": "METERS",
      "longitude": -55.033101
    },
    {
      "elevation": 5.5,
      "mindate": "1998-06-17",
      "maxdate": "2025-01-11",
      "latitude": 47.155626,
      "name": "MOUNT CARMEL 0.1 NE, CA",
      "datacoverage": 1,
      "id": "GHCND:CA1NL000063",
      "elevationUnit": "METERS",
      "longitude": -53.472167
    },
    {
      "elevation": 36.3,
      "mindate": "2013-10-01",
      "maxdate": "2025-03-07",
      "latitude": 48.554363,
      "name": "KIPPENS 0.7 NE, CA",
      "datacoverage": 0.9668,
      "id": "GHCND:CA1NL000065",
      "elevationUnit": "METERS",
      "longitude": -58.618461
    },
    {
      "elevation": 43.3,
      "mindate": "2013-11-01",
      "maxdate": "2014-04-30",
      "latitude": 48.25359,
      "name": "ROBINSONS 0.3 SW, CA",
      "datacoverage": 1,
      "id": "GHCND:CA1NL000066",
      "elevationUnit": "METERS",
      "longitude": -58.79889
    },
    {
      "elevation": 86.6,
      "mindate": "2013-12-01",
      "maxdate": "2017-01-09",
      "latitude": 47.558235,
      "name": "ST. JOHN S 2.8 W, CA",
      "datacoverage": 1,
      "id": "GHCND:CA1NL000067",
      "elevationUnit": "METERS",
      "longitude": -52.749233
    },
    {
      "elevation": 12.5,
      "mindate": "2014-11-01",
      "maxdate": "2024-12-01",
      "latitude": 49.2440338,
      "name": "LEWISPORTE 0.3 SSE NL HAM, CA",
      "datacoverage": 1,
      "id": "GHCND:CA1NL000069",
      "elevationUnit": "METERS",
      "longitude": -55.0648422
    },
    {
      "elevation": 279.2,
      "mindate": "2015-05-01",
      "maxdate": "2015-12-20",
      "latitude": 47.2543602,
      "name": "PLACENTIA 1.3 N NL HAM, CA",
      "datacoverage": 0.9939,
      "id": "GHCND:CA1NL000070",
      "elevationUnit": "METERS",
      "longitude": -53.9756088
    },
    {
      "elevation": 98.5,
      "mindate": "2014-10-01",
      "maxdate": "2022-08-09",
      "latitude": 47.5938988,
      "name": "ST. JOHN S 3.4 N, CA",
      "datacoverage": 0.999,
      "id": "GHCND:CA1NL000072",
      "elevationUnit": "METERS",
      "longitude": -52.7287903
    },
    {
      "elevation": 154.8,
      "mindate": "2015-02-01",
      "maxdate": "2020-08-03",
      "latitude": 47.5479927,
      "name": "PARADISE 3.0 NW, CA",
      "datacoverage": 1,
      "id": "GHCND:CA1NL000073",
      "elevationUnit": "METERS",
      "longitude": -52.8882027
    },
    {
      "elevation": 30.2,
      "mindate": "2015-01-01",
      "maxdate": "2016-05-18",
      "latitude": 48.4472,
      "name": "SUMMERVILLE 0.9 SSE, CA",
      "datacoverage": 1,
      "id": "GHCND:CA1NL000075",
      "elevationUnit": "METERS",
      "longitude": -53.558
    },
    {
      "elevation": 21,
      "mindate": "2015-03-01",
      "maxdate": "2018-11-21",
      "latitude": 51.358139,
      "name": "ST. ANTHONY 23.8 SE, CA",
      "datacoverage": 0.9991,
      "id": "GHCND:CA1NL000076",
      "elevationUnit": "METERS",
      "longitude": -55.5806847
    },
    {
      "elevation": 151.2,
      "mindate": "2017-04-30",
      "maxdate": "2025-03-07",
      "latitude": 47.519554,
      "name": "MOUNT PEARL 1.3 WNW, CA",
      "datacoverage": 0.8731,
      "id": "GHCND:CA1NL000079",
      "elevationUnit": "METERS",
      "longitude": -52.828386
    },
    {
      "elevation": 85.6,
      "mindate": "2018-08-28",
      "maxdate": "2025-03-07",
      "latitude": 48.931232,
      "name": "GRAND FALLS WINDSOR 1.2 S, CA",
      "datacoverage": 0.5923,
      "id": "GHCND:CA1NL000081",
      "elevationUnit": "METERS",
      "longitude": -55.653334
    },
    {
      "elevation": 120.1,
      "mindate": "2018-12-17",
      "maxdate": "2025-03-07",
      "latitude": 48.977379,
      "name": "GANDER 2.7 NW, CA",
      "datacoverage": 0.9432,
      "id": "GHCND:CA1NL000082",
      "elevationUnit": "METERS",
      "longitude": -54.633964
    },
    {
      "elevation": 72.5,
      "mindate": "2019-07-30",
      "maxdate": "2021-12-08",
      "latitude": 47.566956,
      "name": "ST. JOHN S 0.4 NNE, CA",
      "datacoverage": 0.394,
      "id": "GHCND:CA1NL000084",
      "elevationUnit": "METERS",
      "longitude": -52.72279
    },
    {
      "elevation": 29.9,
      "mindate": "2021-08-13",
      "maxdate": "2025-03-07",
      "latitude": 47.5716104,
      "name": "THE DOCK 0.6 ESE, CA",
      "datacoverage": 0.8949,
      "id": "GHCND:CA1NL000088",
      "elevationUnit": "METERS",
      "longitude": -53.2535598
    },
    {
      "elevation": 583.1,
      "mindate": "2023-10-01",
      "maxdate": "2025-03-06",
      "latitude": 52.896066,
      "name": "WABUSH 0.6 SE, CA",
      "datacoverage": 1,
      "id": "GHCND:CA1NL000091",
      "elevationUnit": "METERS",
      "longitude": -66.862171
    },
    {
      "elevation": 469.1,
      "mindate": "2023-09-08",
      "maxdate": "2025-02-27",
      "latitude": 48.9171,
      "name": "CORNER BROOK 11.6 ESE, CA",
      "datacoverage": 0.6379,
      "id": "GHCND:CA1NL000095",
      "elevationUnit": "METERS",
      "longitude": -57.7979
    },
    {
      "elevation": 72.5,
      "mindate": "2013-11-01",
      "maxdate": "2025-03-03",
      "latitude": 44.06317,
      "name": "LIVERPOOL 3.0 N, CA",
      "datacoverage": 1,
      "id": "GHCND:CA1NS000001",
      "elevationUnit": "METERS",
      "longitude": -64.71462
    },
    {
      "elevation": 57.3,
      "mindate": "2013-10-01",
      "maxdate": "2023-05-10",
      "latitude": 45.3515396,
      "name": "TRURO 1.6 SSE, CA",
      "datacoverage": 1,
      "id": "GHCND:CA1NS000002",
      "elevationUnit": "METERS",
      "longitude": -63.2834282
    },
    {
      "elevation": 103.3,
      "mindate": "2013-09-01",
      "maxdate": "2025-03-07",
      "latitude": 45.079215,
      "name": "WOLFVILLE 7.1 ESE, CA",
      "datacoverage": 1,
      "id": "GHCND:CA1NS000003",
      "elevationUnit": "METERS",
      "longitude": -64.271071
    },
    {
      "elevation": 31.7,
      "mindate": "2013-08-01",
      "maxdate": "2025-03-07",
      "latitude": 45.708611,
      "name": "JIMTOWN 0.2 WNW, CA",
      "datacoverage": 1,
      "id": "GHCND:CA1NS000004",
      "elevationUnit": "METERS",
      "longitude": -61.902386
    },
    {
      "elevation": 7,
      "mindate": "2013-08-01",
      "maxdate": "2025-03-07",
      "latitude": 44.499141,
      "name": "DUNCANS COVE 0.4 ESE, CA",
      "datacoverage": 1,
      "id": "GHCND:CA1NS000006",
      "elevationUnit": "METERS",
      "longitude": -63.526403
    },
    {
      "elevation": 32,
      "mindate": "2013-11-01",
      "maxdate": "2015-05-13",
      "latitude": 45.07128,
      "name": "KENTVILLE 0.9 SE, CA",
      "datacoverage": 1,
      "id": "GHCND:CA1NS000007",
      "elevationUnit": "METERS",
      "longitude": -64.485687
    },
    {
      "elevation": 46,
      "mindate": "2013-10-01",
      "maxdate": "2015-08-28",
      "latitude": 45.891166,
      "name": "AMHERST 20.4 ENE, CA",
      "datacoverage": 0.9566,
      "id": "GHCND:CA1NS000009",
      "elevationUnit": "METERS",
      "longitude": -63.976516
    },
    {
      "elevation": 81.1,
      "mindate": "2013-12-01",
      "maxdate": "2025-03-02",
      "latitude": 44.833878,
      "name": "FALL RIVER 2.8 NE, CA",
      "datacoverage": 1,
      "id": "GHCND:CA1NS000010",
      "elevationUnit": "METERS",
      "longitude": -63.584154
    },
    {
      "elevation": 77.4,
      "mindate": "2013-11-01",
      "maxdate": "2019-11-14",
      "latitude": 44.70289,
      "name": "DARTMOUTH 5.1 NNE, CA",
      "datacoverage": 1,
      "id": "GHCND:CA1NS000011",
      "elevationUnit": "METERS",
      "longitude": -63.532861
    },
    {
      "elevation": 23.2,
      "mindate": "2013-10-01",
      "maxdate": "2021-10-12",
      "latitude": 45.78628,
      "name": "PUGWASH JUNCTION 1.5 SE, CA",
      "datacoverage": 0.9257,
      "id": "GHCND:CA1NS000012",
      "elevationUnit": "METERS",
      "longitude": -63.622537
    },
    {
      "elevation": 48.2,
      "mindate": "1998-06-17",
      "maxdate": "2025-03-07",
      "latitude": 45.382523,
      "name": "TRURO 5.0 ENE, CA",
      "datacoverage": 1,
      "id": "GHCND:CA1NS000013",
      "elevationUnit": "METERS",
      "longitude": -63.228049
    },
    {
      "elevation": 77.7,
      "mindate": "2013-10-01",
      "maxdate": "2016-01-17",
      "latitude": 44.682572,
      "name": "UPPER TANTALLON 1.5 ESE, CA",
      "datacoverage": 0.9991,
      "id": "GHCND:CA1NS000014",
      "elevationUnit": "METERS",
      "longitude": -63.860198
    },
    {
      "elevation": 23.8,
      "mindate": "2013-11-01",
      "maxdate": "2019-09-27",
      "latitude": 44.932558,
      "name": "ENFIELD 1.3 SSW, CA",
      "datacoverage": 0.8973,
      "id": "GHCND:CA1NS000015",
      "elevationUnit": "METERS",
      "longitude": -63.542766
    },
    {
      "elevation": 41.8,
      "mindate": "2013-10-01",
      "maxdate": "2025-03-07",
      "latitude": 44.642751,
      "name": "HALIFAX 2.4 WSW, CA",
      "datacoverage": 0.8334,
      "id": "GHCND:CA1NS000016",
      "elevationUnit": "METERS",
      "longitude": -63.604264
    },
    {
      "elevation": 128.3,
      "mindate": "2013-10-01",
      "maxdate": "2025-03-07",
      "latitude": 44.751813,
      "name": "HAMMONDS PLAINS 2.1 NNW, CA",
      "datacoverage": 1,
      "id": "GHCND:CA1NS000018",
      "elevationUnit": "METERS",
      "longitude": -63.791024
    },
    {
      "elevation": 82,
      "mindate": "2013-10-01",
      "maxdate": "2024-12-21",
      "latitude": 44.666184,
      "name": "DARTMOUTH 5.7 E, CA",
      "datacoverage": 1,
      "id": "GHCND:CA1NS000019",
      "elevationUnit": "METERS",
      "longitude": -63.495361
    },
    {
      "elevation": 5.8,
      "mindate": "2013-11-01",
      "maxdate": "2025-03-07",
      "latitude": 45.025653,
      "name": "SPANISH SHIP BAY 0.6 NE, CA",
      "datacoverage": 0.8973,
      "id": "GHCND:CA1NS000020",
      "elevationUnit": "METERS",
      "longitude": -62.026673
    },
    {
      "elevation": 89,
      "mindate": "2013-11-01",
      "maxdate": "2014-11-25",
      "latitude": 44.471611,
      "name": "PLYMPTON 5.2 SE, CA",
      "datacoverage": 1,
      "id": "GHCND:CA1NS000022",
      "elevationUnit": "METERS",
      "longitude": -65.870543
    },
    {
      "elevation": 83.8,
      "mindate": "2013-11-01",
      "maxdate": "2025-03-07",
      "latitude": 45.004271,
      "name": "MIDDLETON 7.8 NNW, CA",
      "datacoverage": 1,
      "id": "GHCND:CA1NS000023",
      "elevationUnit": "METERS",
      "longitude": -65.116924
    },
    {
      "elevation": 85.3,
      "mindate": "1998-06-01",
      "maxdate": "2017-03-01",
      "latitude": 45.672494,
      "name": "CRANDALL ROAD 1.3 SW, CA",
      "datacoverage": 0.9986,
      "id": "GHCND:CA1NS000025",
      "elevationUnit": "METERS",
      "longitude": -61.332805
    },
    {
      "elevation": 11,
      "mindate": "2013-11-01",
      "maxdate": "2019-06-30",
      "latitude": 44.82283,
      "name": "BRIDGETOWN 3.1 WSW, CA",
      "datacoverage": 1,
      "id": "GHCND:CA1NS000026",
      "elevationUnit": "METERS",
      "longitude": -65.3178
    },
    {
      "elevation": 27.4,
      "mindate": "2013-11-01",
      "maxdate": "2025-03-07",
      "latitude": 44.670825,
      "name": "WEST PORTERS LAKE 2.0 SSE, CA",
      "datacoverage": 1,
      "id": "GHCND:CA1NS000030",
      "elevationUnit": "METERS",
      "longitude": -63.304722
    },
    {
      "elevation": 26.2,
      "mindate": "2013-11-01",
      "maxdate": "2021-01-06",
      "latitude": 45.101874,
      "name": "PORT WILLIAMS 0.6 NW, CA",
      "datacoverage": 0.9318,
      "id": "GHCND:CA1NS000031",
      "elevationUnit": "METERS",
      "longitude": -64.414361
    },
    {
      "elevation": 49.7,
      "mindate": "2013-11-01",
      "maxdate": "2015-05-01",
      "latitude": 45.664838,
      "name": "RIVER JOHN 10.2 SSE, CA",
      "datacoverage": 1,
      "id": "GHCND:CA1NS000032",
      "elevationUnit": "METERS",
      "longitude": -63.009362
    },
    {
      "elevation": 6.1,
      "mindate": "2013-11-01",
      "maxdate": "2014-05-30",
      "latitude": 43.668747,
      "name": "SANDY POINT 4.4 SE, CA",
      "datacoverage": 1,
      "id": "GHCND:CA1NS000035",
      "elevationUnit": "METERS",
      "longitude": -65.28411
    },
    {
      "elevation": 32.6,
      "mindate": "2001-11-08",
      "maxdate": "2025-03-05",
      "latitude": 44.639368,
      "name": "HALIFAX 2.2 SW, CA",
      "datacoverage": 1,
      "id": "GHCND:CA1NS000036",
      "elevationUnit": "METERS",
      "longitude": -63.599797
    },
    {
      "elevation": 21.6,
      "mindate": "2013-10-01",
      "maxdate": "2015-01-09",
      "latitude": 44.63517,
      "name": "COW BAY 1.3 N, CA",
      "datacoverage": 0.499,
      "id": "GHCND:CA1NS000038",
      "elevationUnit": "METERS",
      "longitude": -63.4214706
    },
    {
      "elevation": 182.9,
      "mindate": "2013-11-01",
      "maxdate": "2025-03-07",
      "latitude": 46.250821,
      "name": "ST. ANNS 2.8 NW, CA",
      "datacoverage": 1,
      "id": "GHCND:CA1NS000039",
      "elevationUnit": "METERS",
      "longitude": -60.64337
    },
    {
      "elevation": 25.9,
      "mindate": "2013-11-01",
      "maxdate": "2017-09-29",
      "latitude": 44.631676,
      "name": "HUBBARDS 1.9 SW, CA",
      "datacoverage": 1,
      "id": "GHCND:CA1NS000041",
      "elevationUnit": "METERS",
      "longitude": -64.069978
    },
    {
      "elevation": 80.5,
      "mindate": "2013-11-01",
      "maxdate": "2025-03-07",
      "latitude": 44.729171,
      "name": "BEDFORD 0.6 WNW, CA",
      "datacoverage": 0.9663,
      "id": "GHCND:CA1NS000043",
      "elevationUnit": "METERS",
      "longitude": -63.675218
    },
    {
      "elevation": 4,
      "mindate": "2013-11-01",
      "maxdate": "2017-12-13",
      "latitude": 44.35413,
      "name": "GROSSES COQUES 0.3 SW, CA",
      "datacoverage": 1,
      "id": "GHCND:CA1NS000044",
      "elevationUnit": "METERS",
      "longitude": -66.10259
    },
    {
      "elevation": 203.9,
      "mindate": "2013-11-01",
      "maxdate": "2023-03-05",
      "latitude": 44.669753,
      "name": "SPRINGFIELD 4.2 NNE, CA",
      "datacoverage": 1,
      "id": "GHCND:CA1NS000045",
      "elevationUnit": "METERS",
      "longitude": -64.852564
    },
    {
      "elevation": 88.7,
      "mindate": "2000-03-01",
      "maxdate": "2025-03-07",
      "latitude": 44.710379,
      "name": "HAMMOND PLAINS 2.0 SSE, CA",
      "datacoverage": 1,
      "id": "GHCND:CA1NS000046",
      "elevationUnit": "METERS",
      "longitude": -63.733081
    },
    {
      "elevation": 192.9,
      "mindate": "2013-10-01",
      "maxdate": "2015-03-01",
      "latitude": 45.27527,
      "name": "EAST LOON LAKE 0.1 N, CA",
      "datacoverage": 1,
      "id": "GHCND:CA1NS000049",
      "elevationUnit": "METERS",
      "longitude": -62.71275
    },
    {
      "elevation": 11.9,
      "mindate": "2013-11-01",
      "maxdate": "2014-04-04",
      "latitude": 44.696959,
      "name": "EAST PETPESWICK 7.5 S, CA",
      "datacoverage": 1,
      "id": "GHCND:CA1NS000050",
      "elevationUnit": "METERS",
      "longitude": -63.151557
    },
    {
      "elevation": 12.2,
      "mindate": "2013-11-01",
      "maxdate": "2025-03-07",
      "latitude": 43.993,
      "name": "PORT MAITLAND 1.2 NNE, CA",
      "datacoverage": 0.9663,
      "id": "GHCND:CA1NS000053",
      "elevationUnit": "METERS",
      "longitude": -66.1468
    },
    {
      "elevation": 65.8,
      "mindate": "2013-11-01",
      "maxdate": "2015-02-09",
      "latitude": 45.261472,
      "name": "GREEN OAKS 1.3 NNE, CA",
      "datacoverage": 1,
      "id": "GHCND:CA1NS000054",
      "elevationUnit": "METERS",
      "longitude": -63.431394
    },
    {
      "elevation": 105.8,
      "mindate": "2013-10-01",
      "maxdate": "2025-03-07",
      "latitude": 44.724559,
      "name": "HAMMOND PLAINS 2.9 WSW, CA",
      "datacoverage": 0.7001,
      "id": "GHCND:CA1NS000056",
      "elevationUnit": "METERS",
      "longitude": -63.819223
    },
    {
      "elevation": 155.1,
      "mindate": "2013-11-01",
      "maxdate": "2021-06-16",
      "latitude": 44.704526,
      "name": "NEW ROSS 3.7 S, CA",
      "datacoverage": 0.9663,
      "id": "GHCND:CA1NS000059",
      "elevationUnit": "METERS",
      "longitude": -64.456614
    },
    {
      "elevation": 23.2,
      "mindate": "2013-10-01",
      "maxdate": "2025-03-07",
      "latitude": 46.056453,
      "name": "SYDNEY FORKS, CA",
      "datacoverage": 1,
      "id": "GHCND:CA1NS000060",
      "elevationUnit": "METERS",
      "longitude": -60.315107
    },
    {
      "elevation": 9.1,
      "mindate": "2013-10-01",
      "maxdate": "2021-04-06",
      "latitude": 46.916214,
      "name": "ASPY BAY 0.9 SW, CA",
      "datacoverage": 1,
      "id": "GHCND:CA1NS000061",
      "elevationUnit": "METERS",
      "longitude": -60.494642
    },
    {
      "elevation": 41.1,
      "mindate": "2013-11-01",
      "maxdate": "2025-03-06",
      "latitude": 45.36078,
      "name": "TRURO 1.6 ESE, CA",
      "datacoverage": 1,
      "id": "GHCND:CA1NS000062",
      "elevationUnit": "METERS",
      "longitude": -63.268158
    },
    {
      "elevation": 21.9,
      "mindate": "2013-11-01",
      "maxdate": "2025-03-07",
      "latitude": 44.025,
      "name": "CEDAR LAKE 1.0 SSW, CA",
      "datacoverage": 1,
      "id": "GHCND:CA1NS000063",
      "elevationUnit": "METERS",
      "longitude": -66.103
    },
    {
      "elevation": 11,
      "mindate": "2013-10-01",
      "maxdate": "2014-12-12",
      "latitude": 45.860325,
      "name": "AMHERST 5.4 NW, CA",
      "datacoverage": 0.999,
      "id": "GHCND:CA1NS000064",
      "elevationUnit": "METERS",
      "longitude": -64.248652
    },
    {
      "elevation": 11.9,
      "mindate": "2013-10-01",
      "maxdate": "2018-11-15",
      "latitude": 43.507264,
      "name": "NORTH EAST POINT 1.1 NNE, CA",
      "datacoverage": 1,
      "id": "GHCND:CA1NS000067",
      "elevationUnit": "METERS",
      "longitude": -65.609547
    },
    {
      "elevation": 140.8,
      "mindate": "2013-11-01",
      "maxdate": "2025-03-07",
      "latitude": 45.085355,
      "name": "RAWDON GOLD MINES 3.4 N, CA",
      "datacoverage": 1,
      "id": "GHCND:CA1NS000068",
      "elevationUnit": "METERS",
      "longitude": -63.768382
    },
    {
      "elevation": 7,
      "mindate": "2013-10-01",
      "maxdate": "2025-03-07",
      "latitude": 43.629267,
      "name": "LOWER WEST PUBNICO 0.3 NE, CA",
      "datacoverage": 1,
      "id": "GHCND:CA1NS000069",
      "elevationUnit": "METERS",
      "longitude": -65.799911
    },
    {
      "elevation": 9.8,
      "mindate": "2013-11-01",
      "maxdate": "2017-12-11",
      "latitude": 46.228699,
      "name": "GEORGES RIVER 2.3 NNE, CA",
      "datacoverage": 1,
      "id": "GHCND:CA1NS000070",
      "elevationUnit": "METERS",
      "longitude": -60.30344
    },
    {
      "elevation": 118.9,
      "mindate": "2013-03-01",
      "maxdate": "2025-03-07",
      "latitude": 46.185505,
      "name": "BADDECK FORKS 2.5 E, CA",
      "datacoverage": 1,
      "id": "GHCND:CA1NS000074",
      "elevationUnit": "METERS",
      "longitude": -60.734268
    },
    {
      "elevation": 9.8,
      "mindate": "2013-11-01",
      "maxdate": "2025-03-07",
      "latitude": 45.314725,
      "name": "SCOTS BAY 3.1 WNW, CA",
      "datacoverage": 1,
      "id": "GHCND:CA1NS000081",
      "elevationUnit": "METERS",
      "longitude": -64.428861
    },
    {
      "elevation": 20.7,
      "mindate": "2013-11-01",
      "maxdate": "2025-03-07",
      "latitude": 43.770633,
      "name": "YARMOUTH 7.4 S, CA",
      "datacoverage": 1,
      "id": "GHCND:CA1NS000082",
      "elevationUnit": "METERS",
      "longitude": -66.111972
    },
    {
      "elevation": 5.2,
      "mindate": "2013-12-01",
      "maxdate": "2025-01-12",
      "latitude": 44.830739,
      "name": "CENTRELEA 1.2 NNW, CA",
      "datacoverage": 0.9986,
      "id": "GHCND:CA1NS000083",
      "elevationUnit": "METERS",
      "longitude": -65.32664
    },
    {
      "elevation": 33.2,
      "mindate": "2014-04-01",
      "maxdate": "2025-03-07",
      "latitude": 45.76986,
      "name": "NAPPAN 1.7 E, CA",
      "datacoverage": 0.9993,
      "id": "GHCND:CA1NS000086",
      "elevationUnit": "METERS",
      "longitude": -64.21804
    },
    {
      "elevation": 81.7,
      "mindate": "2014-12-01",
      "maxdate": "2025-03-01",
      "latitude": 46.338719,
      "name": "TARBOT 1.3 NE CBN, CA",
      "datacoverage": 1,
      "id": "GHCND:CA1NS000092",
      "elevationUnit": "METERS",
      "longitude": -60.61087459831
    },
    {
      "elevation": 30.2,
      "mindate": "2014-12-01",
      "maxdate": "2015-10-11",
      "latitude": 46.3526497,
      "name": "MARGAREE HARBOUR 10.8 S CBN, CA",
      "datacoverage": 1,
      "id": "GHCND:CA1NS000093",
      "elevationUnit": "METERS",
      "longitude": -61.0776215
    },
    {
      "elevation": 32,
      "mindate": "2014-12-01",
      "maxdate": "2025-01-12",
      "latitude": 46.3093796,
      "name": "MARGAREE FORKS 2.6 SSE CBN, CA",
      "datacoverage": 1,
      "id": "GHCND:CA1NS000094",
      "elevationUnit": "METERS",
      "longitude": -61.0760384
    },
    {
      "elevation": 2.1,
      "mindate": "1998-06-01",
      "maxdate": "2022-06-19",
      "latitude": 46.8849027777778,
      "name": "SOUTH HARBOUR 1.8 N CBN, CA",
      "datacoverage": 0.6094,
      "id": "GHCND:CA1NS000097",
      "elevationUnit": "METERS",
      "longitude": -60.4629416666667
    },
    {
      "elevation": 42.7,
      "mindate": "2015-07-19",
      "maxdate": "2023-10-08",
      "latitude": 44.7396507,
      "name": "BEDFORD 0.7 NNE, CA",
      "datacoverage": 0.6145,
      "id": "GHCND:CA1NS000101",
      "elevationUnit": "METERS",
      "longitude": -63.6501808
    },
    {
      "elevation": 66.1,
      "mindate": "2015-07-19",
      "maxdate": "2022-10-21",
      "latitude": 46.205547,
      "name": "NORTHSIDE 6.3 NE, CA",
      "datacoverage": 0.2172,
      "id": "GHCND:CA1NS000102",
      "elevationUnit": "METERS",
      "longitude": -60.501865
    },
    {
      "elevation": 182,
      "mindate": "2015-10-01",
      "maxdate": "2022-03-14",
      "latitude": 45.26217,
      "name": "TRAFALGAR 4.9 WSW, CA",
      "datacoverage": 0.9995,
      "id": "GHCND:CA1NS000103",
      "elevationUnit": "METERS",
      "longitude": -62.72285
    },
    {
      "elevation": 10.1,
      "mindate": "2015-12-23",
      "maxdate": "2022-04-21",
      "latitude": 43.787671,
      "name": "SLUICE POINT 0.4 SSE, CA",
      "datacoverage": 0.5558,
      "id": "GHCND:CA1NS000105",
      "elevationUnit": "METERS",
      "longitude": -65.964864
    },
    {
      "elevation": 22.6,
      "mindate": "2016-02-01",
      "maxdate": "2016-12-07",
      "latitude": 44.573151,
      "name": "CHESTER BASIN 2.5 ENE, CA",
      "datacoverage": 0.6254,
      "id": "GHCND:CA1NS000106",
      "elevationUnit": "METERS",
      "longitude": -64.278399
    },
    {
      "elevation": 11.6,
      "mindate": "2016-02-09",
      "maxdate": "2021-02-08",
      "latitude": 43.758107,
      "name": "WEDGEPORT 2.2 NNW, CA",
      "datacoverage": 0.44,
      "id": "GHCND:CA1NS000107",
      "elevationUnit": "METERS",
      "longitude": -65.988472
    }
  ]
}
