{
  "metadata": {
    "resultset": {
      "offset": 105600,
      "count": 154115,
      "limit": 100
    }
  },
  "results": [
    {
      "elevation": 1341.4,
      "mindate": "2020-09-18",
      "maxdate": "2021-11-01",
      "latitude": 32.974635,
      "name": "CABALLO 3.6 W, NM US",
      "datacoverage": 0.6764,
      "id": "GHCND:US1NMSR0067",
      "elevationUnit": "METERS",
      "longitude": -107.370046
    },
    {
      "elevation": 1382.6,
      "mindate": "2023-02-01",
      "maxdate": "2025-01-22",
      "latitude": 33.25656,
      "name": "ELEPHANT BUTTE 5.6 N, NM US",
      "datacoverage": 1,
      "id": "GHCND:US1NMSR0069",
      "elevationUnit": "METERS",
      "longitude": -107.20712
    },
    {
      "elevation": 1561.8,
      "mindate": "2022-09-21",
      "maxdate": "2023-12-17",
      "latitude": 33.467198,
      "name": "TRUTH OR CONSEQUENCES 22.9 N, NM US",
      "datacoverage": 0.9514,
      "id": "GHCND:US1NMSR0070",
      "elevationUnit": "METERS",
      "longitude": -107.247531
    },
    {
      "elevation": 2011.7,
      "mindate": "1998-06-01",
      "maxdate": "2021-01-09",
      "latitude": 34.506067,
      "name": "MOUNTAINAIR 1.0 S, NM US",
      "datacoverage": 0.8836,
      "id": "GHCND:US1NMTR0001",
      "elevationUnit": "METERS",
      "longitude": -106.242267
    },
    {
      "elevation": 2055,
      "mindate": "2008-05-01",
      "maxdate": "2025-03-05",
      "latitude": 34.985467,
      "name": "EDGEWOOD 7.0 SSW, NM US",
      "datacoverage": 0.9998,
      "id": "GHCND:US1NMTR0005",
      "elevationUnit": "METERS",
      "longitude": -106.202333
    },
    {
      "elevation": 1898.6,
      "mindate": "2010-12-01",
      "maxdate": "2018-05-23",
      "latitude": 34.81853333,
      "name": "MCINTOSH 4.1 SW, NM US",
      "datacoverage": 1,
      "id": "GHCND:US1NMTR0006",
      "elevationUnit": "METERS",
      "longitude": -106.0972167
    },
    {
      "elevation": 2043.4,
      "mindate": "2011-05-01",
      "maxdate": "2014-11-28",
      "latitude": 34.738114,
      "name": "TAJIQUE 1.1 SSE, NM US",
      "datacoverage": 0.7491,
      "id": "GHCND:US1NMTR0007",
      "elevationUnit": "METERS",
      "longitude": -106.277857
    },
    {
      "elevation": 1896.2,
      "mindate": "2013-07-01",
      "maxdate": "2016-10-09",
      "latitude": 34.99511,
      "name": "MORIARTY 4.3 E, NM US",
      "datacoverage": 0.998,
      "id": "GHCND:US1NMTR0009",
      "elevationUnit": "METERS",
      "longitude": -105.96876
    },
    {
      "elevation": 1933.3,
      "mindate": "2014-08-01",
      "maxdate": "2021-06-28",
      "latitude": 34.4811,
      "name": "MOUNTAINAIR 5.8 WSW, NM US",
      "datacoverage": 0.9996,
      "id": "GHCND:US1NMTR0010",
      "elevationUnit": "METERS",
      "longitude": -106.3328
    },
    {
      "elevation": 2008,
      "mindate": "2015-04-01",
      "maxdate": "2017-07-10",
      "latitude": 34.5213,
      "name": "MOUNTAINAIR 0.4 W, NM US",
      "datacoverage": 0.9819,
      "id": "GHCND:US1NMTR0011",
      "elevationUnit": "METERS",
      "longitude": -106.2495
    },
    {
      "elevation": 1947.4,
      "mindate": "2015-05-01",
      "maxdate": "2025-03-07",
      "latitude": 34.486918,
      "name": "MOUNTAINAIR 4.2 WSW, NM US",
      "datacoverage": 0.9991,
      "id": "GHCND:US1NMTR0012",
      "elevationUnit": "METERS",
      "longitude": -106.304604
    },
    {
      "elevation": 2021.4,
      "mindate": "2015-10-01",
      "maxdate": "2021-09-18",
      "latitude": 34.5286,
      "name": "MOUNTAINAIR 4.5 W, NM US",
      "datacoverage": 0.998,
      "id": "GHCND:US1NMTR0013",
      "elevationUnit": "METERS",
      "longitude": -106.321
    },
    {
      "elevation": 1993.4,
      "mindate": "2017-07-14",
      "maxdate": "2024-08-29",
      "latitude": 34.516987,
      "name": "MOUNTAINAIR 0.3 SSW, NM US",
      "datacoverage": 0.8663,
      "id": "GHCND:US1NMTR0015",
      "elevationUnit": "METERS",
      "longitude": -106.244745
    },
    {
      "elevation": 1919,
      "mindate": "2017-07-21",
      "maxdate": "2025-03-07",
      "latitude": 34.731476,
      "name": "ESTANCIA 6.4 WSW, NM US",
      "datacoverage": 1,
      "id": "GHCND:US1NMTR0016",
      "elevationUnit": "METERS",
      "longitude": -106.166981
    },
    {
      "elevation": 1914.1,
      "mindate": "2017-09-18",
      "maxdate": "2025-03-07",
      "latitude": 34.710008,
      "name": "ESTANCIA 7.1 WSW, NM US",
      "datacoverage": 1,
      "id": "GHCND:US1NMTR0017",
      "elevationUnit": "METERS",
      "longitude": -106.169656
    },
    {
      "elevation": 1910.8,
      "mindate": "2017-09-20",
      "maxdate": "2025-03-07",
      "latitude": 34.72972,
      "name": "ESTANCIA 6.4 WSW 2, NM US",
      "datacoverage": 1,
      "id": "GHCND:US1NMTR0018",
      "elevationUnit": "METERS",
      "longitude": -106.167438
    },
    {
      "elevation": 2095.8,
      "mindate": "2018-06-04",
      "maxdate": "2025-01-28",
      "latitude": 34.54085,
      "name": "MOUNTAINAIR 4.8 WNW, NM US",
      "datacoverage": 0.499,
      "id": "GHCND:US1NMTR0019",
      "elevationUnit": "METERS",
      "longitude": -106.322716
    },
    {
      "elevation": 1983,
      "mindate": "2018-07-08",
      "maxdate": "2025-03-04",
      "latitude": 34.8486,
      "name": "ESTANCIA 9.4 NW, NM US",
      "datacoverage": 0.8429,
      "id": "GHCND:US1NMTR0020",
      "elevationUnit": "METERS",
      "longitude": -106.18611
    },
    {
      "elevation": 1992.5,
      "mindate": "2018-10-26",
      "maxdate": "2025-03-07",
      "latitude": 34.551433,
      "name": "MOUNTAINAIR 2.2 N, NM US",
      "datacoverage": 0.3067,
      "id": "GHCND:US1NMTR0021",
      "elevationUnit": "METERS",
      "longitude": -106.23575
    },
    {
      "elevation": 2052.5,
      "mindate": "2019-03-30",
      "maxdate": "2025-03-04",
      "latitude": 34.821097,
      "name": "ESTANCIA 10.6 WNW, NM US",
      "datacoverage": 0.1684,
      "id": "GHCND:US1NMTR0024",
      "elevationUnit": "METERS",
      "longitude": -106.231026
    },
    {
      "elevation": 1872.4,
      "mindate": "2019-05-16",
      "maxdate": "2021-12-29",
      "latitude": 34.6536,
      "name": "ENCINO 1.0 W, NM US",
      "datacoverage": 0.632,
      "id": "GHCND:US1NMTR0025",
      "elevationUnit": "METERS",
      "longitude": -105.476
    },
    {
      "elevation": 1902.6,
      "mindate": "2019-07-27",
      "maxdate": "2020-04-14",
      "latitude": 35.003858,
      "name": "MORIARTY 0.2 NE, NM US",
      "datacoverage": 0.9544,
      "id": "GHCND:US1NMTR0030",
      "elevationUnit": "METERS",
      "longitude": -106.041631
    },
    {
      "elevation": 1899.5,
      "mindate": "2020-04-15",
      "maxdate": "2025-03-07",
      "latitude": 34.989333,
      "name": "MORIARTY 1.0 SSW, NM US",
      "datacoverage": 0.9911,
      "id": "GHCND:US1NMTR0032",
      "elevationUnit": "METERS",
      "longitude": -106.053068
    },
    {
      "elevation": 2040,
      "mindate": "2021-04-29",
      "maxdate": "2025-03-07",
      "latitude": 35.036867,
      "name": "EDGEWOOD 1.8 SSE, NM US",
      "datacoverage": 1,
      "id": "GHCND:US1NMTR0033",
      "elevationUnit": "METERS",
      "longitude": -106.178565
    },
    {
      "elevation": 1868.4,
      "mindate": "2022-03-22",
      "maxdate": "2025-03-07",
      "latitude": 34.844549,
      "name": "MCINTOSH 4.4 ESE, NM US",
      "datacoverage": 1,
      "id": "GHCND:US1NMTR0034",
      "elevationUnit": "METERS",
      "longitude": -105.9784242
    },
    {
      "elevation": 1888.8,
      "mindate": "2023-05-13",
      "maxdate": "2024-12-06",
      "latitude": 34.7431,
      "name": "ESTANCIA 2.4 WSW, NM US",
      "datacoverage": 0.23,
      "id": "GHCND:US1NMTR0036",
      "elevationUnit": "METERS",
      "longitude": -106.0959
    },
    {
      "elevation": 2142.1,
      "mindate": "2005-03-01",
      "maxdate": "2025-03-06",
      "latitude": 36.5097,
      "name": "ARROYO HONDO 4.8 WSW, NM US",
      "datacoverage": 0.9021,
      "id": "GHCND:US1NMTS0001",
      "elevationUnit": "METERS",
      "longitude": -105.7504
    },
    {
      "elevation": 2104.9,
      "mindate": "2006-03-01",
      "maxdate": "2012-08-08",
      "latitude": 36.5155,
      "name": "ARROYO HONDO 2.6 SW, NM US",
      "datacoverage": 0.9095,
      "id": "GHCND:US1NMTS0007",
      "elevationUnit": "METERS",
      "longitude": -105.7085
    },
    {
      "elevation": 2129,
      "mindate": "2006-07-01",
      "maxdate": "2011-12-14",
      "latitude": 36.414007,
      "name": "TAOS 0.5 NNE, NM US",
      "datacoverage": 0.954,
      "id": "GHCND:US1NMTS0008",
      "elevationUnit": "METERS",
      "longitude": -105.570633
    },
    {
      "elevation": 2133.9,
      "mindate": "2006-08-01",
      "maxdate": "2017-11-20",
      "latitude": 36.384069,
      "name": "TAOS 1.6 SSE, NM US",
      "datacoverage": 0.9999,
      "id": "GHCND:US1NMTS0009",
      "elevationUnit": "METERS",
      "longitude": -105.567208
    },
    {
      "elevation": 2246.1,
      "mindate": "2006-09-01",
      "maxdate": "2025-03-04",
      "latitude": 36.493055,
      "name": "ARROYO SECO 2.3 SW, NM US",
      "datacoverage": 0.9566,
      "id": "GHCND:US1NMTS0010",
      "elevationUnit": "METERS",
      "longitude": -105.59966
    },
    {
      "elevation": 2098.9,
      "mindate": "2006-09-01",
      "maxdate": "2008-12-12",
      "latitude": 36.3997,
      "name": "TAOS 2.8 WNW, NM US",
      "datacoverage": 0.785,
      "id": "GHCND:US1NMTS0011",
      "elevationUnit": "METERS",
      "longitude": -105.62505
    },
    {
      "elevation": 2146.4,
      "mindate": "2009-02-01",
      "maxdate": "2009-10-05",
      "latitude": 36.440308,
      "name": "TAOS 4.4 NNW, NM US",
      "datacoverage": 1,
      "id": "GHCND:US1NMTS0015",
      "elevationUnit": "METERS",
      "longitude": -105.620365
    },
    {
      "elevation": 2273.8,
      "mindate": "2009-07-01",
      "maxdate": "2012-12-30",
      "latitude": 36.173618,
      "name": "CHAMISAL 1.0 ESE, NM US",
      "datacoverage": 0.9987,
      "id": "GHCND:US1NMTS0016",
      "elevationUnit": "METERS",
      "longitude": -105.732282
    },
    {
      "elevation": 2094.3,
      "mindate": "2010-11-01",
      "maxdate": "2025-03-07",
      "latitude": 36.3611,
      "name": "RANCHOS DE TAOS 2.4 W, NM US",
      "datacoverage": 0.9848,
      "id": "GHCND:US1NMTS0017",
      "elevationUnit": "METERS",
      "longitude": -105.6457
    },
    {
      "elevation": 2158.6,
      "mindate": "2011-07-01",
      "maxdate": "2014-12-08",
      "latitude": 36.341131,
      "name": "RANCHOS DE TAOS 1.7 SSE, NM US",
      "datacoverage": 0.9987,
      "id": "GHCND:US1NMTS0018",
      "elevationUnit": "METERS",
      "longitude": -105.592935
    },
    {
      "elevation": 2110.1,
      "mindate": "2021-01-28",
      "maxdate": "2024-10-21",
      "latitude": 36.417708,
      "name": "TAOS 2.7 WNW, NM US",
      "datacoverage": 0.0858,
      "id": "GHCND:US1NMTS0020",
      "elevationUnit": "METERS",
      "longitude": -105.620638
    },
    {
      "elevation": 2330.5,
      "mindate": "2012-04-01",
      "maxdate": "2019-09-29",
      "latitude": 36.549061,
      "name": "ARROYO SECO 2.8 NW, NM US",
      "datacoverage": 0.9583,
      "id": "GHCND:US1NMTS0021",
      "elevationUnit": "METERS",
      "longitude": -105.599119
    },
    {
      "elevation": 2430.2,
      "mindate": "2012-07-01",
      "maxdate": "2018-11-03",
      "latitude": 36.7389,
      "name": "QUESTA 2.2 NNE, NM US",
      "datacoverage": 0.9998,
      "id": "GHCND:US1NMTS0022",
      "elevationUnit": "METERS",
      "longitude": -105.5743
    },
    {
      "elevation": 2186.3,
      "mindate": "2012-08-01",
      "maxdate": "2025-03-06",
      "latitude": 36.4609,
      "name": "TAOS 4.3 NNW, NM US",
      "datacoverage": 1,
      "id": "GHCND:US1NMTS0024",
      "elevationUnit": "METERS",
      "longitude": -105.6116
    },
    {
      "elevation": 2573.4,
      "mindate": "2013-02-01",
      "maxdate": "2025-03-04",
      "latitude": 36.3631609082222,
      "name": "TAOS 11.3 ESE, NM US",
      "datacoverage": 0.9749,
      "id": "GHCND:US1NMTS0025",
      "elevationUnit": "METERS",
      "longitude": -105.377773493528
    },
    {
      "elevation": 2125.7,
      "mindate": "2014-05-01",
      "maxdate": "2023-01-14",
      "latitude": 36.4278745651245,
      "name": "TAOS 3.2 WNW, NM US",
      "datacoverage": 0.9991,
      "id": "GHCND:US1NMTS0026",
      "elevationUnit": "METERS",
      "longitude": -105.624051243067
    },
    {
      "elevation": 2196.1,
      "mindate": "2013-04-01",
      "maxdate": "2025-03-07",
      "latitude": 36.392269,
      "name": "TAOS 1.6 SE, NM US",
      "datacoverage": 0.972,
      "id": "GHCND:US1NMTS0027",
      "elevationUnit": "METERS",
      "longitude": -105.55088
    },
    {
      "elevation": 2113.2,
      "mindate": "2013-09-01",
      "maxdate": "2019-10-06",
      "latitude": 36.3977272063494,
      "name": "TAOS 0.7 S, NM US",
      "datacoverage": 0.5772,
      "id": "GHCND:US1NMTS0028",
      "elevationUnit": "METERS",
      "longitude": -105.574170202017
    },
    {
      "elevation": 2129.6,
      "mindate": "2013-01-01",
      "maxdate": "2017-09-30",
      "latitude": 36.381629,
      "name": "TAOS 1.8 SSW, NM US",
      "datacoverage": 0.8726,
      "id": "GHCND:US1NMTS0029",
      "elevationUnit": "METERS",
      "longitude": -105.580505
    },
    {
      "elevation": 2139.7,
      "mindate": "2003-09-16",
      "maxdate": "2024-01-05",
      "latitude": 36.3813442736864,
      "name": "TAOS 1.8 S, NM US",
      "datacoverage": 0.1095,
      "id": "GHCND:US1NMTS0031",
      "elevationUnit": "METERS",
      "longitude": -105.573918744922
    },
    {
      "elevation": 2439.9,
      "mindate": "2013-10-01",
      "maxdate": "2025-03-01",
      "latitude": 36.52011,
      "name": "ARROYO SECO 1.4 E, NM US",
      "datacoverage": 1,
      "id": "GHCND:US1NMTS0033",
      "elevationUnit": "METERS",
      "longitude": -105.5447
    },
    {
      "elevation": 2197.3,
      "mindate": "2015-06-01",
      "maxdate": "2019-11-12",
      "latitude": 36.466996,
      "name": "ARROYO HONDO 8.6 SW, NM US",
      "datacoverage": 0.998,
      "id": "GHCND:US1NMTS0037",
      "elevationUnit": "METERS",
      "longitude": -105.797624
    },
    {
      "elevation": 2165,
      "mindate": "2015-08-27",
      "maxdate": "2025-03-04",
      "latitude": 36.454831,
      "name": "TAOS 3.8 NNW, NM US",
      "datacoverage": 0.9819,
      "id": "GHCND:US1NMTS0039",
      "elevationUnit": "METERS",
      "longitude": -105.606018
    },
    {
      "elevation": 2117.8,
      "mindate": "2016-08-11",
      "maxdate": "2020-07-04",
      "latitude": 36.355975,
      "name": "RANCHOS DE TAOS 0.3 SSE, NM US",
      "datacoverage": 0.1763,
      "id": "GHCND:US1NMTS0041",
      "elevationUnit": "METERS",
      "longitude": -105.606598
    },
    {
      "elevation": 2418.3,
      "mindate": "2016-11-27",
      "maxdate": "2019-12-28",
      "latitude": 36.6466,
      "name": "QUESTA 4.5 SSW, NM US",
      "datacoverage": 0.9925,
      "id": "GHCND:US1NMTS0042",
      "elevationUnit": "METERS",
      "longitude": -105.63175
    },
    {
      "elevation": 2107.1,
      "mindate": "2018-01-22",
      "maxdate": "2024-06-30",
      "latitude": 36.37600833,
      "name": "TAOS 2.6 SW, NM US",
      "datacoverage": 0.368,
      "id": "GHCND:US1NMTS0044",
      "elevationUnit": "METERS",
      "longitude": -105.5997972
    },
    {
      "elevation": 2244.9,
      "mindate": "2018-01-31",
      "maxdate": "2025-03-07",
      "latitude": 36.533094,
      "name": "ARROYO HONDO 2.5 E, NM US",
      "datacoverage": 0.8276,
      "id": "GHCND:US1NMTS0045",
      "elevationUnit": "METERS",
      "longitude": -105.625281
    },
    {
      "elevation": 2171.4,
      "mindate": "1998-06-17",
      "maxdate": "2024-03-19",
      "latitude": 36.518164,
      "name": "ARROYO HONDO 1.5 S, NM US",
      "datacoverage": 0.9991,
      "id": "GHCND:US1NMTS0047",
      "elevationUnit": "METERS",
      "longitude": -105.681737
    },
    {
      "elevation": 2112.3,
      "mindate": "2018-11-01",
      "maxdate": "2019-02-27",
      "latitude": 36.392614,
      "name": "TAOS 1.0 S, NM US",
      "datacoverage": 1,
      "id": "GHCND:US1NMTS0048",
      "elevationUnit": "METERS",
      "longitude": -105.575963
    },
    {
      "elevation": 2481.1,
      "mindate": "2019-05-15",
      "maxdate": "2021-11-10",
      "latitude": 36.644,
      "name": "TRES PIEDRAS 0.2 S, NM US",
      "datacoverage": 0.1922,
      "id": "GHCND:US1NMTS0051",
      "elevationUnit": "METERS",
      "longitude": -105.9686
    },
    {
      "elevation": 2334.5,
      "mindate": "2019-05-20",
      "maxdate": "2025-03-06",
      "latitude": 36.7214,
      "name": "QUESTA 1.2 N, NM US",
      "datacoverage": 0.7155,
      "id": "GHCND:US1NMTS0053",
      "elevationUnit": "METERS",
      "longitude": -105.5964
    },
    {
      "elevation": 2300.3,
      "mindate": "2019-11-01",
      "maxdate": "2025-03-07",
      "latitude": 36.4153,
      "name": "TAOS 19.1 W, NM US",
      "datacoverage": 0.589,
      "id": "GHCND:US1NMTS0054",
      "elevationUnit": "METERS",
      "longitude": -105.9164
    },
    {
      "elevation": 2389.3,
      "mindate": "2020-09-15",
      "maxdate": "2025-03-04",
      "latitude": 36.110121,
      "name": "CHAMISAL 4.7 SSE, NM US",
      "datacoverage": 0.5686,
      "id": "GHCND:US1NMTS0056",
      "elevationUnit": "METERS",
      "longitude": -105.728581
    },
    {
      "elevation": 2194.3,
      "mindate": "2020-05-07",
      "maxdate": "2025-01-30",
      "latitude": 36.3577,
      "name": "RANCHOS DE TAOS 2.0 E, NM US",
      "datacoverage": 0.3698,
      "id": "GHCND:US1NMTS0058",
      "elevationUnit": "METERS",
      "longitude": -105.572235
    },
    {
      "elevation": 2286.6,
      "mindate": "2021-10-31",
      "maxdate": "2025-03-07",
      "latitude": 36.597019,
      "name": "SAN CRISTOBAL 0.1 NE, NM US",
      "datacoverage": 0.9751,
      "id": "GHCND:US1NMTS0059",
      "elevationUnit": "METERS",
      "longitude": -105.638511
    },
    {
      "elevation": 2498.1,
      "mindate": "2018-06-05",
      "maxdate": "2023-04-28",
      "latitude": 36.1482,
      "name": "VADITO 3.1 SSE, NM US",
      "datacoverage": 0.3004,
      "id": "GHCND:US1NMTS0060",
      "elevationUnit": "METERS",
      "longitude": -105.664
    },
    {
      "elevation": 2167.1,
      "mindate": "2022-08-07",
      "maxdate": "2025-01-30",
      "latitude": 36.443056,
      "name": "TAOS 3.0 NNW, NM US",
      "datacoverage": 0.6795,
      "id": "GHCND:US1NMTS0061",
      "elevationUnit": "METERS",
      "longitude": -105.60278
    },
    {
      "elevation": 2385.7,
      "mindate": "2024-06-22",
      "maxdate": "2025-03-04",
      "latitude": 36.975003,
      "name": "COSTILLA 0.1 SE, NM US",
      "datacoverage": 0.991,
      "id": "GHCND:US1NMTS0067",
      "elevationUnit": "METERS",
      "longitude": -105.53028
    },
    {
      "elevation": 1990,
      "mindate": "2006-07-01",
      "maxdate": "2008-05-29",
      "latitude": 36.62626,
      "name": "DES MOINES 9.3 S, NM US",
      "datacoverage": 0.6079,
      "id": "GHCND:US1NMUN0001",
      "elevationUnit": "METERS",
      "longitude": -103.83703
    },
    {
      "elevation": 1544.1,
      "mindate": "2007-02-01",
      "maxdate": "2025-03-05",
      "latitude": 36.270015,
      "name": "CLAYTON 14.6 SSW, NM US",
      "datacoverage": 1,
      "id": "GHCND:US1NMUN0003",
      "elevationUnit": "METERS",
      "longitude": -103.312193
    },
    {
      "elevation": 1861.4,
      "mindate": "2014-02-22",
      "maxdate": "2022-08-22",
      "latitude": 36.7361,
      "name": "DES MOINES 7.3 ESE, NM US",
      "datacoverage": 0.3998,
      "id": "GHCND:US1NMUN0007",
      "elevationUnit": "METERS",
      "longitude": -103.7054
    },
    {
      "elevation": 1718.5,
      "mindate": "2018-05-15",
      "maxdate": "2025-03-06",
      "latitude": 36.91055556,
      "name": "FOLSOM 10.5 ENE, NM US",
      "datacoverage": 0.9989,
      "id": "GHCND:US1NMUN0009",
      "elevationUnit": "METERS",
      "longitude": -103.7455556
    },
    {
      "elevation": 1547.2,
      "mindate": "2018-07-22",
      "maxdate": "2025-03-04",
      "latitude": 36.6482,
      "name": "CLAYTON 13.7 N, NM US",
      "datacoverage": 0.9938,
      "id": "GHCND:US1NMUN0010",
      "elevationUnit": "METERS",
      "longitude": -103.1825
    },
    {
      "elevation": 1536.5,
      "mindate": "2018-11-27",
      "maxdate": "2021-10-13",
      "latitude": 36.245812,
      "name": "CLAYTON 16.0 SSW, NM US",
      "datacoverage": 0.9392,
      "id": "GHCND:US1NMUN0011",
      "elevationUnit": "METERS",
      "longitude": -103.309222
    },
    {
      "elevation": 1465.2,
      "mindate": "2018-11-27",
      "maxdate": "2020-01-07",
      "latitude": 36.51122,
      "name": "CLAYTON 5.9 NE, NM US",
      "datacoverage": 1,
      "id": "GHCND:US1NMUN0012",
      "elevationUnit": "METERS",
      "longitude": -103.10027
    },
    {
      "elevation": 1661.5,
      "mindate": "2018-11-27",
      "maxdate": "2019-06-26",
      "latitude": 36.78931,
      "name": "DES MOINES 27.5 E, NM US",
      "datacoverage": 0.6651,
      "id": "GHCND:US1NMUN0013",
      "elevationUnit": "METERS",
      "longitude": -103.33694
    },
    {
      "elevation": 1736.4,
      "mindate": "2018-11-28",
      "maxdate": "2025-03-04",
      "latitude": 36.62668,
      "name": "GRENVILLE 7.2 ENE, NM US",
      "datacoverage": 0.5729,
      "id": "GHCND:US1NMUN0014",
      "elevationUnit": "METERS",
      "longitude": -103.489595
    },
    {
      "elevation": 1544.4,
      "mindate": "2018-12-12",
      "maxdate": "2025-03-02",
      "latitude": 36.45782,
      "name": "CLAYTON 0.6 NNE, NM US",
      "datacoverage": 0.7198,
      "id": "GHCND:US1NMUN0015",
      "elevationUnit": "METERS",
      "longitude": -103.17048
    },
    {
      "elevation": 1428.3,
      "mindate": "2018-11-29",
      "maxdate": "2025-03-07",
      "latitude": 35.8555,
      "name": "AMISTAD 7.7 SW, NM US",
      "datacoverage": 1,
      "id": "GHCND:US1NMUN0016",
      "elevationUnit": "METERS",
      "longitude": -103.26808
    },
    {
      "elevation": 1446.3,
      "mindate": "2018-11-29",
      "maxdate": "2025-03-07",
      "latitude": 35.85555,
      "name": "AMISTAD 8.5 WSW, NM US",
      "datacoverage": 1,
      "id": "GHCND:US1NMUN0017",
      "elevationUnit": "METERS",
      "longitude": -103.28487
    },
    {
      "elevation": 1523.4,
      "mindate": "2018-12-01",
      "maxdate": "2025-03-07",
      "latitude": 36.12465,
      "name": "CLAYTON 32.9 SW, NM US",
      "datacoverage": 0.987,
      "id": "GHCND:US1NMUN0018",
      "elevationUnit": "METERS",
      "longitude": -103.60654
    },
    {
      "elevation": 1526.7,
      "mindate": "2018-12-01",
      "maxdate": "2022-11-17",
      "latitude": 36.4427,
      "name": "CLAYTON 0.6 SSE, NM US",
      "datacoverage": 0.8315,
      "id": "GHCND:US1NMUN0019",
      "elevationUnit": "METERS",
      "longitude": -103.17073
    },
    {
      "elevation": 1504.8,
      "mindate": "2018-12-01",
      "maxdate": "2025-03-07",
      "latitude": 36.46554,
      "name": "CLAYTON 2.3 ENE, NM US",
      "datacoverage": 1,
      "id": "GHCND:US1NMUN0020",
      "elevationUnit": "METERS",
      "longitude": -103.1384
    },
    {
      "elevation": 1544.1,
      "mindate": "2019-03-25",
      "maxdate": "2025-03-07",
      "latitude": 36.45257,
      "name": "CLAYTON 1.1 W, NM US",
      "datacoverage": 0.9993,
      "id": "GHCND:US1NMUN0022",
      "elevationUnit": "METERS",
      "longitude": -103.19432
    },
    {
      "elevation": 1540.8,
      "mindate": "2019-05-17",
      "maxdate": "2019-11-16",
      "latitude": 36.4451,
      "name": "CLAYTON 1.7 WSW, NM US",
      "datacoverage": 0.9925,
      "id": "GHCND:US1NMUN0024",
      "elevationUnit": "METERS",
      "longitude": -103.20504
    },
    {
      "elevation": 1490.8,
      "mindate": "2017-02-27",
      "maxdate": "2025-03-06",
      "latitude": 36.27527,
      "name": "CLAYTON 12.4 SSW, NM US",
      "datacoverage": 0.9566,
      "id": "GHCND:US1NMUN0025",
      "elevationUnit": "METERS",
      "longitude": -103.22431
    },
    {
      "elevation": 1626.1,
      "mindate": "2019-07-05",
      "maxdate": "2022-11-05",
      "latitude": 36.24044,
      "name": "GRENVILLE 24.6 S, NM US",
      "datacoverage": 0.1795,
      "id": "GHCND:US1NMUN0026",
      "elevationUnit": "METERS",
      "longitude": -103.55631
    },
    {
      "elevation": 1485,
      "mindate": "2005-03-01",
      "maxdate": "2006-12-15",
      "latitude": 34.8079,
      "name": "LOS LUNAS 0.8 WSW, NM US",
      "datacoverage": 0.998,
      "id": "GHCND:US1NMVL0010",
      "elevationUnit": "METERS",
      "longitude": -106.7502
    },
    {
      "elevation": 1475.8,
      "mindate": "2005-05-01",
      "maxdate": "2008-08-31",
      "latitude": 34.7257,
      "name": "BELEN 4.6 N, NM US",
      "datacoverage": 0.3496,
      "id": "GHCND:US1NMVL0011",
      "elevationUnit": "METERS",
      "longitude": -106.7816
    },
    {
      "elevation": 1483.2,
      "mindate": "2005-04-01",
      "maxdate": "2009-10-28",
      "latitude": 34.862532,
      "name": "BOSQUE FARMS 0.6 NNW, NM US",
      "datacoverage": 0.8359,
      "id": "GHCND:US1NMVL0012",
      "elevationUnit": "METERS",
      "longitude": -106.703632
    },
    {
      "elevation": 1474.9,
      "mindate": "1998-06-01",
      "maxdate": "2012-09-26",
      "latitude": 34.7903,
      "name": "LOS LUNAS 2.8 SE, NM US",
      "datacoverage": 0.9999,
      "id": "GHCND:US1NMVL0016",
      "elevationUnit": "METERS",
      "longitude": -106.6971
    },
    {
      "elevation": 1485,
      "mindate": "2006-08-01",
      "maxdate": "2025-03-01",
      "latitude": 34.8695,
      "name": "BOSQUE FARMS 1.0 N, NM US",
      "datacoverage": 1,
      "id": "GHCND:US1NMVL0021",
      "elevationUnit": "METERS",
      "longitude": -106.7015
    },
    {
      "elevation": 1464.9,
      "mindate": "2006-09-01",
      "maxdate": "2019-01-14",
      "latitude": 34.59215,
      "name": "BELEN 5.1 SSE, NM US",
      "datacoverage": 1,
      "id": "GHCND:US1NMVL0023",
      "elevationUnit": "METERS",
      "longitude": -106.74213
    },
    {
      "elevation": 1546.3,
      "mindate": "2011-12-01",
      "maxdate": "2021-06-26",
      "latitude": 34.573079,
      "name": "BELEN 9.3 SE, NM US",
      "datacoverage": 1,
      "id": "GHCND:US1NMVL0025",
      "elevationUnit": "METERS",
      "longitude": -106.651801
    },
    {
      "elevation": 1468.5,
      "mindate": "2012-01-01",
      "maxdate": "2025-03-07",
      "latitude": 34.672046,
      "name": "BELEN 1.0 NNE, NM US",
      "datacoverage": 1,
      "id": "GHCND:US1NMVL0026",
      "elevationUnit": "METERS",
      "longitude": -106.7712899
    },
    {
      "elevation": 1479.8,
      "mindate": "2013-03-01",
      "maxdate": "2025-03-07",
      "latitude": 34.8083724975586,
      "name": "LOS LUNAS 3.5 E, NM US",
      "datacoverage": 1,
      "id": "GHCND:US1NMVL0027",
      "elevationUnit": "METERS",
      "longitude": -106.676628112793
    },
    {
      "elevation": 1503,
      "mindate": "2014-06-01",
      "maxdate": "2025-03-07",
      "latitude": 34.6509,
      "name": "RIO COMMUNITIES 0.5 N, NM US",
      "datacoverage": 0.9994,
      "id": "GHCND:US1NMVL0030",
      "elevationUnit": "METERS",
      "longitude": -106.7194
    },
    {
      "elevation": 1478.3,
      "mindate": "2015-01-01",
      "maxdate": "2025-02-17",
      "latitude": 34.7985877990723,
      "name": "LOS LUNAS 3.3 ESE, NM US",
      "datacoverage": 1,
      "id": "GHCND:US1NMVL0031",
      "elevationUnit": "METERS",
      "longitude": -106.682647705078
    },
    {
      "elevation": 1475.8,
      "mindate": "2015-08-01",
      "maxdate": "2025-01-10",
      "latitude": 34.766429901123,
      "name": "LOS LUNAS 4.1 SE, NM US",
      "datacoverage": 0.1327,
      "id": "GHCND:US1NMVL0032",
      "elevationUnit": "METERS",
      "longitude": -106.694854736328
    },
    {
      "elevation": 1466.1,
      "mindate": "2016-03-01",
      "maxdate": "2019-02-20",
      "latitude": 34.653147,
      "name": "BELEN 1.6 ESE, NM US",
      "datacoverage": 0.7661,
      "id": "GHCND:US1NMVL0033",
      "elevationUnit": "METERS",
      "longitude": -106.751045
    },
    {
      "elevation": 1519.1,
      "mindate": "2017-01-08",
      "maxdate": "2019-02-23",
      "latitude": 34.805356,
      "name": "LOS LUNAS 1.2 WSW, NM US",
      "datacoverage": 1,
      "id": "GHCND:US1NMVL0034",
      "elevationUnit": "METERS",
      "longitude": -106.757381
    },
    {
      "elevation": 1506,
      "mindate": "2017-03-22",
      "maxdate": "2020-07-24",
      "latitude": 34.7736,
      "name": "LOS LUNAS 4.6 SE, NM US",
      "datacoverage": 0.9819,
      "id": "GHCND:US1NMVL0035",
      "elevationUnit": "METERS",
      "longitude": -106.6736
    },
    {
      "elevation": 1481.6,
      "mindate": "2017-04-12",
      "maxdate": "2025-03-07",
      "latitude": 34.8217,
      "name": "PERALTA 0.6 S, NM US",
      "datacoverage": 0.9991,
      "id": "GHCND:US1NMVL0037",
      "elevationUnit": "METERS",
      "longitude": -106.68523
    },
    {
      "elevation": 1464.9,
      "mindate": "2018-07-27",
      "maxdate": "2019-06-15",
      "latitude": 34.665575,
      "name": "BELEN 0.5 N, NM US",
      "datacoverage": 0.9167,
      "id": "GHCND:US1NMVL0039",
      "elevationUnit": "METERS",
      "longitude": -106.780328
    }
  ]
}
