{
  "metadata": {
    "resultset": {
      "offset": 4100,
      "count": 154115,
      "limit": 100
    }
  },
  "results": [
    {
      "elevation": 763.5,
      "mindate": "2002-04-01",
      "maxdate": "2006-10-01",
      "latitude": 43.6175,
      "name": "CALDWELL 3 S, ID US",
      "datacoverage": 0.9449,
      "id": "COOP:101384",
      "elevationUnit": "METERS",
      "longitude": -116.6919
    },
    {
      "elevation": 807.7,
      "mindate": "1917-01-01",
      "maxdate": "2015-11-01",
      "latitude": 44.5734,
      "name": "CAMBRIDGE, ID US",
      "datacoverage": 0.9815,
      "id": "COOP:101408",
      "elevationUnit": "METERS",
      "longitude": -116.6754
    },
    {
      "elevation": 810.8,
      "mindate": "1971-01-01",
      "maxdate": "2014-01-01",
      "latitude": 44.5797,
      "name": "CAMBRIDGE 2 NE, ID US",
      "datacoverage": 0.015,
      "id": "COOP:101410",
      "elevationUnit": "METERS",
      "longitude": -116.6436
    },
    {
      "elevation": 704.1,
      "mindate": "1976-10-01",
      "maxdate": "1986-03-01",
      "latitude": 45.48333,
      "name": "CAMPBELLS FERRY, ID US",
      "datacoverage": 0.9909,
      "id": "COOP:101422",
      "elevationUnit": "METERS",
      "longitude": -115.33333
    },
    {
      "elevation": 1452.1,
      "mindate": "1956-10-01",
      "maxdate": "1958-03-01",
      "latitude": 43.28333,
      "name": "CAREY 2 S, ID US",
      "datacoverage": 0.8347,
      "id": "COOP:101461",
      "elevationUnit": "METERS",
      "longitude": -113.95
    },
    {
      "elevation": 1476.1,
      "mindate": "1962-10-01",
      "maxdate": "1968-10-01",
      "latitude": 43.35,
      "name": "CAREY 3 NNW, ID US",
      "datacoverage": 0.013,
      "id": "COOP:101466",
      "elevationUnit": "METERS",
      "longitude": -113.95
    },
    {
      "elevation": 1457.9,
      "mindate": "1968-09-01",
      "maxdate": "1984-12-01",
      "latitude": 43.28333,
      "name": "CAREY, ID US",
      "datacoverage": 0.0366,
      "id": "COOP:101472",
      "elevationUnit": "METERS",
      "longitude": -113.93333
    },
    {
      "elevation": 1492.3,
      "mindate": "1930-07-01",
      "maxdate": "2015-11-01",
      "latitude": 44.5228,
      "name": "CASCADE 1 NW, ID US",
      "datacoverage": 0.8644,
      "id": "COOP:101514",
      "elevationUnit": "METERS",
      "longitude": -116.0481
    },
    {
      "elevation": 1449,
      "mindate": "1948-07-01",
      "maxdate": "1953-10-01",
      "latitude": 44.51667,
      "name": "CASCADE RANGER STATION, ID US",
      "datacoverage": 0.7432,
      "id": "COOP:101524",
      "elevationUnit": "METERS",
      "longitude": -116.05
    },
    {
      "elevation": 1165.9,
      "mindate": "1963-06-01",
      "maxdate": "2015-11-01",
      "latitude": 42.5503,
      "name": "CASTLEFORD 2 N, ID US",
      "datacoverage": 0.9841,
      "id": "COOP:101551",
      "elevationUnit": "METERS",
      "longitude": -114.8661
    },
    {
      "elevation": 1068,
      "mindate": "1955-09-01",
      "maxdate": "1958-04-01",
      "latitude": 46.66667,
      "name": "CAYUSE CREEK, ID US",
      "datacoverage": 0.0395,
      "id": "COOP:101577",
      "elevationUnit": "METERS",
      "longitude": -115.06667
    },
    {
      "elevation": 1288.1,
      "mindate": "1949-08-01",
      "maxdate": "2014-12-01",
      "latitude": 43.89972,
      "name": "CENTERVILLE COOPER DR, ID US",
      "datacoverage": 0.9554,
      "id": "COOP:101636",
      "elevationUnit": "METERS",
      "longitude": -115.90466
    },
    {
      "elevation": 1577.3,
      "mindate": "1917-01-01",
      "maxdate": "1996-06-01",
      "latitude": 44.50361,
      "name": "CHALLIS, ID US",
      "datacoverage": 0.9948,
      "id": "COOP:101663",
      "elevationUnit": "METERS",
      "longitude": -114.23972
    },
    {
      "elevation": 1908,
      "mindate": "1933-11-01",
      "maxdate": "2015-11-01",
      "latitude": 43.97775,
      "name": "CHILLY BARTON FLAT, ID US",
      "datacoverage": 0.9483,
      "id": "COOP:101671",
      "elevationUnit": "METERS",
      "longitude": -113.82913
    },
    {
      "elevation": 650.1,
      "mindate": "1940-01-01",
      "maxdate": "1957-01-01",
      "latitude": 48.15,
      "name": "CLARK FORK 1 ENE, ID US",
      "datacoverage": 0.9009,
      "id": "COOP:101810",
      "elevationUnit": "METERS",
      "longitude": -116.16667
    },
    {
      "elevation": 860.1,
      "mindate": "1948-07-01",
      "maxdate": "2015-07-01",
      "latitude": 47.0112,
      "name": "CLARKIA, ID US",
      "datacoverage": 0.2403,
      "id": "COOP:101831",
      "elevationUnit": "METERS",
      "longitude": -116.2559
    },
    {
      "elevation": 1873,
      "mindate": "1971-04-01",
      "maxdate": "1971-06-01",
      "latitude": 44.1,
      "name": "CLAYTON 10 S, ID US",
      "datacoverage": 1,
      "id": "COOP:101856",
      "elevationUnit": "METERS",
      "longitude": -114.45
    },
    {
      "elevation": 1880.6,
      "mindate": "1948-09-01",
      "maxdate": "1952-06-01",
      "latitude": 43.8563,
      "name": "TETONIA EXPERIMENT STATION, ID US",
      "datacoverage": 0.7202,
      "id": "COOP:101881",
      "elevationUnit": "METERS",
      "longitude": -111.2769
    },
    {
      "elevation": 1560.6,
      "mindate": "2007-10-01",
      "maxdate": "2007-12-01",
      "latitude": 42.3427,
      "name": "CLEVELAND, ID US",
      "datacoverage": 0.9925,
      "id": "COOP:101890",
      "elevationUnit": "METERS",
      "longitude": -111.7343
    },
    {
      "elevation": 1585.9,
      "mindate": "1954-12-01",
      "maxdate": "1958-06-01",
      "latitude": 42.66667,
      "name": "CLIFFS, ID US",
      "datacoverage": 0.9308,
      "id": "COOP:101898",
      "elevationUnit": "METERS",
      "longitude": -117
    },
    {
      "elevation": 1526.4,
      "mindate": "1961-10-01",
      "maxdate": "1986-08-01",
      "latitude": 45.08333,
      "name": "COBALT, ID US",
      "datacoverage": 0.9431,
      "id": "COOP:101932",
      "elevationUnit": "METERS",
      "longitude": -114.23333
    },
    {
      "elevation": 2076.9,
      "mindate": "1951-01-01",
      "maxdate": "1960-04-01",
      "latitude": 45.11667,
      "name": "COBALT BLACKBIRD MIN, ID US",
      "datacoverage": 1,
      "id": "COOP:101938",
      "elevationUnit": "METERS",
      "longitude": -114.35
    },
    {
      "elevation": 703.2,
      "mindate": "1948-08-01",
      "maxdate": "1953-11-01",
      "latitude": 47.76667,
      "name": "COEUR D ALENE AIR TERMINAL, ID US",
      "datacoverage": 0.9833,
      "id": "COOP:101951",
      "elevationUnit": "METERS",
      "longitude": -116.81667
    },
    {
      "elevation": 650.1,
      "mindate": "1917-01-01",
      "maxdate": "2015-11-01",
      "latitude": 47.6821,
      "name": "COEUR D ALENE, ID US",
      "datacoverage": 0.8467,
      "id": "COOP:101956",
      "elevationUnit": "METERS",
      "longitude": -116.7967
    },
    {
      "elevation": 703.2,
      "mindate": "1986-09-01",
      "maxdate": "1991-02-01",
      "latitude": 47.76667,
      "name": "COEUR D ALENE AIR TERMINAL, ID US",
      "datacoverage": 1,
      "id": "COOP:101960",
      "elevationUnit": "METERS",
      "longitude": -116.81667
    },
    {
      "elevation": 1891,
      "mindate": "1939-01-01",
      "maxdate": "1978-04-01",
      "latitude": 42.71667,
      "name": "CONDA, ID US",
      "datacoverage": 0.9937,
      "id": "COOP:102071",
      "elevationUnit": "METERS",
      "longitude": -111.55
    },
    {
      "elevation": 1040,
      "mindate": "1926-01-01",
      "maxdate": "1976-09-01",
      "latitude": 46.01667,
      "name": "COTTONWOOD, ID US",
      "datacoverage": 0.798,
      "id": "COOP:102154",
      "elevationUnit": "METERS",
      "longitude": -116.33333
    },
    {
      "elevation": 1202.4,
      "mindate": "1948-08-01",
      "maxdate": "2015-11-01",
      "latitude": 46.0336,
      "name": "COTTONWOOD 2 WSW, ID US",
      "datacoverage": 0.5779,
      "id": "COOP:102159",
      "elevationUnit": "METERS",
      "longitude": -116.3919
    },
    {
      "elevation": 897,
      "mindate": "1917-01-01",
      "maxdate": "2015-11-01",
      "latitude": 44.7441,
      "name": "COUNCIL, ID US",
      "datacoverage": 0.9604,
      "id": "COOP:102187",
      "elevationUnit": "METERS",
      "longitude": -116.4326
    },
    {
      "elevation": 1143,
      "mindate": "1948-07-05",
      "maxdate": "1996-08-01",
      "latitude": 46.23333,
      "name": "CRAIGMONT, ID US",
      "datacoverage": 0.3807,
      "id": "COOP:102246",
      "elevationUnit": "METERS",
      "longitude": -116.48333
    },
    {
      "elevation": 1802.6,
      "mindate": "1958-12-01",
      "maxdate": "2015-11-01",
      "latitude": 43.46239,
      "name": "CRATERS OF THE MOON, ID US",
      "datacoverage": 0.9869,
      "id": "COOP:102260",
      "elevationUnit": "METERS",
      "longitude": -113.56018
    },
    {
      "elevation": 946.1,
      "mindate": "1931-01-01",
      "maxdate": "1956-05-01",
      "latitude": 44.15,
      "name": "CROUCH 2 NNW, ID US",
      "datacoverage": 0.9968,
      "id": "COOP:102279",
      "elevationUnit": "METERS",
      "longitude": -115.96667
    },
    {
      "elevation": 1641,
      "mindate": "1930-01-01",
      "maxdate": "1975-06-01",
      "latitude": 44.31667,
      "name": "DEADWOOD DAM, ID US",
      "datacoverage": 0.9946,
      "id": "COOP:102385",
      "elevationUnit": "METERS",
      "longitude": -115.63333
    },
    {
      "elevation": 1717.5,
      "mindate": "1980-11-01",
      "maxdate": "1989-10-01",
      "latitude": 44.46667,
      "name": "DEADWOOD DAM 15 N, ID US",
      "datacoverage": 0.8519,
      "id": "COOP:102390",
      "elevationUnit": "METERS",
      "longitude": -115.56667
    },
    {
      "elevation": 933,
      "mindate": "1936-06-01",
      "maxdate": "1972-04-01",
      "latitude": 47.73333,
      "name": "DECEPTION CREEK, ID US",
      "datacoverage": 0.7156,
      "id": "COOP:102422",
      "elevationUnit": "METERS",
      "longitude": -116.48333
    },
    {
      "elevation": 765,
      "mindate": "1917-01-01",
      "maxdate": "2015-11-01",
      "latitude": 43.5765,
      "name": "DEER FLAT DAM, ID US",
      "datacoverage": 0.9495,
      "id": "COOP:102444",
      "elevationUnit": "METERS",
      "longitude": -116.7475
    },
    {
      "elevation": 2147,
      "mindate": "1954-12-01",
      "maxdate": "1970-12-01",
      "latitude": 43.75,
      "name": "DEER POINT, ID US",
      "datacoverage": 1,
      "id": "COOP:102451",
      "elevationUnit": "METERS",
      "longitude": -116.1
    },
    {
      "elevation": 774.5,
      "mindate": "1968-05-01",
      "maxdate": "1985-01-01",
      "latitude": 47.13333,
      "name": "DESMET 1 S, ID US",
      "datacoverage": 0.3034,
      "id": "COOP:102513",
      "elevationUnit": "METERS",
      "longitude": -116.91667
    },
    {
      "elevation": 1705.4,
      "mindate": "1952-07-01",
      "maxdate": "2014-01-01",
      "latitude": 45.5525,
      "name": "DIXIE, ID US",
      "datacoverage": 0.9791,
      "id": "COOP:102575",
      "elevationUnit": "METERS",
      "longitude": -115.46117
    },
    {
      "elevation": 1749.6,
      "mindate": "2008-07-01",
      "maxdate": "2015-11-01",
      "latitude": 45.5697,
      "name": "DIXIE NORTH, ID US",
      "datacoverage": 0.9887,
      "id": "COOP:102577",
      "elevationUnit": "METERS",
      "longitude": -115.4527
    },
    {
      "elevation": 2638,
      "mindate": "1950-08-01",
      "maxdate": "1954-11-16",
      "latitude": 43.6,
      "name": "DOLLARHIDE SUMMIT, ID US",
      "datacoverage": 1,
      "id": "COOP:102604",
      "elevationUnit": "METERS",
      "longitude": -114.68333
    },
    {
      "elevation": 1482.9,
      "mindate": "2014-01-01",
      "maxdate": "2015-11-01",
      "latitude": 42.4261,
      "name": "DOWNEY, ID US",
      "datacoverage": 1,
      "id": "COOP:102667",
      "elevationUnit": "METERS",
      "longitude": -112.1253
    },
    {
      "elevation": 1879.1,
      "mindate": "1917-01-01",
      "maxdate": "2015-11-01",
      "latitude": 43.77909,
      "name": "DRIGGS, ID US",
      "datacoverage": 0.8998,
      "id": "COOP:102676",
      "elevationUnit": "METERS",
      "longitude": -111.11116
    },
    {
      "elevation": 1661.2,
      "mindate": "1922-02-01",
      "maxdate": "2015-11-01",
      "latitude": 44.24364,
      "name": "DUBOIS EXPERIMENT STATION, ID US",
      "datacoverage": 0.9672,
      "id": "COOP:102707",
      "elevationUnit": "METERS",
      "longitude": -112.20033
    },
    {
      "elevation": 1563.9,
      "mindate": "1937-06-01",
      "maxdate": "1962-04-01",
      "latitude": 44.16667,
      "name": "DUBOIS FAA AIRPORT, ID US",
      "datacoverage": 0.9833,
      "id": "COOP:102717",
      "elevationUnit": "METERS",
      "longitude": -112.21667
    },
    {
      "elevation": 1884.9,
      "mindate": "1963-11-01",
      "maxdate": "1966-12-01",
      "latitude": 44.18333,
      "name": "DUBOIS 34 W, ID US",
      "datacoverage": 0.9997,
      "id": "COOP:102722",
      "elevationUnit": "METERS",
      "longitude": -112.93333
    },
    {
      "elevation": 1207.9,
      "mindate": "1948-01-01",
      "maxdate": "1951-12-01",
      "latitude": 42.68333,
      "name": "EDEN HUNT PROJECT, ID US",
      "datacoverage": 1,
      "id": "COOP:102823",
      "elevationUnit": "METERS",
      "longitude": -114.25
    },
    {
      "elevation": 303.3,
      "mindate": "1966-10-01",
      "maxdate": "2015-11-01",
      "latitude": 46.5023,
      "name": "DWORSHAK FISH HATCHERY, ID US",
      "datacoverage": 1,
      "id": "COOP:102845",
      "elevationUnit": "METERS",
      "longitude": -116.3216
    },
    {
      "elevation": 1234.1,
      "mindate": "1951-01-01",
      "maxdate": "2013-06-01",
      "latitude": 45.83528,
      "name": "ELK CITY 1 NE, ID US",
      "datacoverage": 0.9556,
      "id": "COOP:102875",
      "elevationUnit": "METERS",
      "longitude": -115.45999
    },
    {
      "elevation": 867.2,
      "mindate": "1952-01-01",
      "maxdate": "2015-11-01",
      "latitude": 46.77439,
      "name": "ELK RIVER, ID US",
      "datacoverage": 0.9935,
      "id": "COOP:102892",
      "elevationUnit": "METERS",
      "longitude": -116.17623
    },
    {
      "elevation": 728.5,
      "mindate": "1917-01-01",
      "maxdate": "2015-11-01",
      "latitude": 43.8544,
      "name": "EMMETT 2 E, ID US",
      "datacoverage": 0.9975,
      "id": "COOP:102942",
      "elevationUnit": "METERS",
      "longitude": -116.4663
    },
    {
      "elevation": 646.2,
      "mindate": "1976-04-01",
      "maxdate": "2013-08-01",
      "latitude": 47.5689,
      "name": "ENAVILLE, ID US",
      "datacoverage": 0.0291,
      "id": "COOP:102966",
      "elevationUnit": "METERS",
      "longitude": -116.253
    },
    {
      "elevation": 732.1,
      "mindate": "1972-03-01",
      "maxdate": "1976-03-31",
      "latitude": 47.56667,
      "name": "ENAVILLE 2, ID US",
      "datacoverage": 0.0331,
      "id": "COOP:102971",
      "elevationUnit": "METERS",
      "longitude": -116.25
    },
    {
      "elevation": 1543.8,
      "mindate": "1948-01-01",
      "maxdate": "2015-11-01",
      "latitude": 43.3428,
      "name": "FAIRFIELD RANGER STATION, ID US",
      "datacoverage": 0.9509,
      "id": "COOP:103108",
      "elevationUnit": "METERS",
      "longitude": -114.7899
    },
    {
      "elevation": 1530.1,
      "mindate": "1978-01-01",
      "maxdate": "1998-03-01",
      "latitude": 43.31667,
      "name": "FAIRFIELD 3 SE, ID US",
      "datacoverage": 0.9796,
      "id": "COOP:103110",
      "elevationUnit": "METERS",
      "longitude": -114.75
    },
    {
      "elevation": 1495,
      "mindate": "1954-12-01",
      "maxdate": "1958-07-01",
      "latitude": 42.55,
      "name": "FAIRYLAWN, ID US",
      "datacoverage": 0.932,
      "id": "COOP:103113",
      "elevationUnit": "METERS",
      "longitude": -116.96667
    },
    {
      "elevation": 1388.1,
      "mindate": "1975-08-01",
      "maxdate": "1979-01-01",
      "latitude": 43.61667,
      "name": "FEATHERVILLE, ID US",
      "datacoverage": 0.9749,
      "id": "COOP:103133",
      "elevationUnit": "METERS",
      "longitude": -115.25
    },
    {
      "elevation": 469.4,
      "mindate": "1939-06-01",
      "maxdate": "2015-11-01",
      "latitude": 46.09992,
      "name": "FENN RANGER STATION, ID US",
      "datacoverage": 0.9717,
      "id": "COOP:103143",
      "elevationUnit": "METERS",
      "longitude": -115.54467
    },
    {
      "elevation": 2076.9,
      "mindate": "1948-05-01",
      "maxdate": "1950-12-01",
      "latitude": 45.11667,
      "name": "COBALT BLACKBIRD MIN, ID US",
      "datacoverage": 0.999,
      "id": "COOP:103289",
      "elevationUnit": "METERS",
      "longitude": -114.35
    },
    {
      "elevation": 1357.6,
      "mindate": "1917-01-01",
      "maxdate": "2015-11-01",
      "latitude": 43.03315,
      "name": "FORT HALL 1 NNE, ID US",
      "datacoverage": 0.9891,
      "id": "COOP:103297",
      "elevationUnit": "METERS",
      "longitude": -112.43245
    },
    {
      "elevation": 2225,
      "mindate": "1963-09-01",
      "maxdate": "1996-03-01",
      "latitude": 43.87222,
      "name": "GALENA, ID US",
      "datacoverage": 0.4987,
      "id": "COOP:103417",
      "elevationUnit": "METERS",
      "longitude": -114.65417
    },
    {
      "elevation": 944.9,
      "mindate": "1917-01-01",
      "maxdate": "2015-11-01",
      "latitude": 44.1011,
      "name": "GARDEN VALLEY, ID US",
      "datacoverage": 0.9503,
      "id": "COOP:103448",
      "elevationUnit": "METERS",
      "longitude": -115.9694
    },
    {
      "elevation": 1365.5,
      "mindate": "1941-12-01",
      "maxdate": "2011-12-01",
      "latitude": 45.5395,
      "name": "GIBBONSVILLE, ID US",
      "datacoverage": 0.648,
      "id": "COOP:103554",
      "elevationUnit": "METERS",
      "longitude": -113.9274
    },
    {
      "elevation": 1365.5,
      "mindate": "2005-01-01",
      "maxdate": "2015-11-01",
      "latitude": 45.5469,
      "name": "GIBBONSVILLE NUMBER 2, ID US",
      "datacoverage": 0.8476,
      "id": "COOP:103558",
      "elevationUnit": "METERS",
      "longitude": -113.9258
    },
    {
      "elevation": 751.6,
      "mindate": "1917-01-01",
      "maxdate": "2015-11-01",
      "latitude": 42.9404,
      "name": "GLENNS FERRY, ID US",
      "datacoverage": 0.9419,
      "id": "COOP:103631",
      "elevationUnit": "METERS",
      "longitude": -115.323
    },
    {
      "elevation": 1110.4,
      "mindate": "1931-01-01",
      "maxdate": "2014-01-01",
      "latitude": 42.9183,
      "name": "GOODING 1 S, ID US",
      "datacoverage": 0.4962,
      "id": "COOP:103677",
      "elevationUnit": "METERS",
      "longitude": -114.7664
    },
    {
      "elevation": 1088.1,
      "mindate": "1917-01-01",
      "maxdate": "1997-09-01",
      "latitude": 42.91667,
      "name": "GOODING 2 S, ID US",
      "datacoverage": 0.5377,
      "id": "COOP:103682",
      "elevationUnit": "METERS",
      "longitude": -114.71667
    },
    {
      "elevation": 1684.9,
      "mindate": "1907-01-01",
      "maxdate": "2015-11-01",
      "latitude": 42.56306,
      "name": "GRACE, ID US",
      "datacoverage": 0.9878,
      "id": "COOP:103732",
      "elevationUnit": "METERS",
      "longitude": -111.75944
    },
    {
      "elevation": 731.5,
      "mindate": "1929-01-01",
      "maxdate": "2010-10-01",
      "latitude": 43.0176,
      "name": "GRAND VIEW 4 NW, ID US",
      "datacoverage": 0.9593,
      "id": "COOP:103760",
      "elevationUnit": "METERS",
      "longitude": -116.1772
    },
    {
      "elevation": 1060.7,
      "mindate": "1922-10-01",
      "maxdate": "2015-11-01",
      "latitude": 45.91961,
      "name": "GRANGEVILLE, ID US",
      "datacoverage": 0.966,
      "id": "COOP:103771",
      "elevationUnit": "METERS",
      "longitude": -116.12919
    },
    {
      "elevation": 1008.9,
      "mindate": "1999-12-01",
      "maxdate": "2014-01-01",
      "latitude": 45.9397,
      "name": "GRANGEVILLE 1 N, ID US",
      "datacoverage": 0.0184,
      "id": "COOP:103773",
      "elevationUnit": "METERS",
      "longitude": -116.1211
    },
    {
      "elevation": 685.8,
      "mindate": "1964-11-01",
      "maxdate": "1989-01-01",
      "latitude": 45.83333,
      "name": "GRANGEVILLE 11 SE, ID US",
      "datacoverage": 0.9587,
      "id": "COOP:103780",
      "elevationUnit": "METERS",
      "longitude": -115.93333
    },
    {
      "elevation": 1565.1,
      "mindate": "1953-12-01",
      "maxdate": "1973-08-01",
      "latitude": 42.38333,
      "name": "GRASMERE, ID US",
      "datacoverage": 0.9578,
      "id": "COOP:103809",
      "elevationUnit": "METERS",
      "longitude": -115.88333
    },
    {
      "elevation": 1566.7,
      "mindate": "1963-04-01",
      "maxdate": "2014-01-01",
      "latitude": 42.345,
      "name": "GRASMERE 3 S, ID US",
      "datacoverage": 0.0174,
      "id": "COOP:103811",
      "elevationUnit": "METERS",
      "longitude": -115.8836
    },
    {
      "elevation": 1966,
      "mindate": "1917-01-01",
      "maxdate": "1955-06-01",
      "latitude": 43.05,
      "name": "GRAY, ID US",
      "datacoverage": 0.8681,
      "id": "COOP:103825",
      "elevationUnit": "METERS",
      "longitude": -111.36667
    },
    {
      "elevation": 1946.1,
      "mindate": "1955-11-01",
      "maxdate": "1956-12-01",
      "latitude": 43.13333,
      "name": "GRAY 6 NNW, ID US",
      "datacoverage": 0.9267,
      "id": "COOP:103828",
      "elevationUnit": "METERS",
      "longitude": -111.43333
    },
    {
      "elevation": 1022,
      "mindate": "1964-11-01",
      "maxdate": "1972-04-01",
      "latitude": 46.15,
      "name": "GREENCREEK 3 N, ID US",
      "datacoverage": 0.9783,
      "id": "COOP:103835",
      "elevationUnit": "METERS",
      "longitude": -116.26667
    },
    {
      "elevation": 1457.9,
      "mindate": "1917-01-01",
      "maxdate": "1949-07-01",
      "latitude": 43.96667,
      "name": "GRIMES PASS 6 S, ID US",
      "datacoverage": 0.9899,
      "id": "COOP:103861",
      "elevationUnit": "METERS",
      "longitude": -115.85
    },
    {
      "elevation": 1829.1,
      "mindate": "1932-09-01",
      "maxdate": "2004-01-01",
      "latitude": 43.71861,
      "name": "GROUSE, ID US",
      "datacoverage": 0.951,
      "id": "COOP:103882",
      "elevationUnit": "METERS",
      "longitude": -113.54722
    },
    {
      "elevation": 883,
      "mindate": "1982-07-01",
      "maxdate": "2015-11-01",
      "latitude": 42.8114,
      "name": "HAGERMAN 2 SW, ID US",
      "datacoverage": 0.9825,
      "id": "COOP:103932",
      "elevationUnit": "METERS",
      "longitude": -114.9239
    },
    {
      "elevation": 1619.1,
      "mindate": "2005-08-01",
      "maxdate": "2012-12-01",
      "latitude": 43.5186,
      "name": "HAILEY, ID US",
      "datacoverage": 0.8985,
      "id": "COOP:103940",
      "elevationUnit": "METERS",
      "longitude": -114.3025
    },
    {
      "elevation": 1653.2,
      "mindate": "1917-01-01",
      "maxdate": "1988-10-01",
      "latitude": 43.56667,
      "name": "HAILEY 3 NNW, ID US",
      "datacoverage": 0.9304,
      "id": "COOP:103942",
      "elevationUnit": "METERS",
      "longitude": -114.33333
    },
    {
      "elevation": 1460,
      "mindate": "1931-01-01",
      "maxdate": "2015-11-01",
      "latitude": 43.9663,
      "name": "HAMER 4 NW, ID US",
      "datacoverage": 0.9245,
      "id": "COOP:103964",
      "elevationUnit": "METERS",
      "longitude": -112.2641
    },
    {
      "elevation": 1237.5,
      "mindate": "1918-01-01",
      "maxdate": "2015-11-01",
      "latitude": 42.5972,
      "name": "HAZELTON, ID US",
      "datacoverage": 0.9839,
      "id": "COOP:104140",
      "elevationUnit": "METERS",
      "longitude": -114.1378
    },
    {
      "elevation": 975.4,
      "mindate": "1959-06-01",
      "maxdate": "2014-01-01",
      "latitude": 46.6311,
      "name": "HEADQUARTERS, ID US",
      "datacoverage": 0.9624,
      "id": "COOP:104150",
      "elevationUnit": "METERS",
      "longitude": -115.8086
    },
    {
      "elevation": 993.6,
      "mindate": "1993-06-01",
      "maxdate": "2015-11-01",
      "latitude": 46.613,
      "name": "HEADQUARTERS 1 SSE, ID US",
      "datacoverage": 0.9848,
      "id": "COOP:104154",
      "elevationUnit": "METERS",
      "longitude": -115.7988
    },
    {
      "elevation": 2025.1,
      "mindate": "1971-09-01",
      "maxdate": "2012-11-01",
      "latitude": 42.94194,
      "name": "HENRY, ID US",
      "datacoverage": 0.4851,
      "id": "COOP:104230",
      "elevationUnit": "METERS",
      "longitude": -111.43611
    },
    {
      "elevation": 1553.9,
      "mindate": "1917-01-01",
      "maxdate": "2006-02-01",
      "latitude": 43.29732,
      "name": "HILL CITY 1 W, ID US",
      "datacoverage": 0.9402,
      "id": "COOP:104268",
      "elevationUnit": "METERS",
      "longitude": -115.06772
    },
    {
      "elevation": 1463,
      "mindate": "2009-10-01",
      "maxdate": "2010-10-01",
      "latitude": 42.1628,
      "name": "HOLBROOK, ID US",
      "datacoverage": 0.6149,
      "id": "COOP:104279",
      "elevationUnit": "METERS",
      "longitude": -112.649
    },
    {
      "elevation": 1379.2,
      "mindate": "1917-01-01",
      "maxdate": "2015-11-01",
      "latitude": 42.3528,
      "name": "HOLLISTER, ID US",
      "datacoverage": 0.9613,
      "id": "COOP:104295",
      "elevationUnit": "METERS",
      "longitude": -114.5739
    },
    {
      "elevation": 679.7,
      "mindate": "1990-03-01",
      "maxdate": "2015-11-01",
      "latitude": 43.6058,
      "name": "HOMEDALE 1 SE, ID US",
      "datacoverage": 0.9902,
      "id": "COOP:104318",
      "elevationUnit": "METERS",
      "longitude": -116.9211
    },
    {
      "elevation": 1469.1,
      "mindate": "1932-09-01",
      "maxdate": "2015-11-01",
      "latitude": 43.7827,
      "name": "HOWE, ID US",
      "datacoverage": 0.95,
      "id": "COOP:104384",
      "elevationUnit": "METERS",
      "longitude": -113.0033
    },
    {
      "elevation": 1208.5,
      "mindate": "1917-01-01",
      "maxdate": "2012-12-01",
      "latitude": 43.8383,
      "name": "IDAHO CITY, ID US",
      "datacoverage": 0.9818,
      "id": "COOP:104442",
      "elevationUnit": "METERS",
      "longitude": -115.832
    },
    {
      "elevation": 1524.9,
      "mindate": "1917-01-01",
      "maxdate": "1963-06-01",
      "latitude": 43.71667,
      "name": "IDAHO CITY 11 SW, ID US",
      "datacoverage": 0.9983,
      "id": "COOP:104450",
      "elevationUnit": "METERS",
      "longitude": -116
    },
    {
      "elevation": 1445.4,
      "mindate": "1952-05-01",
      "maxdate": "2015-11-01",
      "latitude": 43.514,
      "name": "IDAHO FALLS KIFI, ID US",
      "datacoverage": 0.9502,
      "id": "COOP:104455",
      "elevationUnit": "METERS",
      "longitude": -112.0126
    },
    {
      "elevation": 1776.4,
      "mindate": "1955-12-01",
      "maxdate": "2015-11-01",
      "latitude": 43.3455,
      "name": "IDAHO FALLS 16 SE, ID US",
      "datacoverage": 0.9917,
      "id": "COOP:104456",
      "elevationUnit": "METERS",
      "longitude": -111.7847
    },
    {
      "elevation": 1442.7,
      "mindate": "1917-01-01",
      "maxdate": "1994-02-01",
      "latitude": 43.52044,
      "name": "IDAHO FALLS FAA AIRPORT, ID US",
      "datacoverage": 0.9828,
      "id": "COOP:104457",
      "elevationUnit": "METERS",
      "longitude": -112.06753
    },
    {
      "elevation": 1460.9,
      "mindate": "1954-03-01",
      "maxdate": "1969-07-07",
      "latitude": 43.83333,
      "name": "IDAHO FALLS 42 NW WEATHER BUREAU, ID US",
      "datacoverage": 0.9456,
      "id": "COOP:104459",
      "elevationUnit": "METERS",
      "longitude": -112.68333
    },
    {
      "elevation": 1505.1,
      "mindate": "1954-03-01",
      "maxdate": "2015-11-01",
      "latitude": 43.53252,
      "name": "IDAHO FALLS 46 W, ID US",
      "datacoverage": 0.9973,
      "id": "COOP:104460",
      "elevationUnit": "METERS",
      "longitude": -112.94793
    },
    {
      "elevation": 755.9,
      "mindate": "1931-01-01",
      "maxdate": "1937-06-01",
      "latitude": 42.93333,
      "name": "INDIAN COVE, ID US",
      "datacoverage": 1,
      "id": "COOP:104526",
      "elevationUnit": "METERS",
      "longitude": -115.55
    }
  ]
}
