{
  "metadata": {
    "resultset": {
      "offset": 150200,
      "count": 154115,
      "limit": 100
    }
  },
  "results": [
    {
      "elevation": 9.6,
      "mindate": "1998-09-01",
      "maxdate": "2025-03-07",
      "latitude": 37.65886,
      "name": "HAYWARD AIR TERMINAL, CA US",
      "datacoverage": 1,
      "id": "GHCND:USW00093228",
      "elevationUnit": "METERS",
      "longitude": -122.12116
    },
    {
      "elevation": 1907,
      "mindate": "1968-05-01",
      "maxdate": "2025-03-06",
      "latitude": 38.89838,
      "name": "SOUTH LAKE TAHOE AIRPORT, CA US",
      "datacoverage": 1,
      "id": "GHCND:USW00093230",
      "elevationUnit": "METERS",
      "longitude": -119.99617
    },
    {
      "elevation": 31.7,
      "mindate": "1998-04-01",
      "maxdate": "2025-03-06",
      "latitude": 38.37753,
      "name": "VACAVILLE NUT TREE AIRPORT ASOS, CA US",
      "datacoverage": 1,
      "id": "GHCND:USW00093241",
      "elevationUnit": "METERS",
      "longitude": -121.95854
    },
    {
      "elevation": 76.6,
      "mindate": "1998-09-01",
      "maxdate": "2025-03-06",
      "latitude": 36.98505,
      "name": "MADERA MUNICIPAL AIRPORT, CA US",
      "datacoverage": 1,
      "id": "GHCND:USW00093242",
      "elevationUnit": "METERS",
      "longitude": -120.11068
    },
    {
      "elevation": 23.8,
      "mindate": "2004-03-01",
      "maxdate": "2025-03-06",
      "latitude": 37.2381,
      "name": "MERCED 23 WSW, CA US",
      "datacoverage": 1,
      "id": "GHCND:USW00093243",
      "elevationUnit": "METERS",
      "longitude": -120.8825
    },
    {
      "elevation": 19.2,
      "mindate": "2008-06-01",
      "maxdate": "2025-03-06",
      "latitude": 38.3208,
      "name": "BODEGA 6 WSW, CA US",
      "datacoverage": 1,
      "id": "GHCND:USW00093245",
      "elevationUnit": "METERS",
      "longitude": -123.0747
    },
    {
      "elevation": 209.4,
      "mindate": "1998-10-01",
      "maxdate": "2025-03-06",
      "latitude": 39.70618,
      "name": "HAGERSTOWN REGIONAL AIRPORT, MD US",
      "datacoverage": 1,
      "id": "GHCND:USW00093706",
      "elevationUnit": "METERS",
      "longitude": -77.73037
    },
    {
      "elevation": 8.8,
      "mindate": "1949-01-01",
      "maxdate": "2025-03-06",
      "latitude": 33.81618,
      "name": "NORTH MYRTLE BEACH, SC US",
      "datacoverage": 1,
      "id": "GHCND:USW00093718",
      "elevationUnit": "METERS",
      "longitude": -78.72043
    },
    {
      "elevation": 3.2,
      "mindate": "1948-09-01",
      "maxdate": "2025-03-06",
      "latitude": 35.06836,
      "name": "NEW BERN COASTAL CAROLINA REGIONAL AIRPORT, NC US",
      "datacoverage": 1,
      "id": "GHCND:USW00093719",
      "elevationUnit": "METERS",
      "longitude": -77.04783
    },
    {
      "elevation": 14.4,
      "mindate": "1948-01-01",
      "maxdate": "2025-03-07",
      "latitude": 38.3409,
      "name": "SALISBURY WICOMICO REGIONAL AIRPORT, MD US",
      "datacoverage": 1,
      "id": "GHCND:USW00093720",
      "elevationUnit": "METERS",
      "longitude": -75.51324
    },
    {
      "elevation": 42,
      "mindate": "1939-07-01",
      "maxdate": "2025-03-07",
      "latitude": 39.17329,
      "name": "BALTIMORE WASHINGTON INTERNATIONAL AIRPORT, MD US",
      "datacoverage": 1,
      "id": "GHCND:USW00093721",
      "elevationUnit": "METERS",
      "longitude": -76.68408
    },
    {
      "elevation": 21.9,
      "mindate": "1851-03-01",
      "maxdate": "1965-12-31",
      "latitude": 38.901111,
      "name": "WASHINGTON DC WEATHER BUREAU CITY, DC US",
      "datacoverage": 0.8812,
      "id": "GHCND:USW00093725",
      "elevationUnit": "METERS",
      "longitude": -77.050278
    },
    {
      "elevation": 28.7,
      "mindate": "1955-07-01",
      "maxdate": "1957-06-28",
      "latitude": 35.31667,
      "name": "KINSTON STALLINGS FIELD, NC US",
      "datacoverage": 0.6662,
      "id": "GHCND:USW00093726",
      "elevationUnit": "METERS",
      "longitude": -77.63333
    },
    {
      "elevation": 7.9,
      "mindate": "1955-01-01",
      "maxdate": "2025-01-26",
      "latitude": 34.70842,
      "name": "NEW RIVER MCAF, NC US",
      "datacoverage": 1,
      "id": "GHCND:USW00093727",
      "elevationUnit": "METERS",
      "longitude": -77.43966
    },
    {
      "elevation": 22.3,
      "mindate": "1957-01-01",
      "maxdate": "1970-12-31",
      "latitude": 38.71667,
      "name": "DAVISON ARMY AIR FIELD, VA US",
      "datacoverage": 1,
      "id": "GHCND:USW00093728",
      "elevationUnit": "METERS",
      "longitude": -77.18333
    },
    {
      "elevation": 3.8,
      "mindate": "1957-01-01",
      "maxdate": "2025-03-06",
      "latitude": 35.23238,
      "name": "CAPE HATTERAS BILLY MITCHELL FIELD, NC US",
      "datacoverage": 1,
      "id": "GHCND:USW00093729",
      "elevationUnit": "METERS",
      "longitude": -75.62223
    },
    {
      "elevation": 17.8,
      "mindate": "1947-01-01",
      "maxdate": "2025-03-07",
      "latitude": 39.45203,
      "name": "ATLANTIC CITY INTERNATIONAL AIRPORT, NJ US",
      "datacoverage": 1,
      "id": "GHCND:USW00093730",
      "elevationUnit": "METERS",
      "longitude": -74.56701
    },
    {
      "elevation": 10.1,
      "mindate": "1958-01-01",
      "maxdate": "1962-07-31",
      "latitude": 36.95,
      "name": "NORFOLK FLEET WF NAS, VA US",
      "datacoverage": 1,
      "id": "GHCND:USW00093731",
      "elevationUnit": "METERS",
      "longitude": -76.3
    },
    {
      "elevation": 25.9,
      "mindate": "1958-01-01",
      "maxdate": "1960-11-15",
      "latitude": 39.8,
      "name": "NEW YORK SHOALS AFS OFF SHORE",
      "datacoverage": 1,
      "id": "GHCND:USW00093732",
      "elevationUnit": "METERS",
      "longitude": -72.66667
    },
    {
      "elevation": 46,
      "mindate": "1959-01-01",
      "maxdate": "1970-12-31",
      "latitude": 39.08333,
      "name": "TIPTON AIRPORT, MD US",
      "datacoverage": 0.9924,
      "id": "GHCND:USW00093733",
      "elevationUnit": "METERS",
      "longitude": -76.76667
    },
    {
      "elevation": 85,
      "mindate": "1962-01-01",
      "maxdate": "1965-10-18",
      "latitude": 38.98333,
      "name": "STERLING, VA US",
      "datacoverage": 1,
      "id": "GHCND:USW00093734",
      "elevationUnit": "METERS",
      "longitude": -77.46667
    },
    {
      "elevation": 3.7,
      "mindate": "1960-01-01",
      "maxdate": "1970-12-31",
      "latitude": 37.13333,
      "name": "FORT EUSTIS FELKER ARMY AIR FIELD, VA US",
      "datacoverage": 1,
      "id": "GHCND:USW00093735",
      "elevationUnit": "METERS",
      "longitude": -76.6
    },
    {
      "elevation": 192.3,
      "mindate": "1955-09-14",
      "maxdate": "2025-03-06",
      "latitude": 38.1374,
      "name": "CHARLOTTESVILLE ALBEMARLE AIRPORT, VA US",
      "datacoverage": 1,
      "id": "GHCND:USW00093736",
      "elevationUnit": "METERS",
      "longitude": -78.45513
    },
    {
      "elevation": 74.4,
      "mindate": "1961-01-01",
      "maxdate": "1978-08-31",
      "latitude": 35.13333,
      "name": "FORT BRAGG SIMMONS ARMY AIR FIELD, NC US",
      "datacoverage": 0.6107,
      "id": "GHCND:USW00093737",
      "elevationUnit": "METERS",
      "longitude": -78.93333
    },
    {
      "elevation": 89.5,
      "mindate": "1960-04-01",
      "maxdate": "2025-03-07",
      "latitude": 38.93485,
      "name": "WASHINGTON DULLES INTERNATIONAL AIRPORT, VA US",
      "datacoverage": 1,
      "id": "GHCND:USW00093738",
      "elevationUnit": "METERS",
      "longitude": -77.44728
    },
    {
      "elevation": 9.7,
      "mindate": "1966-01-01",
      "maxdate": "2025-03-07",
      "latitude": 37.93718,
      "name": "WALLOPS ISLAND NASA TEST FACILITY, VA US",
      "datacoverage": 1,
      "id": "GHCND:USW00093739",
      "elevationUnit": "METERS",
      "longitude": -75.46622
    },
    {
      "elevation": 56.7,
      "mindate": "1998-04-01",
      "maxdate": "2025-03-06",
      "latitude": 34.98953,
      "name": "FAYETTEVILLE REGIONAL AIRPORT GRANNIS FIELD, NC US",
      "datacoverage": 1,
      "id": "GHCND:USW00093740",
      "elevationUnit": "METERS",
      "longitude": -78.88004
    },
    {
      "elevation": 10.9,
      "mindate": "2000-12-01",
      "maxdate": "2025-03-06",
      "latitude": 37.13216,
      "name": "NEWPORT NEWS INTERNATIONAL AIRPORT, VA US",
      "datacoverage": 1,
      "id": "GHCND:USW00093741",
      "elevationUnit": "METERS",
      "longitude": -76.49399
    },
    {
      "elevation": 6.4,
      "mindate": "1980-10-01",
      "maxdate": "2014-11-06",
      "latitude": 34.68333,
      "name": "SWANSBORO BOGUE FIELD MCAF, NC US",
      "datacoverage": 1,
      "id": "GHCND:USW00093743",
      "elevationUnit": "METERS",
      "longitude": -77.03333
    },
    {
      "elevation": 45.6,
      "mindate": "2000-10-01",
      "maxdate": "2025-03-05",
      "latitude": 35.85023,
      "name": "ROCKY MOUNT WILSON AIRPORT, NC US",
      "datacoverage": 1,
      "id": "GHCND:USW00093759",
      "elevationUnit": "METERS",
      "longitude": -77.89511
    },
    {
      "elevation": 249.3,
      "mindate": "2006-01-01",
      "maxdate": "2016-11-16",
      "latitude": 39.73333,
      "name": "FOUNTAIN DALE SITE R HELIPAD, PA US",
      "datacoverage": 0.9997,
      "id": "GHCND:USW00093762",
      "elevationUnit": "METERS",
      "longitude": -77.43333
    },
    {
      "elevation": 1.5,
      "mindate": "2000-04-01",
      "maxdate": "2025-03-06",
      "latitude": 34.73258,
      "name": "BEAUFORT MICHAEL J. SMITH FIELD, NC US",
      "datacoverage": 1,
      "id": "GHCND:USW00093765",
      "elevationUnit": "METERS",
      "longitude": -76.65659
    },
    {
      "elevation": 32,
      "mindate": "1997-11-01",
      "maxdate": "2025-03-06",
      "latitude": 36.98269,
      "name": "WAKEFIELD MUNICIPAL AIRPORT, VA US",
      "datacoverage": 1,
      "id": "GHCND:USW00093773",
      "elevationUnit": "METERS",
      "longitude": -77.00137
    },
    {
      "elevation": 61.5,
      "mindate": "1996-07-01",
      "maxdate": "2025-03-05",
      "latitude": 37.70926,
      "name": "ASHLAND HANOVER CO MUNICIPAL AIRPORT, VA US",
      "datacoverage": 1,
      "id": "GHCND:USW00093775",
      "elevationUnit": "METERS",
      "longitude": -77.43484
    },
    {
      "elevation": 9.1,
      "mindate": "1996-07-01",
      "maxdate": "1997-12-25",
      "latitude": 34.88333,
      "name": "CHERRY POINT MCAS ASOS 2, NC US",
      "datacoverage": 0.9425,
      "id": "GHCND:USW00093776",
      "elevationUnit": "METERS",
      "longitude": -76.86667
    },
    {
      "elevation": 141.4,
      "mindate": "1997-09-01",
      "maxdate": "2025-03-05",
      "latitude": 39.91942,
      "name": "YORK AIRPORT, PA US",
      "datacoverage": 1,
      "id": "GHCND:USW00093778",
      "elevationUnit": "METERS",
      "longitude": -76.87685
    },
    {
      "elevation": 15.2,
      "mindate": "1997-12-01",
      "maxdate": "2025-03-05",
      "latitude": 39.94076,
      "name": "SOUTH JERSEY REGIONAL AIRPORT, NJ US",
      "datacoverage": 1,
      "id": "GHCND:USW00093780",
      "elevationUnit": "METERS",
      "longitude": -74.84075
    },
    {
      "elevation": 78,
      "mindate": "1998-11-01",
      "maxdate": "2010-12-31",
      "latitude": 36.43944,
      "name": "ROANOKE RAPIDS HALIFAX CO AIRPORT, NC US",
      "datacoverage": 1,
      "id": "GHCND:USW00093781",
      "elevationUnit": "METERS",
      "longitude": -77.70972
    },
    {
      "elevation": 64.9,
      "mindate": "1998-06-01",
      "maxdate": "2025-03-05",
      "latitude": 34.79132,
      "name": "LAURINBURG MAXTON AIRPORT, NC US",
      "datacoverage": 1,
      "id": "GHCND:USW00093782",
      "elevationUnit": "METERS",
      "longitude": -79.36831
    },
    {
      "elevation": 184.9,
      "mindate": "1998-07-01",
      "maxdate": "2025-03-06",
      "latitude": 36.04751,
      "name": "BURLINGTON ALAMANCE REGIONAL AIRPORT, NC US",
      "datacoverage": 1,
      "id": "GHCND:USW00093783",
      "elevationUnit": "METERS",
      "longitude": -79.47375
    },
    {
      "elevation": 6.1,
      "mindate": "1998-05-01",
      "maxdate": "2025-03-06",
      "latitude": 39.2814,
      "name": "MARYLAND SCIENCE CENTER, MD US",
      "datacoverage": 1,
      "id": "GHCND:USW00093784",
      "elevationUnit": "METERS",
      "longitude": -76.6111
    },
    {
      "elevation": 156.1,
      "mindate": "1999-07-01",
      "maxdate": "2018-05-14",
      "latitude": 35.93333,
      "name": "CHAPEL HILL WILLIAMS AIRPORT, NC US",
      "datacoverage": 1,
      "id": "GHCND:USW00093785",
      "elevationUnit": "METERS",
      "longitude": -79.06417
    },
    {
      "elevation": 1.8,
      "mindate": "1999-09-01",
      "maxdate": "2025-03-05",
      "latitude": 38.30911,
      "name": "OCEAN CITY MUNICIPAL AIRPORT, MD US",
      "datacoverage": 1,
      "id": "GHCND:USW00093786",
      "elevationUnit": "METERS",
      "longitude": -75.12336
    },
    {
      "elevation": 194.8,
      "mindate": "1948-01-01",
      "maxdate": "2025-03-06",
      "latitude": 34.34833,
      "name": "ROME R B RUSSELL AIRPORT, GA US",
      "datacoverage": 1,
      "id": "GHCND:USW00093801",
      "elevationUnit": "METERS",
      "longitude": -85.16155
    },
    {
      "elevation": 328.9,
      "mindate": "1948-08-01",
      "maxdate": "1954-04-14",
      "latitude": 35.96667,
      "name": "SMITHVILLE CAA AIRPORT, TN US",
      "datacoverage": 1,
      "id": "GHCND:USW00093803",
      "elevationUnit": "METERS",
      "longitude": -85.78333
    },
    {
      "elevation": 244.1,
      "mindate": "1948-01-01",
      "maxdate": "1962-10-14",
      "latitude": 34.91667,
      "name": "SPARTANBURG, SC US",
      "datacoverage": 1,
      "id": "GHCND:USW00093804",
      "elevationUnit": "METERS",
      "longitude": -81.95
    },
    {
      "elevation": 17.1,
      "mindate": "1940-03-01",
      "maxdate": "2025-03-07",
      "latitude": 30.39354,
      "name": "TALLAHASSEE REGIONAL AIRPORT, FL US",
      "datacoverage": 1,
      "id": "GHCND:USW00093805",
      "elevationUnit": "METERS",
      "longitude": -84.35136
    },
    {
      "elevation": 45.3,
      "mindate": "1948-06-01",
      "maxdate": "2025-03-06",
      "latitude": 33.21217,
      "name": "TUSCALOOSA AIRPORT ASOS, AL US",
      "datacoverage": 1,
      "id": "GHCND:USW00093806",
      "elevationUnit": "METERS",
      "longitude": -87.61552
    },
    {
      "elevation": 291.6,
      "mindate": "1899-06-01",
      "maxdate": "2025-03-05",
      "latitude": 36.13347,
      "name": "WINSTON SALEM REYNOLDS AIRPORT, NC US",
      "datacoverage": 1,
      "id": "GHCND:USW00093807",
      "elevationUnit": "METERS",
      "longitude": -80.22441
    },
    {
      "elevation": 159.3,
      "mindate": "1893-01-01",
      "maxdate": "2025-03-06",
      "latitude": 36.96467,
      "name": "BOWLING GREEN WARREN CO AIRPORT, KY US",
      "datacoverage": 1,
      "id": "GHCND:USW00093808",
      "elevationUnit": "METERS",
      "longitude": -86.42379
    },
    {
      "elevation": 98.1,
      "mindate": "1908-01-01",
      "maxdate": "2023-11-21",
      "latitude": 37.04014,
      "name": "CAIRO 3 N, IL US",
      "datacoverage": 1,
      "id": "GHCND:USW00093809",
      "elevationUnit": "METERS",
      "longitude": -89.18422
    },
    {
      "elevation": 122.1,
      "mindate": "1998-08-01",
      "maxdate": "2025-03-06",
      "latitude": 37.78329,
      "name": "CARBONDALE SOUTHERN ILLINOIS AIRPORT, IL US",
      "datacoverage": 1,
      "id": "GHCND:USW00093810",
      "elevationUnit": "METERS",
      "longitude": -89.24533
    },
    {
      "elevation": 144.8,
      "mindate": "1948-08-01",
      "maxdate": "2025-03-06",
      "latitude": 39.106,
      "name": "CINCINNATI MUNICIPAL AIRPORT LUNKEN FIELD, OH US",
      "datacoverage": 1,
      "id": "GHCND:USW00093812",
      "elevationUnit": "METERS",
      "longitude": -84.41609
    },
    {
      "elevation": 262.4,
      "mindate": "1948-01-01",
      "maxdate": "2025-03-07",
      "latitude": 39.04443,
      "name": "CINCINNATI NORTHERN KENTUCKY INTERNATIONAL AIRPORT, KY US",
      "datacoverage": 1,
      "id": "GHCND:USW00093814",
      "elevationUnit": "METERS",
      "longitude": -84.67241
    },
    {
      "elevation": 302.6,
      "mindate": "1948-01-01",
      "maxdate": "2025-03-07",
      "latitude": 39.90638,
      "name": "DAYTON INTERNATIONAL AIRPORT, OH US",
      "datacoverage": 1,
      "id": "GHCND:USW00093815",
      "elevationUnit": "METERS",
      "longitude": -84.21853
    },
    {
      "elevation": 122.5,
      "mindate": "1948-01-01",
      "maxdate": "2025-03-07",
      "latitude": 38.05015,
      "name": "EVANSVILLE REGIONAL AIRPORT, IN US",
      "datacoverage": 1,
      "id": "GHCND:USW00093817",
      "elevationUnit": "METERS",
      "longitude": -87.51465
    },
    {
      "elevation": 170.7,
      "mindate": "1941-04-01",
      "maxdate": "1960-12-31",
      "latitude": 38.41667,
      "name": "CHESAPEAKE HUNTINGTON AIRPORT, OH US",
      "datacoverage": 0.9915,
      "id": "GHCND:USW00093818",
      "elevationUnit": "METERS",
      "longitude": -82.5
    },
    {
      "elevation": 241.3,
      "mindate": "1942-10-06",
      "maxdate": "2025-03-07",
      "latitude": 39.72515,
      "name": "INDIANAPOLIS INTERNATIONAL AIRPORT, IN US",
      "datacoverage": 1,
      "id": "GHCND:USW00093819",
      "elevationUnit": "METERS",
      "longitude": -86.2816
    },
    {
      "elevation": 298.7,
      "mindate": "1872-10-01",
      "maxdate": "2025-03-07",
      "latitude": 38.0408,
      "name": "LEXINGTON BLUE GRASS AIRPORT, KY US",
      "datacoverage": 1,
      "id": "GHCND:USW00093820",
      "elevationUnit": "METERS",
      "longitude": -84.6058
    },
    {
      "elevation": 146.3,
      "mindate": "1948-01-01",
      "maxdate": "2025-03-07",
      "latitude": 38.17738,
      "name": "LOUISVILLE INTERNATIONAL AIRPORT, KY US",
      "datacoverage": 1,
      "id": "GHCND:USW00093821",
      "elevationUnit": "METERS",
      "longitude": -85.73077
    },
    {
      "elevation": 179.7,
      "mindate": "1901-01-01",
      "maxdate": "2025-03-07",
      "latitude": 39.84529,
      "name": "SPRINGFIELD ABRAHAM LINCOLN CAPITAL AIRPORT, IL US",
      "datacoverage": 1,
      "id": "GHCND:USW00093822",
      "elevationUnit": "METERS",
      "longitude": -89.68401
    },
    {
      "elevation": 172.7,
      "mindate": "1875-05-01",
      "maxdate": "2025-03-06",
      "latitude": 39.4429,
      "name": "TERRE HAUTE HULMAN REGIONAL AIRPORT, IN US",
      "datacoverage": 1,
      "id": "GHCND:USW00093823",
      "elevationUnit": "METERS",
      "longitude": -87.32206
    },
    {
      "elevation": 268.6,
      "mindate": "1946-01-01",
      "maxdate": "2025-03-06",
      "latitude": 39.94609,
      "name": "ZANESVILLE MUNICIPAL AIRPORT, OH US",
      "datacoverage": 1,
      "id": "GHCND:USW00093824",
      "elevationUnit": "METERS",
      "longitude": -81.89315
    },
    {
      "elevation": 109.7,
      "mindate": "1948-01-01",
      "maxdate": "2010-12-31",
      "latitude": 37.0955,
      "name": "ADVANCE 1 S, MO US",
      "datacoverage": 1,
      "id": "GHCND:USW00093825",
      "elevationUnit": "METERS",
      "longitude": -89.9161
    },
    {
      "elevation": 21.9,
      "mindate": "1952-01-01",
      "maxdate": "1958-09-12",
      "latitude": 30.4,
      "name": "BARIN FIELD NAAS, AL US",
      "datacoverage": 1,
      "id": "GHCND:USW00093826",
      "elevationUnit": "METERS",
      "longitude": -87.6
    },
    {
      "elevation": 11.9,
      "mindate": "1945-03-01",
      "maxdate": "1945-12-21",
      "latitude": 30.38333,
      "name": "PENSACOLA BRONSON FIELD NAAS, FL US",
      "datacoverage": 0.9947,
      "id": "GHCND:USW00093827",
      "elevationUnit": "METERS",
      "longitude": -87.41667
    },
    {
      "elevation": 11,
      "mindate": "1945-01-01",
      "maxdate": "1958-02-28",
      "latitude": 30.4,
      "name": "PENSACOLA CORRY FIELD NAAS, FL US",
      "datacoverage": 0.7853,
      "id": "GHCND:USW00093828",
      "elevationUnit": "METERS",
      "longitude": -87.28333
    },
    {
      "elevation": 302.1,
      "mindate": "1945-01-01",
      "maxdate": "1958-01-31",
      "latitude": 33.86667,
      "name": "ATLANTA NAS, GA US",
      "datacoverage": 0.9994,
      "id": "GHCND:USW00093830",
      "elevationUnit": "METERS",
      "longitude": -84.3
    },
    {
      "elevation": 11.3,
      "mindate": "1945-01-01",
      "maxdate": "2025-03-05",
      "latitude": 32.48333,
      "name": "BEAUFORT MCAS, SC US",
      "datacoverage": 1,
      "id": "GHCND:USW00093831",
      "elevationUnit": "METERS",
      "longitude": -80.71667
    },
    {
      "elevation": 26.8,
      "mindate": "1947-01-01",
      "maxdate": "2010-12-31",
      "latitude": 30.21667,
      "name": "JACKSONVILLE CECIL FIELD NAS, FL US",
      "datacoverage": 1,
      "id": "GHCND:USW00093832",
      "elevationUnit": "METERS",
      "longitude": -81.88333
    },
    {
      "elevation": 74.1,
      "mindate": "1945-03-01",
      "maxdate": "1945-09-30",
      "latitude": 33.91667,
      "name": "COLUMBIA CONGAREE FIELD MCAF, SC US",
      "datacoverage": 0.9956,
      "id": "GHCND:USW00093833",
      "elevationUnit": "METERS",
      "longitude": -80.8
    },
    {
      "elevation": 249,
      "mindate": "1945-01-01",
      "maxdate": "1954-12-31",
      "latitude": 39.98333,
      "name": "COLUMBUS NAS, OH US",
      "datacoverage": 0.658,
      "id": "GHCND:USW00093834",
      "elevationUnit": "METERS",
      "longitude": -82.88333
    },
    {
      "elevation": 387.1,
      "mindate": "1945-02-01",
      "maxdate": "1945-12-20",
      "latitude": 34.18333,
      "name": "GAINESVILLE NAF, GA US",
      "datacoverage": 1,
      "id": "GHCND:USW00093835",
      "elevationUnit": "METERS",
      "longitude": -83.68333
    },
    {
      "elevation": 9.1,
      "mindate": "1945-01-01",
      "maxdate": "1974-06-30",
      "latitude": 31.25,
      "name": "BRUNSWICK GLYNN CO AIRPORT, GA US",
      "datacoverage": 0.8661,
      "id": "GHCND:USW00093836",
      "elevationUnit": "METERS",
      "longitude": -81.46667
    },
    {
      "elevation": 6.1,
      "mindate": "1945-01-01",
      "maxdate": "2025-03-06",
      "latitude": 30.23333,
      "name": "JACKSONVILLE NAS, FL US",
      "datacoverage": 1,
      "id": "GHCND:USW00093837",
      "elevationUnit": "METERS",
      "longitude": -81.66667
    },
    {
      "elevation": 68,
      "mindate": "1945-01-01",
      "maxdate": "1946-04-30",
      "latitude": 30.18333,
      "name": "LAKE CITY NAS, FL US",
      "datacoverage": 1,
      "id": "GHCND:USW00093838",
      "elevationUnit": "METERS",
      "longitude": -82.56667
    },
    {
      "elevation": 97.5,
      "mindate": "1945-01-01",
      "maxdate": "2010-12-31",
      "latitude": 35.35,
      "name": "MEMPHIS NAS, TN US",
      "datacoverage": 1,
      "id": "GHCND:USW00093839",
      "elevationUnit": "METERS",
      "longitude": -89.86667
    },
    {
      "elevation": 3,
      "mindate": "1945-01-01",
      "maxdate": "1947-04-20",
      "latitude": 31.16667,
      "name": "ST SIMONS ISLAND NAS, GA US",
      "datacoverage": 1,
      "id": "GHCND:USW00093840",
      "elevationUnit": "METERS",
      "longitude": -81.4
    },
    {
      "elevation": 60.7,
      "mindate": "1945-01-01",
      "maxdate": "2025-03-06",
      "latitude": 30.71667,
      "name": "WHITING FIELD NAS, FL US",
      "datacoverage": 1,
      "id": "GHCND:USW00093841",
      "elevationUnit": "METERS",
      "longitude": -87.01667
    },
    {
      "elevation": 120,
      "mindate": "1948-01-01",
      "maxdate": "2025-03-06",
      "latitude": 32.51625,
      "name": "COLUMBUS METROPOLITAN AIRPORT, GA US",
      "datacoverage": 1,
      "id": "GHCND:USW00093842",
      "elevationUnit": "METERS",
      "longitude": -84.94218
    },
    {
      "elevation": 97.8,
      "mindate": "1949-01-01",
      "maxdate": "1969-12-31",
      "latitude": 31.23333,
      "name": "DOTHAN, AL US",
      "datacoverage": 0.6349,
      "id": "GHCND:USW00093843",
      "elevationUnit": "METERS",
      "longitude": -85.43333
    },
    {
      "elevation": 3,
      "mindate": "1945-01-01",
      "maxdate": "1946-02-14",
      "latitude": 32.31667,
      "name": "PARRIS ISLAND MCAS, SC US",
      "datacoverage": 1,
      "id": "GHCND:USW00093844",
      "elevationUnit": "METERS",
      "longitude": -80.68333
    },
    {
      "elevation": 58.7,
      "mindate": "1948-01-01",
      "maxdate": "2025-03-06",
      "latitude": 30.77629,
      "name": "VALDOSTA REGIONAL AIRPORT, GA US",
      "datacoverage": 1,
      "id": "GHCND:USW00093845",
      "elevationUnit": "METERS",
      "longitude": -83.27393
    },
    {
      "elevation": 233.7,
      "mindate": "1948-01-01",
      "maxdate": "2025-03-06",
      "latitude": 34.498,
      "name": "ANDERSON REGIONAL AIRPORT, SC US",
      "datacoverage": 1,
      "id": "GHCND:USW00093846",
      "elevationUnit": "METERS",
      "longitude": -82.70924
    },
    {
      "elevation": 25,
      "mindate": "1871-09-01",
      "maxdate": "1956-05-27",
      "latitude": 30.33333,
      "name": "JACKSONVILLE, FL US",
      "datacoverage": 0.9998,
      "id": "GHCND:USW00093852",
      "elevationUnit": "METERS",
      "longitude": -81.65
    },
    {
      "elevation": 15.8,
      "mindate": "1948-07-01",
      "maxdate": "1963-09-30",
      "latitude": 30.41667,
      "name": "PENSACOLA WEATHER BUREAU CITY, FL US",
      "datacoverage": 1,
      "id": "GHCND:USW00093859",
      "elevationUnit": "METERS",
      "longitude": -87.21667
    },
    {
      "elevation": 86,
      "mindate": "1956-01-01",
      "maxdate": "1964-06-30",
      "latitude": 30.83333,
      "name": "THOMASVILLE, GA US",
      "datacoverage": 1,
      "id": "GHCND:USW00093861",
      "elevationUnit": "METERS",
      "longitude": -83.98333
    },
    {
      "elevation": 103.8,
      "mindate": "1962-01-01",
      "maxdate": "2025-03-07",
      "latitude": 34.26224,
      "name": "TUPELO REGIONAL AIRPORT, MS US",
      "datacoverage": 1,
      "id": "GHCND:USW00093862",
      "elevationUnit": "METERS",
      "longitude": -88.77127
    },
    {
      "elevation": 4.9,
      "mindate": "1998-08-01",
      "maxdate": "2025-03-07",
      "latitude": 30.4121,
      "name": "GULFPORT BILOXI AIRPORT, MS US",
      "datacoverage": 1,
      "id": "GHCND:USW00093874",
      "elevationUnit": "METERS",
      "longitude": -89.08093
    },
    {
      "elevation": 231.6,
      "mindate": "1916-01-01",
      "maxdate": "1982-12-31",
      "latitude": 39.15,
      "name": "CINCINNATI ABBE WEATHER SERVICE OFFICE, OH US",
      "datacoverage": 1,
      "id": "GHCND:USW00093890",
      "elevationUnit": "METERS",
      "longitude": -84.51667
    },
    {
      "elevation": 221,
      "mindate": "1948-01-01",
      "maxdate": "1973-04-30",
      "latitude": 39.96667,
      "name": "COLUMBUS, OH US",
      "datacoverage": 1,
      "id": "GHCND:USW00093891",
      "elevationUnit": "METERS",
      "longitude": -83
    },
    {
      "elevation": 150,
      "mindate": "1945-01-01",
      "maxdate": "2010-12-31",
      "latitude": 32.73333,
      "name": "DALLAS HENSLEY FIELD NAS, TX US",
      "datacoverage": 1,
      "id": "GHCND:USW00093901",
      "elevationUnit": "METERS",
      "longitude": -96.96667
    },
    {
      "elevation": 232,
      "mindate": "1945-01-01",
      "maxdate": "1946-03-31",
      "latitude": 32.98333,
      "name": "FORT WORTH EAGLE MOUNT LK MCAS, TX US",
      "datacoverage": 1,
      "id": "GHCND:USW00093903",
      "elevationUnit": "METERS",
      "longitude": -97.48333
    },
    {
      "elevation": 214.9,
      "mindate": "1945-01-01",
      "maxdate": "2025-03-07",
      "latitude": 32.81667,
      "name": "FORT WORTH MEACHAM FIELD NAAF, TX US",
      "datacoverage": 0.2506,
      "id": "GHCND:USW00093904",
      "elevationUnit": "METERS",
      "longitude": -97.35
    },
    {
      "elevation": 479.1,
      "mindate": "1952-01-01",
      "maxdate": "1958-04-30",
      "latitude": 37.91667,
      "name": "HUTCHINSON NAS, KS US",
      "datacoverage": 1,
      "id": "GHCND:USW00093905",
      "elevationUnit": "METERS",
      "longitude": -97.9
    },
    {
      "elevation": 4,
      "mindate": "1945-01-01",
      "maxdate": "1957-10-31",
      "latitude": 29.82721,
      "name": "NEW ORLEANS NAS, LA US",
      "datacoverage": 0.8813,
      "id": "GHCND:USW00093906",
      "elevationUnit": "METERS",
      "longitude": -90.02658
    },
    {
      "elevation": 74.1,
      "mindate": "1945-03-01",
      "maxdate": "1945-12-05",
      "latitude": 35.63333,
      "name": "NEWPORT MCAF, AR US",
      "datacoverage": 0.9964,
      "id": "GHCND:USW00093907",
      "elevationUnit": "METERS",
      "longitude": -91.18333
    },
    {
      "elevation": 359.1,
      "mindate": "1945-01-01",
      "maxdate": "1946-02-19",
      "latitude": 35.23333,
      "name": "NORMAN NAS, OK US",
      "datacoverage": 1,
      "id": "GHCND:USW00093908",
      "elevationUnit": "METERS",
      "longitude": -97.41667
    },
    {
      "elevation": 321.5,
      "mindate": "1945-01-01",
      "maxdate": "2025-03-06",
      "latitude": 38.8221,
      "name": "OLATHE JOHNSON CO INDUSTRIAL AIRPORT, KS US",
      "datacoverage": 1,
      "id": "GHCND:USW00093909",
      "elevationUnit": "METERS",
      "longitude": -94.89027
    },
    {
      "elevation": 166.1,
      "mindate": "1945-01-01",
      "maxdate": "1946-07-31",
      "latitude": 38.75,
      "name": "ST LOUIS LAMBERT, MO US",
      "datacoverage": 1,
      "id": "GHCND:USW00093910",
      "elevationUnit": "METERS",
      "longitude": -90.38333
    }
  ]
}
