{
  "metadata": {
    "resultset": {
      "offset": 112800,
      "count": 154115,
      "limit": 100
    }
  },
  "results": [
    {
      "elevation": 561.7,
      "mindate": "2010-04-01",
      "maxdate": "2024-12-30",
      "latitude": 44.70865,
      "name": "ONIDA 3.7 W, SD US",
      "datacoverage": 0.611,
      "id": "GHCND:US1SDSL0007",
      "elevationUnit": "METERS",
      "longitude": -100.14202
    },
    {
      "elevation": 577.3,
      "mindate": "2012-04-01",
      "maxdate": "2024-11-10",
      "latitude": 44.839175,
      "name": "AGAR 9.7 W, SD US",
      "datacoverage": 0.6819,
      "id": "GHCND:US1SDSL0008",
      "elevationUnit": "METERS",
      "longitude": -100.2699528
    },
    {
      "elevation": 574.2,
      "mindate": "2012-04-01",
      "maxdate": "2016-08-16",
      "latitude": 44.7511126,
      "name": "ONIDA 3.6 NNW, SD US",
      "datacoverage": 0.5716,
      "id": "GHCND:US1SDSL0009",
      "elevationUnit": "METERS",
      "longitude": -100.098829
    },
    {
      "elevation": 533.1,
      "mindate": "2012-02-01",
      "maxdate": "2025-02-25",
      "latitude": 44.7086684,
      "name": "HARROLD 13.5 NNW, SD US",
      "datacoverage": 0.7804,
      "id": "GHCND:US1SDSL0010",
      "elevationUnit": "METERS",
      "longitude": -99.8285949
    },
    {
      "elevation": 569.1,
      "mindate": "2015-04-09",
      "maxdate": "2020-09-08",
      "latitude": 44.837887,
      "name": "AGAR 0.1 SE, SD US",
      "datacoverage": 0.0934,
      "id": "GHCND:US1SDSL0012",
      "elevationUnit": "METERS",
      "longitude": -100.072007
    },
    {
      "elevation": 539.5,
      "mindate": "2015-04-06",
      "maxdate": "2017-04-20",
      "latitude": 44.621195,
      "name": "ONIDA 6.0 SSE, SD US",
      "datacoverage": 0.1381,
      "id": "GHCND:US1SDSL0015",
      "elevationUnit": "METERS",
      "longitude": -100.034767
    },
    {
      "elevation": 538.9,
      "mindate": "2015-04-19",
      "maxdate": "2024-11-11",
      "latitude": 44.76494,
      "name": "ONIDA 4.9 NNW, SD US",
      "datacoverage": 0.1044,
      "id": "GHCND:US1SDSL0018",
      "elevationUnit": "METERS",
      "longitude": -100.11985
    },
    {
      "elevation": 521.5,
      "mindate": "2015-04-01",
      "maxdate": "2025-01-23",
      "latitude": 44.598109,
      "name": "HARROLD 5.2 N, SD US",
      "datacoverage": 1,
      "id": "GHCND:US1SDSL0019",
      "elevationUnit": "METERS",
      "longitude": -99.732582
    },
    {
      "elevation": 575.5,
      "mindate": "2015-04-19",
      "maxdate": "2021-10-27",
      "latitude": 44.891208,
      "name": "AGAR 3.7 N, SD US",
      "datacoverage": 0.1154,
      "id": "GHCND:US1SDSL0020",
      "elevationUnit": "METERS",
      "longitude": -100.082875
    },
    {
      "elevation": 531.9,
      "mindate": "2015-04-20",
      "maxdate": "2024-12-31",
      "latitude": 44.560049,
      "name": "PIERRE 12.9 N, SD US",
      "datacoverage": 0.1487,
      "id": "GHCND:US1SDSL0021",
      "elevationUnit": "METERS",
      "longitude": -100.3215559
    },
    {
      "elevation": 565.4,
      "mindate": "2015-05-01",
      "maxdate": "2024-11-10",
      "latitude": 44.896725,
      "name": "AGAR 15.1 WNW, SD US",
      "datacoverage": 0.7247,
      "id": "GHCND:US1SDSL0023",
      "elevationUnit": "METERS",
      "longitude": -100.369448
    },
    {
      "elevation": 550.5,
      "mindate": "2014-07-10",
      "maxdate": "2024-11-04",
      "latitude": 44.67811529,
      "name": "ONIDA 12.8 W, SD US",
      "datacoverage": 0.0586,
      "id": "GHCND:US1SDSL0025",
      "elevationUnit": "METERS",
      "longitude": -100.32463538
    },
    {
      "elevation": 524.3,
      "mindate": "2018-09-24",
      "maxdate": "2024-11-04",
      "latitude": 44.674286,
      "name": "HARROLD 11.5 NNW, SD US",
      "datacoverage": 0.1083,
      "id": "GHCND:US1SDSL0027",
      "elevationUnit": "METERS",
      "longitude": -99.836787
    },
    {
      "elevation": 402.9,
      "mindate": "1998-06-01",
      "maxdate": "2025-02-26",
      "latitude": 44.676885,
      "name": "TULARE 4.5 SSW, SD US",
      "datacoverage": 0.8184,
      "id": "GHCND:US1SDSP0001",
      "elevationUnit": "METERS",
      "longitude": -98.534583
    },
    {
      "elevation": 395.3,
      "mindate": "2011-08-01",
      "maxdate": "2013-11-11",
      "latitude": 45.053499,
      "name": "TURTON 11.4 W, SD US",
      "datacoverage": 0.9634,
      "id": "GHCND:US1SDSP0002",
      "elevationUnit": "METERS",
      "longitude": -98.329776
    },
    {
      "elevation": 420.3,
      "mindate": "2012-08-01",
      "maxdate": "2016-09-06",
      "latitude": 44.6820925176144,
      "name": "CARPENTER 7.6 WNW, SD US",
      "datacoverage": 0.6253,
      "id": "GHCND:US1SDSP0004",
      "elevationUnit": "METERS",
      "longitude": -98.0584891140461
    },
    {
      "elevation": 413.9,
      "mindate": "2014-02-01",
      "maxdate": "2014-11-17",
      "latitude": 44.8957231,
      "name": "DOLAND 0.2 ENE, SD US",
      "datacoverage": 1,
      "id": "GHCND:US1SDSP0005",
      "elevationUnit": "METERS",
      "longitude": -98.0953705
    },
    {
      "elevation": 634,
      "mindate": "2007-06-01",
      "maxdate": "2008-09-26",
      "latitude": 44.660414,
      "name": "HAYES 20.8 NW, SD US",
      "datacoverage": 0.8108,
      "id": "GHCND:US1SDST0001",
      "elevationUnit": "METERS",
      "longitude": -101.142968
    },
    {
      "elevation": 607.5,
      "mindate": "2013-05-01",
      "maxdate": "2018-06-08",
      "latitude": 44.302092,
      "name": "FORT PIERRE 26.4 W, SD US",
      "datacoverage": 0.7093,
      "id": "GHCND:US1SDST0003",
      "elevationUnit": "METERS",
      "longitude": -100.90796
    },
    {
      "elevation": 555.7,
      "mindate": "2013-06-01",
      "maxdate": "2024-11-10",
      "latitude": 44.7205,
      "name": "HAYES 24.4 NNW, SD US",
      "datacoverage": 0.6771,
      "id": "GHCND:US1SDST0004",
      "elevationUnit": "METERS",
      "longitude": -101.097182
    },
    {
      "elevation": 435.3,
      "mindate": "2014-04-01",
      "maxdate": "2025-03-07",
      "latitude": 44.357927,
      "name": "FORT PIERRE 0.5 SE, SD US",
      "datacoverage": 0.9993,
      "id": "GHCND:US1SDST0006",
      "elevationUnit": "METERS",
      "longitude": -100.372102
    },
    {
      "mindate": "2017-08-07",
      "maxdate": "2024-11-10",
      "latitude": 44.327036,
      "name": "FORT PIERRE 25.0 W, SD US",
      "datacoverage": 0.1602,
      "id": "GHCND:US1SDST0007",
      "longitude": -100.881834
    },
    {
      "elevation": 801,
      "mindate": "1998-06-17",
      "maxdate": "2025-03-04",
      "latitude": 43.090789,
      "name": "OLSONVILLE 4.5 SE, SD US",
      "datacoverage": 1,
      "id": "GHCND:US1SDTD0001",
      "elevationUnit": "METERS",
      "longitude": -100.53481
    },
    {
      "elevation": 824.2,
      "mindate": "2023-01-03",
      "maxdate": "2025-03-07",
      "latitude": 43.35593,
      "name": "PARMELEE 3.6 NW, SD US",
      "datacoverage": 0.8504,
      "id": "GHCND:US1SDTD0010",
      "elevationUnit": "METERS",
      "longitude": -101.09344
    },
    {
      "elevation": 694,
      "mindate": "2008-04-01",
      "maxdate": "2013-08-14",
      "latitude": 43.31522,
      "name": "WINNER 12.4 WSW, SD US",
      "datacoverage": 0.9947,
      "id": "GHCND:US1SDTP0005",
      "elevationUnit": "METERS",
      "longitude": -100.09135
    },
    {
      "elevation": 556,
      "mindate": "2005-09-16",
      "maxdate": "2025-03-06",
      "latitude": 43.5868,
      "name": "HAMILL 1.7 SW, SD US",
      "datacoverage": 1,
      "id": "GHCND:US1SDTP0007",
      "elevationUnit": "METERS",
      "longitude": -99.711432
    },
    {
      "elevation": 605,
      "mindate": "2012-06-01",
      "maxdate": "2014-12-15",
      "latitude": 43.375278,
      "name": "WINNER 0.1 N, SD US",
      "datacoverage": 0.9995,
      "id": "GHCND:US1SDTP0011",
      "elevationUnit": "METERS",
      "longitude": -99.858553
    },
    {
      "elevation": 677.6,
      "mindate": "2012-08-01",
      "maxdate": "2025-03-07",
      "latitude": 43.059678,
      "name": "DALLAS 13.2 SSW, SD US",
      "datacoverage": 1,
      "id": "GHCND:US1SDTP0013",
      "elevationUnit": "METERS",
      "longitude": -99.612865
    },
    {
      "elevation": 604.1,
      "mindate": "2012-09-01",
      "maxdate": "2019-12-01",
      "latitude": 43.4397295117378,
      "name": "WITTEN 0.1 WSW, SD US",
      "datacoverage": 0.6435,
      "id": "GHCND:US1SDTP0015",
      "elevationUnit": "METERS",
      "longitude": -100.084049776196
    },
    {
      "elevation": 707.7,
      "mindate": "2013-04-01",
      "maxdate": "2016-01-04",
      "latitude": 43.16875,
      "name": "WINNER 14.5 SSW, SD US",
      "datacoverage": 0.4995,
      "id": "GHCND:US1SDTP0018",
      "elevationUnit": "METERS",
      "longitude": -99.91853333
    },
    {
      "elevation": 610.2,
      "mindate": "2014-02-01",
      "maxdate": "2019-10-12",
      "latitude": 43.3712553,
      "name": "WINNER 0.5 WSW, SD US",
      "datacoverage": 0.8476,
      "id": "GHCND:US1SDTP0020",
      "elevationUnit": "METERS",
      "longitude": -99.86892
    },
    {
      "elevation": 616,
      "mindate": "2015-03-01",
      "maxdate": "2019-07-18",
      "latitude": 43.37354,
      "name": "WINNER 1.4 E, SD US",
      "datacoverage": 0.7667,
      "id": "GHCND:US1SDTP0024",
      "elevationUnit": "METERS",
      "longitude": -99.82996
    },
    {
      "elevation": 569.1,
      "mindate": "2015-06-01",
      "maxdate": "2024-06-17",
      "latitude": 43.55740567,
      "name": "IDEAL 1.4 NE, SD US",
      "datacoverage": 0.9997,
      "id": "GHCND:US1SDTP0025",
      "elevationUnit": "METERS",
      "longitude": -99.90123267
    },
    {
      "elevation": 656.2,
      "mindate": "2016-03-30",
      "maxdate": "2024-11-12",
      "latitude": 43.32816,
      "name": "WINNER 6.4 ESE, SD US",
      "datacoverage": 0.0371,
      "id": "GHCND:US1SDTP0026",
      "elevationUnit": "METERS",
      "longitude": -99.74796
    },
    {
      "elevation": 697.7,
      "mindate": "2018-05-03",
      "maxdate": "2024-11-09",
      "latitude": 43.140751,
      "name": "COLOME 9.3 SSW, SD US",
      "datacoverage": 0.133,
      "id": "GHCND:US1SDTP0027",
      "elevationUnit": "METERS",
      "longitude": -99.802036
    },
    {
      "elevation": 588.9,
      "mindate": "2018-05-28",
      "maxdate": "2024-11-09",
      "latitude": 43.518698,
      "name": "WINNER 10.2 NNW, SD US",
      "datacoverage": 0.1077,
      "id": "GHCND:US1SDTP0028",
      "elevationUnit": "METERS",
      "longitude": -99.90077
    },
    {
      "elevation": 715.7,
      "mindate": "2020-08-09",
      "maxdate": "2024-11-10",
      "latitude": 43.22695,
      "name": "COLOME 4.6 WSW, SD US",
      "datacoverage": 0.4375,
      "id": "GHCND:US1SDTP0030",
      "elevationUnit": "METERS",
      "longitude": -99.79475
    },
    {
      "elevation": 548.9,
      "mindate": "2022-09-29",
      "maxdate": "2025-03-03",
      "latitude": 43.4590522,
      "name": "DALLAS 15.5 N, SD US",
      "datacoverage": 0.998,
      "id": "GHCND:US1SDTP0035",
      "elevationUnit": "METERS",
      "longitude": -99.5659705
    },
    {
      "elevation": 541.9,
      "mindate": "2023-05-28",
      "maxdate": "2025-02-28",
      "latitude": 43.6784,
      "name": "HAMILL 5.8 N, SD US",
      "datacoverage": 0.9969,
      "id": "GHCND:US1SDTP0036",
      "elevationUnit": "METERS",
      "longitude": -99.673
    },
    {
      "elevation": 398.1,
      "mindate": "2007-06-01",
      "maxdate": "2009-12-24",
      "latitude": 43.174047,
      "name": "VIBORG 0.2 NNE, SD US",
      "datacoverage": 0.9985,
      "id": "GHCND:US1SDTR0001",
      "elevationUnit": "METERS",
      "longitude": -97.079074
    },
    {
      "elevation": 459,
      "mindate": "2007-06-01",
      "maxdate": "2025-03-05",
      "latitude": 43.353784,
      "name": "PARKER 6.8 WSW, SD US",
      "datacoverage": 0.9819,
      "id": "GHCND:US1SDTR0002",
      "elevationUnit": "METERS",
      "longitude": -97.260732
    },
    {
      "elevation": 440.1,
      "mindate": "2007-07-01",
      "maxdate": "2017-10-29",
      "latitude": 43.428167,
      "name": "MARION 0.5 NE, SD US",
      "datacoverage": 0.9997,
      "id": "GHCND:US1SDTR0003",
      "elevationUnit": "METERS",
      "longitude": -97.2533
    },
    {
      "elevation": 424.9,
      "mindate": "2011-09-01",
      "maxdate": "2012-10-24",
      "latitude": 43.391851,
      "name": "CHANCELLOR 1.8 NE, SD US",
      "datacoverage": 0.7128,
      "id": "GHCND:US1SDTR0008",
      "elevationUnit": "METERS",
      "longitude": -96.964256
    },
    {
      "elevation": 393.2,
      "mindate": "2012-09-01",
      "maxdate": "2025-03-07",
      "latitude": 43.277226537466,
      "name": "HURLEY 0.2 S, SD US",
      "datacoverage": 1,
      "id": "GHCND:US1SDTR0009",
      "elevationUnit": "METERS",
      "longitude": -97.089609503746
    },
    {
      "elevation": 374.6,
      "mindate": "2014-08-01",
      "maxdate": "2016-10-07",
      "latitude": 43.1161565333605,
      "name": "CENTERVILLE 0.1 S, SD US",
      "datacoverage": 0.9819,
      "id": "GHCND:US1SDTR0011",
      "elevationUnit": "METERS",
      "longitude": -96.9589550793171
    },
    {
      "elevation": 443.8,
      "mindate": "2019-07-20",
      "maxdate": "2024-12-31",
      "latitude": 43.4885,
      "name": "MARION 4.8 NNW, SD US",
      "datacoverage": 0.1742,
      "id": "GHCND:US1SDTR0014",
      "elevationUnit": "METERS",
      "longitude": -97.2934
    },
    {
      "elevation": 396.8,
      "mindate": "2007-06-01",
      "maxdate": "2025-03-07",
      "latitude": 42.814802,
      "name": "ELK POINT 9.5 NNE, SD US",
      "datacoverage": 0.8614,
      "id": "GHCND:US1SDUN0001",
      "elevationUnit": "METERS",
      "longitude": -96.625973
    },
    {
      "elevation": 343.5,
      "mindate": "2007-07-01",
      "maxdate": "2022-12-30",
      "latitude": 42.76126,
      "name": "ELK POINT 5.6 NNE, SD US",
      "datacoverage": 0.9997,
      "id": "GHCND:US1SDUN0002",
      "elevationUnit": "METERS",
      "longitude": -96.653165
    },
    {
      "elevation": 459.9,
      "mindate": "2010-10-01",
      "maxdate": "2024-10-30",
      "latitude": 43.079563,
      "name": "BERESFORD 0.2 E, SD US",
      "datacoverage": 0.4545,
      "id": "GHCND:US1SDUN0005",
      "elevationUnit": "METERS",
      "longitude": -96.777064
    },
    {
      "elevation": 347.5,
      "mindate": "2011-08-01",
      "maxdate": "2013-06-15",
      "latitude": 42.762426,
      "name": "ELK POINT 5.6 N, SD US",
      "datacoverage": 1,
      "id": "GHCND:US1SDUN0010",
      "elevationUnit": "METERS",
      "longitude": -96.697493
    },
    {
      "elevation": 340.5,
      "mindate": "2017-10-01",
      "maxdate": "2025-03-06",
      "latitude": 42.6202,
      "name": "JEFFERSON 2.1 WNW, SD US",
      "datacoverage": 0.7749,
      "id": "GHCND:US1SDUN0011",
      "elevationUnit": "METERS",
      "longitude": -96.59683
    },
    {
      "elevation": 339.5,
      "mindate": "2020-05-15",
      "maxdate": "2025-03-07",
      "latitude": 42.604826,
      "name": "JEFFERSON 1.1 E, SD US",
      "datacoverage": 0.521,
      "id": "GHCND:US1SDUN0012",
      "elevationUnit": "METERS",
      "longitude": -96.540312
    },
    {
      "elevation": 342,
      "mindate": "2020-05-19",
      "maxdate": "2024-11-19",
      "latitude": 42.577723902,
      "name": "JEFFERSON 2.9 SW, SD US",
      "datacoverage": 0.998,
      "id": "GHCND:US1SDUN0013",
      "elevationUnit": "METERS",
      "longitude": -96.606502505
    },
    {
      "elevation": 339.2,
      "mindate": "2020-06-19",
      "maxdate": "2024-09-24",
      "latitude": 42.53285,
      "name": "JEFFERSON 4.9 S, SD US",
      "datacoverage": 0.0815,
      "id": "GHCND:US1SDUN0014",
      "elevationUnit": "METERS",
      "longitude": -96.56882
    },
    {
      "elevation": 344.1,
      "mindate": "2023-10-09",
      "maxdate": "2025-03-03",
      "latitude": 42.68146,
      "name": "ELK POINT 0.3 WSW, SD US",
      "datacoverage": 0.7734,
      "id": "GHCND:US1SDUN0016",
      "elevationUnit": "METERS",
      "longitude": -96.68602
    },
    {
      "elevation": 570,
      "mindate": "2007-06-01",
      "maxdate": "2024-09-15",
      "latitude": 45.277056,
      "name": "HOVEN 2.4 N, SD US",
      "datacoverage": 0.6697,
      "id": "GHCND:US1SDWL0002",
      "elevationUnit": "METERS",
      "longitude": -99.774367
    },
    {
      "elevation": 574.9,
      "mindate": "2007-06-01",
      "maxdate": "2023-10-26",
      "latitude": 45.321238,
      "name": "LOWRY 1.1 WNW, SD US",
      "datacoverage": 0.6791,
      "id": "GHCND:US1SDWL0003",
      "elevationUnit": "METERS",
      "longitude": -100.002273
    },
    {
      "elevation": 546.8,
      "mindate": "2013-05-01",
      "maxdate": "2018-11-05",
      "latitude": 45.5218525975943,
      "name": "SELBY 4.9 WNW, SD US",
      "datacoverage": 0.9956,
      "id": "GHCND:US1SDWL0006",
      "elevationUnit": "METERS",
      "longitude": -100.129954442382
    },
    {
      "elevation": 594.1,
      "mindate": "2014-03-01",
      "maxdate": "2015-09-18",
      "latitude": 45.54359190166,
      "name": "JAVA 3.1 NNW, SD US",
      "datacoverage": 0.736,
      "id": "GHCND:US1SDWL0008",
      "elevationUnit": "METERS",
      "longitude": -99.9148359149694
    },
    {
      "elevation": 510.5,
      "mindate": "2020-03-20",
      "maxdate": "2025-03-06",
      "latitude": 45.541276,
      "name": "MOBRIDGE 0.3 W, SD US",
      "datacoverage": 0.31,
      "id": "GHCND:US1SDWL0012",
      "elevationUnit": "METERS",
      "longitude": -100.442867
    },
    {
      "elevation": 545.9,
      "mindate": "2023-04-18",
      "maxdate": "2024-08-24",
      "latitude": 45.539737,
      "name": "SELBY 5.8 WNW, SD US",
      "datacoverage": 1,
      "id": "GHCND:US1SDWL0013",
      "elevationUnit": "METERS",
      "longitude": -100.140374
    },
    {
      "elevation": 352,
      "mindate": "2007-06-01",
      "maxdate": "2020-01-16",
      "latitude": 42.86301,
      "name": "GAYVILLE 1.8 SSW, SD US",
      "datacoverage": 0.9998,
      "id": "GHCND:US1SDYN0003",
      "elevationUnit": "METERS",
      "longitude": -97.180393
    },
    {
      "elevation": 469.7,
      "mindate": "2011-06-01",
      "maxdate": "2020-03-29",
      "latitude": 42.8958115,
      "name": "TABOR 3.8 SSE, SD US",
      "datacoverage": 0.685,
      "id": "GHCND:US1SDYN0005",
      "elevationUnit": "METERS",
      "longitude": -97.63511
    },
    {
      "elevation": 355.7,
      "mindate": "2011-10-01",
      "maxdate": "2019-04-25",
      "latitude": 42.895815,
      "name": "GAYVILLE 2.0 WNW, SD US",
      "datacoverage": 0.7961,
      "id": "GHCND:US1SDYN0008",
      "elevationUnit": "METERS",
      "longitude": -97.210457
    },
    {
      "elevation": 356.3,
      "mindate": "2012-04-01",
      "maxdate": "2024-11-20",
      "latitude": 42.876707,
      "name": "YANKTON 2.8 ESE, SD US",
      "datacoverage": 0.9925,
      "id": "GHCND:US1SDYN0009",
      "elevationUnit": "METERS",
      "longitude": -97.339942
    },
    {
      "elevation": 385.6,
      "mindate": "1998-06-01",
      "maxdate": "2024-12-08",
      "latitude": 42.910411,
      "name": "YANKTON 1.7 NNE, SD US",
      "datacoverage": 0.171,
      "id": "GHCND:US1SDYN0011",
      "elevationUnit": "METERS",
      "longitude": -97.374093
    },
    {
      "elevation": 404.2,
      "mindate": "2013-06-01",
      "maxdate": "2017-08-20",
      "latitude": 42.8728955984116,
      "name": "YANKTON 6.2 W, SD US",
      "datacoverage": 0.998,
      "id": "GHCND:US1SDYN0015",
      "elevationUnit": "METERS",
      "longitude": -97.5127380341291
    },
    {
      "elevation": 357.8,
      "mindate": "2013-07-28",
      "maxdate": "2024-11-19",
      "latitude": 42.8493,
      "name": "YANKTON 4.1 SW, SD US",
      "datacoverage": 0.0714,
      "id": "GHCND:US1SDYN0017",
      "elevationUnit": "METERS",
      "longitude": -97.4519
    },
    {
      "elevation": 384.4,
      "mindate": "2022-03-30",
      "maxdate": "2025-03-07",
      "latitude": 42.891686,
      "name": "YANKTON 0.3 ENE, SD US",
      "datacoverage": 0.7477,
      "id": "GHCND:US1SDYN0023",
      "elevationUnit": "METERS",
      "longitude": -97.387399
    },
    {
      "elevation": 467,
      "mindate": "2022-05-08",
      "maxdate": "2025-03-07",
      "latitude": 42.89047,
      "name": "YANKTON 8.1 W, SD US",
      "datacoverage": 0.4841,
      "id": "GHCND:US1SDYN0024",
      "elevationUnit": "METERS",
      "longitude": -97.55239
    },
    {
      "elevation": 456,
      "mindate": "2023-08-01",
      "maxdate": "2025-03-04",
      "latitude": 42.88982,
      "name": "YANKTON 9.1 W, SD US",
      "datacoverage": 0.7485,
      "id": "GHCND:US1SDYN0026",
      "elevationUnit": "METERS",
      "longitude": -97.57153
    },
    {
      "elevation": 459.6,
      "mindate": "2024-04-28",
      "maxdate": "2025-01-13",
      "latitude": 42.892267,
      "name": "YANKTON 7.0 W, SD US",
      "datacoverage": 0.8534,
      "id": "GHCND:US1SDYN0027",
      "elevationUnit": "METERS",
      "longitude": -97.529543
    },
    {
      "elevation": 761.7,
      "mindate": "2018-05-18",
      "maxdate": "2023-08-09",
      "latitude": 45.116735,
      "name": "DUPREE 4.9 NNW, SD US",
      "datacoverage": 0.078,
      "id": "GHCND:US1SDZB0014",
      "elevationUnit": "METERS",
      "longitude": -101.630146
    },
    {
      "mindate": "2017-09-15",
      "maxdate": "2025-02-15",
      "latitude": 40.39710786,
      "name": "DE WITT 3.69 W, NE US",
      "datacoverage": 0.9986,
      "id": "GHCND:US1Sali1944",
      "longitude": -96.99213266
    },
    {
      "mindate": "2018-05-11",
      "maxdate": "2025-01-31",
      "latitude": 40.39361857,
      "name": "WESTERN 0.57 W, NE US",
      "datacoverage": 0.1159,
      "id": "GHCND:US1Sali2990",
      "longitude": -97.20923663
    },
    {
      "mindate": "2019-06-04",
      "maxdate": "2021-09-10",
      "latitude": 41.12735424,
      "name": "GRETNA 0.5 SSW, NE US",
      "datacoverage": 0.998,
      "id": "GHCND:US1Sarp4145",
      "longitude": -96.2482817
    },
    {
      "mindate": "2017-10-01",
      "maxdate": "2024-09-22",
      "latitude": 41.23520853,
      "name": "WAHOO 1.75 NW, NE US",
      "datacoverage": 0.1632,
      "id": "GHCND:US1Saun2961",
      "longitude": -96.63729585
    },
    {
      "mindate": "2019-05-14",
      "maxdate": "2023-10-26",
      "latitude": 41.2308757,
      "name": "WAHOO 1.28 NE, NE US",
      "datacoverage": 0.9819,
      "id": "GHCND:US1Saun4128",
      "longitude": -96.60345967
    },
    {
      "mindate": "2019-05-21",
      "maxdate": "2024-05-21",
      "latitude": 41.21819763,
      "name": "WAHOO 0.22 NNE, NE US",
      "datacoverage": 0.0585,
      "id": "GHCND:US1Saun4133",
      "longitude": -96.61547878
    },
    {
      "mindate": "2019-06-27",
      "maxdate": "2025-03-06",
      "latitude": 41.4074113,
      "name": "CEDAR BLUFFS 3.93 W, NE US",
      "datacoverage": 0.7817,
      "id": "GHCND:US1Saun4176",
      "longitude": -96.68409385
    },
    {
      "mindate": "2021-09-21",
      "maxdate": "2025-03-07",
      "latitude": 41.37284783,
      "name": "MORSE BLUFF 4.72 SE, NE US",
      "datacoverage": 0.9991,
      "id": "GHCND:US1Saun4401",
      "longitude": -96.7187351
    },
    {
      "mindate": "2017-09-01",
      "maxdate": "2019-07-08",
      "latitude": 41.81701567,
      "name": "BAYARD 5 NW, NE US",
      "datacoverage": 0.4408,
      "id": "GHCND:US1Scot1902",
      "longitude": -103.39137165
    },
    {
      "mindate": "2022-01-01",
      "maxdate": "2025-03-07",
      "latitude": 40.8787054,
      "name": "GARLAND 4.56 S, NE US",
      "datacoverage": 1,
      "id": "GHCND:US1Sewa4415",
      "longitude": -96.99119261
    },
    {
      "mindate": "2017-04-23",
      "maxdate": "2018-06-18",
      "latitude": 42.6058877,
      "name": "RUSHVILLE 8.53 SW, NE US",
      "datacoverage": 0.998,
      "id": "GHCND:US1Sher1827",
      "longitude": -102.5489939
    },
    {
      "mindate": "2021-06-30",
      "maxdate": "2024-11-09",
      "latitude": 42.72808418,
      "name": "HAY SPRINGS 3.92 NE, NE US",
      "datacoverage": 0.4483,
      "id": "GHCND:US1Sher4361",
      "longitude": -102.6424256
    },
    {
      "mindate": "2022-08-15",
      "maxdate": "2024-09-08",
      "latitude": 42.34596151,
      "name": "RUSHVILLE 29.69 SE, NE US",
      "datacoverage": 1,
      "id": "GHCND:US1Sher5479",
      "longitude": -102.16481374
    },
    {
      "mindate": "2017-05-16",
      "maxdate": "2025-03-05",
      "latitude": 42.041849,
      "name": "STANTON 6.59 N, NE US",
      "datacoverage": 0.5791,
      "id": "GHCND:US1Stan1821",
      "longitude": -97.200266
    },
    {
      "mindate": "2019-03-30",
      "maxdate": "2025-03-06",
      "latitude": 41.95301777,
      "name": "13TH STREET STANTON NE, NE US",
      "datacoverage": 0.9991,
      "id": "GHCND:US1Stan4115",
      "longitude": -97.22789464
    },
    {
      "elevation": 270.1,
      "mindate": "2007-05-01",
      "maxdate": "2025-03-07",
      "latitude": 36.019079,
      "name": "OAK RIDGE 5.7 NE, TN US",
      "datacoverage": 0.9996,
      "id": "GHCND:US1TNAN0003",
      "elevationUnit": "METERS",
      "longitude": -84.221136
    },
    {
      "elevation": 360,
      "mindate": "2007-04-01",
      "maxdate": "2009-07-07",
      "latitude": 36.0083,
      "name": "OAK RIDGE 3.3 NNW, TN US",
      "datacoverage": 0.9991,
      "id": "GHCND:US1TNAN0004",
      "elevationUnit": "METERS",
      "longitude": -84.3112
    },
    {
      "elevation": 274.3,
      "mindate": "2007-04-01",
      "maxdate": "2016-11-12",
      "latitude": 36.0312,
      "name": "CLINTON 4.3 SSW, TN US",
      "datacoverage": 0.6088,
      "id": "GHCND:US1TNAN0006",
      "elevationUnit": "METERS",
      "longitude": -84.15
    },
    {
      "elevation": 353,
      "mindate": "2007-09-01",
      "maxdate": "2025-03-07",
      "latitude": 36.1997,
      "name": "NORRIS 0.6 NW, TN US",
      "datacoverage": 1,
      "id": "GHCND:US1TNAN0008",
      "elevationUnit": "METERS",
      "longitude": -84.0765
    },
    {
      "elevation": 260.3,
      "mindate": "2009-07-01",
      "maxdate": "2021-08-30",
      "latitude": 36.021157,
      "name": "OAK RIDGE 5.7 NE, TN US",
      "datacoverage": 0.9998,
      "id": "GHCND:US1TNAN0009",
      "elevationUnit": "METERS",
      "longitude": -84.223414
    },
    {
      "elevation": 327.1,
      "mindate": "2010-08-01",
      "maxdate": "2011-10-05",
      "latitude": 36.046201,
      "name": "OAK RIDGE 6.9 NNE, TN US",
      "datacoverage": 0.7992,
      "id": "GHCND:US1TNAN0010",
      "elevationUnit": "METERS",
      "longitude": -84.229841
    },
    {
      "elevation": 249,
      "mindate": "2012-10-01",
      "maxdate": "2025-02-28",
      "latitude": 36.019905090332,
      "name": "CLINTON 4.9 S, TN US",
      "datacoverage": 0.9288,
      "id": "GHCND:US1TNAN0012",
      "elevationUnit": "METERS",
      "longitude": -84.1255340576172
    },
    {
      "elevation": 263,
      "mindate": "2018-05-13",
      "maxdate": "2021-09-08",
      "latitude": 36.018248,
      "name": "OAK RIDGE 5.4 NE, TN US",
      "datacoverage": 0.9986,
      "id": "GHCND:US1TNAN0013",
      "elevationUnit": "METERS",
      "longitude": -84.227999
    },
    {
      "elevation": 269.4,
      "mindate": "2019-05-01",
      "maxdate": "2025-03-06",
      "latitude": 36.02462,
      "name": "OAK RIDGE 8.1 ENE, TN US",
      "datacoverage": 0.9993,
      "id": "GHCND:US1TNAN0014",
      "elevationUnit": "METERS",
      "longitude": -84.17415
    },
    {
      "elevation": 341.4,
      "mindate": "2020-11-16",
      "maxdate": "2023-12-29",
      "latitude": 36.0027,
      "name": "OAK RIDGE 3.1 NNW, TN US",
      "datacoverage": 1,
      "id": "GHCND:US1TNAN0016",
      "elevationUnit": "METERS",
      "longitude": -84.3221
    },
    {
      "elevation": 331.3,
      "mindate": "2020-11-25",
      "maxdate": "2021-09-03",
      "latitude": 36.00596,
      "name": "OAK RIDGE 3.1 NNW, TN US",
      "datacoverage": 0.9998,
      "id": "GHCND:US1TNAN0017",
      "elevationUnit": "METERS",
      "longitude": -84.30712
    },
    {
      "elevation": 238,
      "mindate": "2007-04-01",
      "maxdate": "2014-01-01",
      "latitude": 35.57,
      "name": "SHELBYVILLE 5.5 N, TN US",
      "datacoverage": 0.9986,
      "id": "GHCND:US1TNBF0001",
      "elevationUnit": "METERS",
      "longitude": -86.46
    }
  ]
}
