{
  "metadata": {
    "resultset": {
      "offset": 65300,
      "count": 154115,
      "limit": 100
    }
  },
  "results": [
    {
      "elevation": 2582.9,
      "mindate": "1974-06-13",
      "maxdate": "2011-09-30",
      "latitude": 19.4167,
      "name": "TROJES, MX",
      "datacoverage": 0.9601,
      "id": "GHCND:MXN00015201",
      "elevationUnit": "METERS",
      "longitude": -99.6
    },
    {
      "elevation": 2629.8,
      "mindate": "1975-06-10",
      "maxdate": "2012-06-29",
      "latitude": 19.3333,
      "name": "CALIXTLAHUACA, MX",
      "datacoverage": 0.9447,
      "id": "GHCND:MXN00015203",
      "elevationUnit": "METERS",
      "longitude": -99.6833
    },
    {
      "elevation": 2619.8,
      "mindate": "1976-02-01",
      "maxdate": "2012-06-29",
      "latitude": 19.35,
      "name": "PRESA DOLORES, MX",
      "datacoverage": 0.7528,
      "id": "GHCND:MXN00015205",
      "elevationUnit": "METERS",
      "longitude": -99.9333
    },
    {
      "elevation": 2721.9,
      "mindate": "1976-02-01",
      "maxdate": "1986-08-21",
      "latitude": 19.7833,
      "name": "EL GUARDA, MX",
      "datacoverage": 0.7152,
      "id": "GHCND:MXN00015206",
      "elevationUnit": "METERS",
      "longitude": -100.0833
    },
    {
      "elevation": 2801.7,
      "mindate": "1976-01-16",
      "maxdate": "1985-08-31",
      "latitude": 19.2667,
      "name": "EL MOLINO II, MX",
      "datacoverage": 0.7495,
      "id": "GHCND:MXN00015207",
      "elevationUnit": "METERS",
      "longitude": -99.75
    },
    {
      "elevation": 2537.8,
      "mindate": "1976-02-01",
      "maxdate": "1987-02-28",
      "latitude": 19.7,
      "name": "POZO CUATRO, MX",
      "datacoverage": 0.9994,
      "id": "GHCND:MXN00015208",
      "elevationUnit": "METERS",
      "longitude": -99.8167
    },
    {
      "elevation": 2573.7,
      "mindate": "1975-11-01",
      "maxdate": "1990-09-30",
      "latitude": 19.4167,
      "name": "PRESA SAN JOAQUIN, MX",
      "datacoverage": 0.9888,
      "id": "GHCND:MXN00015209",
      "elevationUnit": "METERS",
      "longitude": -99.2333
    },
    {
      "elevation": 2749.9,
      "mindate": "1976-01-01",
      "maxdate": "2012-12-31",
      "latitude": 19.5167,
      "name": "SAN JUAN TOTOLAPAN, MX",
      "datacoverage": 0.7416,
      "id": "GHCND:MXN00015210",
      "elevationUnit": "METERS",
      "longitude": -98.7167
    },
    {
      "elevation": 2694.7,
      "mindate": "1976-02-01",
      "maxdate": "2008-03-30",
      "latitude": 19.2667,
      "name": "NUEVA OXTOTITLAN, MX",
      "datacoverage": 0.5415,
      "id": "GHCND:MXN00015211",
      "elevationUnit": "METERS",
      "longitude": -99.6833
    },
    {
      "elevation": 1535,
      "mindate": "1976-09-01",
      "maxdate": "1984-12-31",
      "latitude": 18.8667,
      "name": "EL CIRUELO, MX",
      "datacoverage": 0.9599,
      "id": "GHCND:MXN00015212",
      "elevationUnit": "METERS",
      "longitude": -100.1667
    },
    {
      "elevation": 1779.7,
      "mindate": "1976-09-01",
      "maxdate": "1989-03-30",
      "latitude": 18.85,
      "name": "IXTAPAN DE LA PANOCHA, MX",
      "datacoverage": 0.8744,
      "id": "GHCND:MXN00015214",
      "elevationUnit": "METERS",
      "longitude": -100.1
    },
    {
      "elevation": 2490.8,
      "mindate": "1976-08-10",
      "maxdate": "1990-04-30",
      "latitude": 19.7667,
      "name": "NOPALTEPEC, MX",
      "datacoverage": 0.9943,
      "id": "GHCND:MXN00015216",
      "elevationUnit": "METERS",
      "longitude": -98.7
    },
    {
      "elevation": 2604.8,
      "mindate": "1975-09-01",
      "maxdate": "2009-05-31",
      "latitude": 20.1333,
      "name": "SAN JUAN ACAZUCHITLAN, MX",
      "datacoverage": 0.9358,
      "id": "GHCND:MXN00015217",
      "elevationUnit": "METERS",
      "longitude": -99.6
    },
    {
      "elevation": 645,
      "mindate": "1976-09-01",
      "maxdate": "1994-06-30",
      "latitude": 18.5667,
      "name": "SAN PEDRO LIMON, MX",
      "datacoverage": 0.7338,
      "id": "GHCND:MXN00015218",
      "elevationUnit": "METERS",
      "longitude": -100.3
    },
    {
      "elevation": 1877.9,
      "mindate": "1975-04-01",
      "maxdate": "1989-12-31",
      "latitude": 19.1,
      "name": "PRESA PINZANES CFE, MX",
      "datacoverage": 0.9605,
      "id": "GHCND:MXN00015219",
      "elevationUnit": "METERS",
      "longitude": -100.3667
    },
    {
      "elevation": 2939.8,
      "mindate": "1977-02-01",
      "maxdate": "1987-12-31",
      "latitude": 19.15,
      "name": "COAXAPA, MX",
      "datacoverage": 0.8018,
      "id": "GHCND:MXN00015222",
      "elevationUnit": "METERS",
      "longitude": -99.3833
    },
    {
      "elevation": 1503.9,
      "mindate": "1976-12-19",
      "maxdate": "2011-07-31",
      "latitude": 18.9,
      "name": "PUENTE CAPORAL, MX",
      "datacoverage": 0.7482,
      "id": "GHCND:MXN00015223",
      "elevationUnit": "METERS",
      "longitude": -99.45
    },
    {
      "elevation": 2500,
      "mindate": "1976-08-19",
      "maxdate": "2012-03-31",
      "latitude": 19.95,
      "name": "JILOTEPEC, MX",
      "datacoverage": 0.8712,
      "id": "GHCND:MXN00015225",
      "elevationUnit": "METERS",
      "longitude": -99.5167
    },
    {
      "elevation": 2694.7,
      "mindate": "1977-10-01",
      "maxdate": "1987-01-31",
      "latitude": 19.65,
      "name": "CONCEPCION DEL MONTE, MX",
      "datacoverage": 0.9786,
      "id": "GHCND:MXN00015227",
      "elevationUnit": "METERS",
      "longitude": -100.1333
    },
    {
      "elevation": 2779.8,
      "mindate": "1977-09-25",
      "maxdate": "1987-03-31",
      "latitude": 19.0833,
      "name": "LA LAGUNILLA, MX",
      "datacoverage": 0.9226,
      "id": "GHCND:MXN00015228",
      "elevationUnit": "METERS",
      "longitude": -99.4
    },
    {
      "elevation": 3431.7,
      "mindate": "1977-10-01",
      "maxdate": "2012-03-31",
      "latitude": 19.1667,
      "name": "LOMA ALTA, MX",
      "datacoverage": 0.4301,
      "id": "GHCND:MXN00015229",
      "elevationUnit": "METERS",
      "longitude": -99.8
    },
    {
      "elevation": 3079.7,
      "mindate": "1977-10-22",
      "maxdate": "1987-01-31",
      "latitude": 19.65,
      "name": "PALO AMARILLO, MX",
      "datacoverage": 0.9729,
      "id": "GHCND:MXN00015230",
      "elevationUnit": "METERS",
      "longitude": -100.2167
    },
    {
      "elevation": 3289.7,
      "mindate": "1977-09-01",
      "maxdate": "2012-12-31",
      "latitude": 19.5167,
      "name": "PRESA ITURBIDE, MX",
      "datacoverage": 0.9457,
      "id": "GHCND:MXN00015231",
      "elevationUnit": "METERS",
      "longitude": -99.45
    },
    {
      "elevation": 2749.9,
      "mindate": "1977-07-08",
      "maxdate": "1994-02-28",
      "latitude": 19.1,
      "name": "SAN BARTOLO DEL PROGRESO, MX",
      "datacoverage": 0.7827,
      "id": "GHCND:MXN00015232",
      "elevationUnit": "METERS",
      "longitude": -99.4
    },
    {
      "elevation": 2909.9,
      "mindate": "1977-10-07",
      "maxdate": "2008-12-31",
      "latitude": 19.5833,
      "name": "SAN NICOLAS MAVATI, MX",
      "datacoverage": 0.869,
      "id": "GHCND:MXN00015233",
      "elevationUnit": "METERS",
      "longitude": -99.9333
    },
    {
      "elevation": 1736.8,
      "mindate": "1977-10-01",
      "maxdate": "1985-05-31",
      "latitude": 18.7167,
      "name": "SAN MIGUEL TOTOLMOLOYA, MX",
      "datacoverage": 0.8375,
      "id": "GHCND:MXN00015235",
      "elevationUnit": "METERS",
      "longitude": -99.9333
    },
    {
      "elevation": 2705.7,
      "mindate": "1977-11-10",
      "maxdate": "2011-09-30",
      "latitude": 19.4833,
      "name": "OCOYOTEPEC, MX",
      "datacoverage": 0.7937,
      "id": "GHCND:MXN00015236",
      "elevationUnit": "METERS",
      "longitude": -99.8333
    },
    {
      "elevation": 2319.8,
      "mindate": "1977-11-16",
      "maxdate": "1988-11-30",
      "latitude": 19.05,
      "name": "TEQUESQUIPAN, MX",
      "datacoverage": 0.813,
      "id": "GHCND:MXN00015237",
      "elevationUnit": "METERS",
      "longitude": -99.9333
    },
    {
      "elevation": 2617.9,
      "mindate": "1978-10-01",
      "maxdate": "2011-08-31",
      "latitude": 19.5,
      "name": "SANTA MARIA DEL LLANO, MX",
      "datacoverage": 0.9544,
      "id": "GHCND:MXN00015238",
      "elevationUnit": "METERS",
      "longitude": -99.7167
    },
    {
      "elevation": 2831,
      "mindate": "1976-12-01",
      "maxdate": "2008-11-30",
      "latitude": 19.75,
      "name": "SAN ANTONIO TROJES, MX",
      "datacoverage": 0.7403,
      "id": "GHCND:MXN00015239",
      "elevationUnit": "METERS",
      "longitude": -99.6333
    },
    {
      "elevation": 2746.9,
      "mindate": "1978-01-07",
      "maxdate": "2008-12-31",
      "latitude": 19.1167,
      "name": "SAN FRANCISCO PUTLA, MX",
      "datacoverage": 0.8071,
      "id": "GHCND:MXN00015240",
      "elevationUnit": "METERS",
      "longitude": -99.6167
    },
    {
      "elevation": 1722.7,
      "mindate": "1978-12-01",
      "maxdate": "2011-06-30",
      "latitude": 19.0333,
      "name": "SAN PEDRO TENAYAC, MX",
      "datacoverage": 0.8089,
      "id": "GHCND:MXN00015241",
      "elevationUnit": "METERS",
      "longitude": -100.1667
    },
    {
      "elevation": 2970,
      "mindate": "1977-12-01",
      "maxdate": "1992-12-31",
      "latitude": 19.2333,
      "name": "SAN PEDRO ATLAPULCO, MX",
      "datacoverage": 0.9517,
      "id": "GHCND:MXN00015242",
      "elevationUnit": "METERS",
      "longitude": -99.3833
    },
    {
      "elevation": 2443.9,
      "mindate": "1978-09-01",
      "maxdate": "2000-12-31",
      "latitude": 19.9,
      "name": "PRESA JUANACATLAN, MX",
      "datacoverage": 0.8527,
      "id": "GHCND:MXN00015243",
      "elevationUnit": "METERS",
      "longitude": -100.0667
    },
    {
      "elevation": 2839.8,
      "mindate": "1978-01-01",
      "maxdate": "2008-12-31",
      "latitude": 20.0167,
      "name": "MUYTEJE, MX",
      "datacoverage": 0.8141,
      "id": "GHCND:MXN00015244",
      "elevationUnit": "METERS",
      "longitude": -99.9167
    },
    {
      "elevation": 2619.8,
      "mindate": "1977-09-23",
      "maxdate": "2008-12-31",
      "latitude": 19.7833,
      "name": "LA JORDANA, MX",
      "datacoverage": 0.9615,
      "id": "GHCND:MXN00015245",
      "elevationUnit": "METERS",
      "longitude": -99.9833
    },
    {
      "elevation": 2749.9,
      "mindate": "1978-01-01",
      "maxdate": "1985-12-31",
      "latitude": 19.5333,
      "name": "JILOTZINGO, MX",
      "datacoverage": 0.9535,
      "id": "GHCND:MXN00015246",
      "elevationUnit": "METERS",
      "longitude": -99.3833
    },
    {
      "elevation": 2609.7,
      "mindate": "1977-10-15",
      "maxdate": "1990-07-31",
      "latitude": 19.6333,
      "name": "LA CIENEGA, MX",
      "datacoverage": 0.8789,
      "id": "GHCND:MXN00015247",
      "elevationUnit": "METERS",
      "longitude": -100.0333
    },
    {
      "elevation": 1583.7,
      "mindate": "1978-07-22",
      "maxdate": "2012-12-30",
      "latitude": 18.75,
      "name": "COATEPEQUITO, MX",
      "datacoverage": 0.9612,
      "id": "GHCND:MXN00015248",
      "elevationUnit": "METERS",
      "longitude": -99.6167
    },
    {
      "elevation": 2573.7,
      "mindate": "1978-01-01",
      "maxdate": "2008-12-31",
      "latitude": 19.7833,
      "name": "ATLACOMULCO II DGE, MX",
      "datacoverage": 0.9475,
      "id": "GHCND:MXN00015251",
      "elevationUnit": "METERS",
      "longitude": -99.8667
    },
    {
      "elevation": 2349.7,
      "mindate": "1978-07-01",
      "maxdate": "2012-12-31",
      "latitude": 19.0167,
      "name": "ATLAUTLA E 9, MX",
      "datacoverage": 0.6021,
      "id": "GHCND:MXN00015252",
      "elevationUnit": "METERS",
      "longitude": -98.7667
    },
    {
      "elevation": 1980,
      "mindate": "1970-01-01",
      "maxdate": "2000-03-31",
      "latitude": 18.85,
      "name": "ALMOLOYA DE ALQUISIRAS E 14, MX",
      "datacoverage": 0.5444,
      "id": "GHCND:MXN00015253",
      "elevationUnit": "METERS",
      "longitude": -99.8833
    },
    {
      "elevation": 2500,
      "mindate": "1978-05-01",
      "maxdate": "2011-09-30",
      "latitude": 18.9833,
      "name": "EL MOLINO E 16, MX",
      "datacoverage": 0.9146,
      "id": "GHCND:MXN00015254",
      "elevationUnit": "METERS",
      "longitude": -99.75
    },
    {
      "elevation": 2248.8,
      "mindate": "1978-07-01",
      "maxdate": "2011-09-29",
      "latitude": 18.9167,
      "name": "IXTLAHUACA VILLADA E 30, MX",
      "datacoverage": 0.748,
      "id": "GHCND:MXN00015255",
      "elevationUnit": "METERS",
      "longitude": -99.8
    },
    {
      "elevation": 2309.8,
      "mindate": "1978-09-01",
      "maxdate": "2008-07-31",
      "latitude": 18.9833,
      "name": "OCUILAN E 23, MX",
      "datacoverage": 0.8182,
      "id": "GHCND:MXN00015256",
      "elevationUnit": "METERS",
      "longitude": -99.4167
    },
    {
      "elevation": 2849.9,
      "mindate": "1978-08-10",
      "maxdate": "2011-10-31",
      "latitude": 18.9833,
      "name": "AGUA BENDITA, MX",
      "datacoverage": 0.9152,
      "id": "GHCND:MXN00015259",
      "elevationUnit": "METERS",
      "longitude": -99.85
    },
    {
      "elevation": 2736.8,
      "mindate": "1979-01-24",
      "maxdate": "2011-09-30",
      "latitude": 20.0833,
      "name": "SAN LUCAS TOTOLMALOYA, MX",
      "datacoverage": 0.8573,
      "id": "GHCND:MXN00015260",
      "elevationUnit": "METERS",
      "longitude": -99.9
    },
    {
      "elevation": 2649.9,
      "mindate": "1978-09-01",
      "maxdate": "2008-12-31",
      "latitude": 20.0167,
      "name": "EL JAZMIN, MX",
      "datacoverage": 0.8983,
      "id": "GHCND:MXN00015261",
      "elevationUnit": "METERS",
      "longitude": -99.8667
    },
    {
      "elevation": 2685.9,
      "mindate": "1980-08-01",
      "maxdate": "1984-09-30",
      "latitude": 19.2667,
      "name": "ESCUELA SEC. 8 MANUEL BERNAL, MX",
      "datacoverage": 1,
      "id": "GHCND:MXN00015262",
      "elevationUnit": "METERS",
      "longitude": -99.6667
    },
    {
      "elevation": 2254.9,
      "mindate": "1983-06-01",
      "maxdate": "2011-12-31",
      "latitude": 19.6333,
      "name": "ACOLMAN, MX",
      "datacoverage": 0.446,
      "id": "GHCND:MXN00015263",
      "elevationUnit": "METERS",
      "longitude": -98.9
    },
    {
      "elevation": 2575.9,
      "mindate": "1980-10-08",
      "maxdate": "2010-11-30",
      "latitude": 19.6,
      "name": "BUENOS AIRES, MX",
      "datacoverage": 0.8954,
      "id": "GHCND:MXN00015264",
      "elevationUnit": "METERS",
      "longitude": -99.6667
    },
    {
      "elevation": 2540.8,
      "mindate": "1981-01-01",
      "maxdate": "2012-12-31",
      "latitude": 19.3833,
      "name": "CAMPAMENTO LOS BERROS, MX",
      "datacoverage": 0.62,
      "id": "GHCND:MXN00015265",
      "elevationUnit": "METERS",
      "longitude": -100.0667
    },
    {
      "elevation": 2761.8,
      "mindate": "1980-06-17",
      "maxdate": "2012-06-30",
      "latitude": 19.2333,
      "name": "CODAGEM, MX",
      "datacoverage": 0.8901,
      "id": "GHCND:MXN00015266",
      "elevationUnit": "METERS",
      "longitude": -99.5667
    },
    {
      "elevation": 2794.7,
      "mindate": "1981-01-01",
      "maxdate": "2012-07-30",
      "latitude": 19.7167,
      "name": "CHICHILPA, MX",
      "datacoverage": 0.889,
      "id": "GHCND:MXN00015267",
      "elevationUnit": "METERS",
      "longitude": -100.0333
    },
    {
      "elevation": 2249.7,
      "mindate": "1981-01-01",
      "maxdate": "2009-06-30",
      "latitude": 19.3167,
      "name": "IXTAPALUCA, MX",
      "datacoverage": 0.5205,
      "id": "GHCND:MXN00015268",
      "elevationUnit": "METERS",
      "longitude": -98.8667
    },
    {
      "elevation": 2747.8,
      "mindate": "1981-01-10",
      "maxdate": "1988-12-31",
      "latitude": 19.5,
      "name": "JIQUIPILCO EL VIEJO, MX",
      "datacoverage": 0.9993,
      "id": "GHCND:MXN00015269",
      "elevationUnit": "METERS",
      "longitude": -99.55
    },
    {
      "elevation": 1849.8,
      "mindate": "1980-10-16",
      "maxdate": "2008-12-31",
      "latitude": 18.85,
      "name": "MEYUCA, MX",
      "datacoverage": 0.9294,
      "id": "GHCND:MXN00015270",
      "elevationUnit": "METERS",
      "longitude": -99.7667
    },
    {
      "elevation": 2599.9,
      "mindate": "1980-07-01",
      "maxdate": "1987-02-28",
      "latitude": 19.4,
      "name": "MINA MEXICO, MX",
      "datacoverage": 0.9758,
      "id": "GHCND:MXN00015271",
      "elevationUnit": "METERS",
      "longitude": -99.7167
    },
    {
      "elevation": 1703.8,
      "mindate": "1980-11-08",
      "maxdate": "2013-04-30",
      "latitude": 18.8,
      "name": "EL MIRADOR, MX",
      "datacoverage": 0.875,
      "id": "GHCND:MXN00015272",
      "elevationUnit": "METERS",
      "longitude": -99.7667
    },
    {
      "elevation": 2599.9,
      "mindate": "1981-01-01",
      "maxdate": "2008-09-30",
      "latitude": 20.0333,
      "name": "PRESA ADO, MX",
      "datacoverage": 0.7586,
      "id": "GHCND:MXN00015273",
      "elevationUnit": "METERS",
      "longitude": -99.85
    },
    {
      "elevation": 2379.9,
      "mindate": "1981-01-01",
      "maxdate": "2012-10-31",
      "latitude": 19.9333,
      "name": "NOPALA, MX",
      "datacoverage": 0.6012,
      "id": "GHCND:MXN00015274",
      "elevationUnit": "METERS",
      "longitude": -99
    },
    {
      "elevation": 1949.8,
      "mindate": "1981-02-01",
      "maxdate": "2012-12-30",
      "latitude": 18.75,
      "name": "LOS PEREZ, MX",
      "datacoverage": 0.4935,
      "id": "GHCND:MXN00015275",
      "elevationUnit": "METERS",
      "longitude": -99.85
    },
    {
      "elevation": 3045,
      "mindate": "1980-10-23",
      "maxdate": "2011-08-31",
      "latitude": 19.2333,
      "name": "SAN JOSE DEL CONTADERO, MX",
      "datacoverage": 0.6421,
      "id": "GHCND:MXN00015276",
      "elevationUnit": "METERS",
      "longitude": -99.8
    },
    {
      "elevation": 2565.8,
      "mindate": "1981-01-01",
      "maxdate": "1983-12-31",
      "latitude": 19.75,
      "name": "SAN MIGUEL TENOCHTITLAN, MX",
      "datacoverage": 1,
      "id": "GHCND:MXN00015277",
      "elevationUnit": "METERS",
      "longitude": -99.9167
    },
    {
      "elevation": 3060.8,
      "mindate": "1980-03-01",
      "maxdate": "1987-01-31",
      "latitude": 19.75,
      "name": "SANTIAGO ACUTZILAPAN, MX",
      "datacoverage": 0.8449,
      "id": "GHCND:MXN00015278",
      "elevationUnit": "METERS",
      "longitude": -99.75
    },
    {
      "elevation": 2614.9,
      "mindate": "1981-02-01",
      "maxdate": "1993-11-30",
      "latitude": 19.85,
      "name": "SANTIAGO COACHOCHITLAN, MX",
      "datacoverage": 0.8744,
      "id": "GHCND:MXN00015279",
      "elevationUnit": "METERS",
      "longitude": -100
    },
    {
      "elevation": 2409.7,
      "mindate": "1981-05-01",
      "maxdate": "2012-10-31",
      "latitude": 19.2,
      "name": "TLALMANALCO, MX",
      "datacoverage": 0.6573,
      "id": "GHCND:MXN00015280",
      "elevationUnit": "METERS",
      "longitude": -98.8
    },
    {
      "elevation": 1759.9,
      "mindate": "1981-08-01",
      "maxdate": "1986-11-30",
      "latitude": 18.8167,
      "name": "TLAPANALOYA TEQUISQUIAPAN, MX",
      "datacoverage": 1,
      "id": "GHCND:MXN00015281",
      "elevationUnit": "METERS",
      "longitude": -99.6667
    },
    {
      "elevation": 2681.9,
      "mindate": "1980-07-16",
      "maxdate": "2008-12-31",
      "latitude": 19.3333,
      "name": "TRES BARRANCAS, MX",
      "datacoverage": 0.9168,
      "id": "GHCND:MXN00015282",
      "elevationUnit": "METERS",
      "longitude": -99.7833
    },
    {
      "elevation": 1817.8,
      "mindate": "1981-01-01",
      "maxdate": "2012-12-30",
      "latitude": 18.8167,
      "name": "LA UNION RIVAPALACIO, MX",
      "datacoverage": 0.5084,
      "id": "GHCND:MXN00015283",
      "elevationUnit": "METERS",
      "longitude": -99.8167
    },
    {
      "elevation": 2829.8,
      "mindate": "1980-11-01",
      "maxdate": "1997-07-29",
      "latitude": 18.9,
      "name": "ACUITLAPILCO E 16, MX",
      "datacoverage": 0.9848,
      "id": "GHCND:MXN00015284",
      "elevationUnit": "METERS",
      "longitude": -99.7833
    },
    {
      "elevation": 3004.7,
      "mindate": "1980-04-07",
      "maxdate": "2012-06-30",
      "latitude": 19.05,
      "name": "CAJONES E 26, MX",
      "datacoverage": 0.7046,
      "id": "GHCND:MXN00015285",
      "elevationUnit": "METERS",
      "longitude": -99.8667
    },
    {
      "elevation": 2829.8,
      "mindate": "1979-04-09",
      "maxdate": "1987-02-28",
      "latitude": 18.9833,
      "name": "CIENEGUILLAS DE LABRA E 27, MX",
      "datacoverage": 0.9986,
      "id": "GHCND:MXN00015286",
      "elevationUnit": "METERS",
      "longitude": -99.9167
    },
    {
      "elevation": 2500,
      "mindate": "1980-03-21",
      "maxdate": "2010-06-30",
      "latitude": 19.1333,
      "name": "LA COMUNIDAD D 8, MX",
      "datacoverage": 0.9811,
      "id": "GHCND:MXN00015287",
      "elevationUnit": "METERS",
      "longitude": -99.9167
    },
    {
      "elevation": 2386,
      "mindate": "1980-04-13",
      "maxdate": "1987-12-31",
      "latitude": 18.95,
      "name": "ECATZINGO E 8, MX",
      "datacoverage": 0.6664,
      "id": "GHCND:MXN00015288",
      "elevationUnit": "METERS",
      "longitude": -98.75
    },
    {
      "elevation": 1860.8,
      "mindate": "1981-10-27",
      "maxdate": "1989-06-30",
      "latitude": 19.0333,
      "name": "REAL DE ARRIBA E 32, MX",
      "datacoverage": 0.7147,
      "id": "GHCND:MXN00015291",
      "elevationUnit": "METERS",
      "longitude": -100.0167
    },
    {
      "elevation": 2661.8,
      "mindate": "1979-04-01",
      "maxdate": "1987-10-29",
      "latitude": 19.05,
      "name": "SAN FRANCISCO TEPEXOXUCA E 20, MX",
      "datacoverage": 0.8819,
      "id": "GHCND:MXN00015292",
      "elevationUnit": "METERS",
      "longitude": -99.5333
    },
    {
      "elevation": 2904.7,
      "mindate": "1982-01-01",
      "maxdate": "2008-12-31",
      "latitude": 19.2333,
      "name": "SAN JUAN DE LAS HUERTAS, MX",
      "datacoverage": 0.772,
      "id": "GHCND:MXN00015293",
      "elevationUnit": "METERS",
      "longitude": -99.75
    },
    {
      "elevation": 2859.9,
      "mindate": "1978-11-01",
      "maxdate": "1993-02-28",
      "latitude": 19.0667,
      "name": "SAN PEDRO TLANIXCO E 18, MX",
      "datacoverage": 0.8296,
      "id": "GHCND:MXN00015294",
      "elevationUnit": "METERS",
      "longitude": -99.65
    },
    {
      "elevation": 2559.7,
      "mindate": "1982-01-01",
      "maxdate": "2008-12-31",
      "latitude": 19.1167,
      "name": "SAN PEDRO ZICTEPEC D 10, MX",
      "datacoverage": 0.9074,
      "id": "GHCND:MXN00015295",
      "elevationUnit": "METERS",
      "longitude": -99.55
    },
    {
      "elevation": 2044.9,
      "mindate": "1979-04-01",
      "maxdate": "2009-12-31",
      "latitude": 18.9667,
      "name": "SAN SEBASTIAN E 27, MX",
      "datacoverage": 0.8041,
      "id": "GHCND:MXN00015296",
      "elevationUnit": "METERS",
      "longitude": -99.4833
    },
    {
      "elevation": 2052.8,
      "mindate": "1980-04-01",
      "maxdate": "2007-02-28",
      "latitude": 18.95,
      "name": "SAN SIMONITO E 19, MX",
      "datacoverage": 0.6706,
      "id": "GHCND:MXN00015297",
      "elevationUnit": "METERS",
      "longitude": -99.55
    },
    {
      "elevation": 2826.7,
      "mindate": "1979-01-01",
      "maxdate": "2008-12-31",
      "latitude": 19.05,
      "name": "SANTA CRUZ TEZONTEPEC E 21, MX",
      "datacoverage": 0.8405,
      "id": "GHCND:MXN00015298",
      "elevationUnit": "METERS",
      "longitude": -99.3833
    },
    {
      "elevation": 2290.9,
      "mindate": "1979-09-14",
      "maxdate": "2009-06-30",
      "latitude": 18.9833,
      "name": "SANTA MARIA E 31, MX",
      "datacoverage": 0.9113,
      "id": "GHCND:MXN00015299",
      "elevationUnit": "METERS",
      "longitude": -99.6333
    },
    {
      "elevation": 3059.9,
      "mindate": "1978-06-01",
      "maxdate": "1986-10-31",
      "latitude": 19.05,
      "name": "SANTA MARTHA E 29, MX",
      "datacoverage": 0.7057,
      "id": "GHCND:MXN00015300",
      "elevationUnit": "METERS",
      "longitude": -99.3667
    },
    {
      "elevation": 2382.9,
      "mindate": "1979-09-01",
      "maxdate": "2008-05-31",
      "latitude": 18.9167,
      "name": "TEXCALTITLAN D 7, MX",
      "datacoverage": 0.7402,
      "id": "GHCND:MXN00015301",
      "elevationUnit": "METERS",
      "longitude": -99.9333
    },
    {
      "elevation": 2578.9,
      "mindate": "1981-08-21",
      "maxdate": "1987-01-31",
      "latitude": 19.3833,
      "name": "XONACATLAN, MX",
      "datacoverage": 0.9991,
      "id": "GHCND:MXN00015304",
      "elevationUnit": "METERS",
      "longitude": -99.5167
    },
    {
      "elevation": 1989.7,
      "mindate": "1970-01-01",
      "maxdate": "2008-12-31",
      "latitude": 18.9167,
      "name": "TOTOLMAJAC E 17, MX",
      "datacoverage": 0.6936,
      "id": "GHCND:MXN00015305",
      "elevationUnit": "METERS",
      "longitude": -99.6833
    },
    {
      "elevation": 2584.7,
      "mindate": "1981-04-07",
      "maxdate": "1990-06-30",
      "latitude": 19.2,
      "name": "CHAPULTEPEC, MX",
      "datacoverage": 0.8268,
      "id": "GHCND:MXN00015306",
      "elevationUnit": "METERS",
      "longitude": -99.55
    },
    {
      "elevation": 2411.9,
      "mindate": "1981-05-14",
      "maxdate": "1989-12-31",
      "latitude": 19,
      "name": "SAN BARTOLOME D 5, MX",
      "datacoverage": 0.7353,
      "id": "GHCND:MXN00015307",
      "elevationUnit": "METERS",
      "longitude": -99.6667
    },
    {
      "elevation": 2569.8,
      "mindate": "1980-02-23",
      "maxdate": "2009-08-31",
      "latitude": 19.6833,
      "name": "SAN CRISTOBAL DE LOS BAOS, MX",
      "datacoverage": 0.9886,
      "id": "GHCND:MXN00015308",
      "elevationUnit": "METERS",
      "longitude": -99.8667
    },
    {
      "elevation": 2763.9,
      "mindate": "1982-02-01",
      "maxdate": "1989-11-30",
      "latitude": 19.9,
      "name": "SAN PEDRO EL ALTO, MX",
      "datacoverage": 0.9153,
      "id": "GHCND:MXN00015310",
      "elevationUnit": "METERS",
      "longitude": -99.95
    },
    {
      "elevation": 2718.8,
      "mindate": "1979-02-07",
      "maxdate": "1989-03-31",
      "latitude": 20.05,
      "name": "CALPULALPAN, MX",
      "datacoverage": 0.7677,
      "id": "GHCND:MXN00015311",
      "elevationUnit": "METERS",
      "longitude": -99.6333
    },
    {
      "elevation": 2589,
      "mindate": "1980-06-28",
      "maxdate": "2012-03-30",
      "latitude": 19.3667,
      "name": "COLONIA ALVARO OBREGON, MX",
      "datacoverage": 0.8581,
      "id": "GHCND:MXN00015312",
      "elevationUnit": "METERS",
      "longitude": -99.4833
    },
    {
      "elevation": 2710,
      "mindate": "1981-10-16",
      "maxdate": "1994-08-31",
      "latitude": 19.8,
      "name": "LA ALMENDRA, MX",
      "datacoverage": 0.6749,
      "id": "GHCND:MXN00015314",
      "elevationUnit": "METERS",
      "longitude": -99.5667
    },
    {
      "elevation": 2575,
      "mindate": "1973-01-01",
      "maxdate": "2010-06-30",
      "latitude": 19.2833,
      "name": "CASETA EPCCA, MX",
      "datacoverage": 0.8281,
      "id": "GHCND:MXN00015315",
      "elevationUnit": "METERS",
      "longitude": -99.5167
    },
    {
      "elevation": 2629.8,
      "mindate": "1981-04-08",
      "maxdate": "1987-08-31",
      "latitude": 19.1333,
      "name": "SANTA MARIA RAYON, MX",
      "datacoverage": 0.9865,
      "id": "GHCND:MXN00015316",
      "elevationUnit": "METERS",
      "longitude": -99.5667
    },
    {
      "elevation": 2630.7,
      "mindate": "1981-10-16",
      "maxdate": "2009-03-31",
      "latitude": 19.7,
      "name": "SAN JOSE EPIFANIA, MX",
      "datacoverage": 0.8508,
      "id": "GHCND:MXN00015317",
      "elevationUnit": "METERS",
      "longitude": -99.6167
    },
    {
      "elevation": 2870.9,
      "mindate": "1981-09-01",
      "maxdate": "2012-12-31",
      "latitude": 19.5333,
      "name": "SANTA ANA JILOTZINGO, MX",
      "datacoverage": 0.4135,
      "id": "GHCND:MXN00015318",
      "elevationUnit": "METERS",
      "longitude": -99.3833
    },
    {
      "elevation": 1315.8,
      "mindate": "1982-03-01",
      "maxdate": "1992-06-30",
      "latitude": 18.8833,
      "name": "LA CABECERA, MX",
      "datacoverage": 0.8358,
      "id": "GHCND:MXN00015320",
      "elevationUnit": "METERS",
      "longitude": -100.15
    }
  ]
}
