{
  "metadata": {
    "resultset": {
      "offset": 139500,
      "count": 154115,
      "limit": 100
    }
  },
  "results": [
    {
      "elevation": 378,
      "mindate": "1948-05-01",
      "maxdate": "1950-02-28",
      "latitude": 41.9,
      "name": "UNION CITY 1 W, PA US",
      "datacoverage": 1,
      "id": "GHCND:USC00369041",
      "elevationUnit": "METERS",
      "longitude": -79.86667
    },
    {
      "elevation": 378,
      "mindate": "1950-03-01",
      "maxdate": "2025-01-31",
      "latitude": 41.9004,
      "name": "UNION CITY FILTRATION PLANT, PA US",
      "datacoverage": 1,
      "id": "GHCND:USC00369042",
      "elevationUnit": "METERS",
      "longitude": -79.861
    },
    {
      "elevation": 291.4,
      "mindate": "1894-01-01",
      "maxdate": "2018-06-30",
      "latitude": 39.915,
      "name": "UNIONTOWN 1 NE, PA US",
      "datacoverage": 1,
      "id": "GHCND:USC00369050",
      "elevationUnit": "METERS",
      "longitude": -79.7191
    },
    {
      "elevation": 609.9,
      "mindate": "1950-01-01",
      "maxdate": "1959-06-30",
      "latitude": 39.96667,
      "name": "UPPER DARBY, PA US",
      "datacoverage": 1,
      "id": "GHCND:USC00369074",
      "elevationUnit": "METERS",
      "longitude": -75.3
    },
    {
      "elevation": 313.9,
      "mindate": "1955-07-01",
      "maxdate": "1959-02-28",
      "latitude": 41.43333,
      "name": "UTICA, PA US",
      "datacoverage": 1,
      "id": "GHCND:USC00369099",
      "elevationUnit": "METERS",
      "longitude": -79.95
    },
    {
      "elevation": 48.8,
      "mindate": "1982-08-01",
      "maxdate": "2010-12-31",
      "latitude": 40.0982,
      "name": "VALLEY FORGE NATIONAL PK, PA US",
      "datacoverage": 1,
      "id": "GHCND:USC00369103",
      "elevationUnit": "METERS",
      "longitude": -75.4196
    },
    {
      "elevation": 359.7,
      "mindate": "1981-10-01",
      "maxdate": "1996-06-30",
      "latitude": 41.31667,
      "name": "VAN, PA US",
      "datacoverage": 0.9944,
      "id": "GHCND:USC00369115",
      "elevationUnit": "METERS",
      "longitude": -79.65
    },
    {
      "elevation": 243.8,
      "mindate": "1939-12-03",
      "maxdate": "1988-02-29",
      "latitude": 40.6,
      "name": "VANDERGRIFT, PA US",
      "datacoverage": 0.9983,
      "id": "GHCND:USC00369128",
      "elevationUnit": "METERS",
      "longitude": -79.55
    },
    {
      "elevation": 251.5,
      "mindate": "1913-12-01",
      "maxdate": "1947-07-31",
      "latitude": 40.603,
      "name": "VANDERGRIFT, PA US",
      "datacoverage": 0.9976,
      "id": "GHCND:USC00369131",
      "elevationUnit": "METERS",
      "longitude": -79.566667
    },
    {
      "elevation": 323.1,
      "mindate": "1948-05-01",
      "maxdate": "1951-09-30",
      "latitude": 40.58333,
      "name": "APOLLO 2 W, PA US",
      "datacoverage": 0.9999,
      "id": "GHCND:USC00369133",
      "elevationUnit": "METERS",
      "longitude": -79.6
    },
    {
      "elevation": 342.9,
      "mindate": "1988-01-01",
      "maxdate": "2010-12-31",
      "latitude": 40.58333,
      "name": "VANDERGRIFT 3 NE, PA US",
      "datacoverage": 1,
      "id": "GHCND:USC00369140",
      "elevationUnit": "METERS",
      "longitude": -79.51667
    },
    {
      "elevation": 118.9,
      "mindate": "2016-11-01",
      "maxdate": "2021-04-01",
      "latitude": 40.02319,
      "name": "VILLANOVA, PA US",
      "datacoverage": 1,
      "id": "GHCND:USC00369191",
      "elevationUnit": "METERS",
      "longitude": -75.37087
    },
    {
      "elevation": 107,
      "mindate": "1945-12-01",
      "maxdate": "1971-03-31",
      "latitude": 40.51667,
      "name": "VIRGINVILLE, PA US",
      "datacoverage": 0.9935,
      "id": "GHCND:USC00369196",
      "elevationUnit": "METERS",
      "longitude": -75.86667
    },
    {
      "elevation": 494.1,
      "mindate": "1955-04-01",
      "maxdate": "1958-10-31",
      "latitude": 41.41667,
      "name": "VOWINCKEL, PA US",
      "datacoverage": 0.9991,
      "id": "GHCND:USC00369206",
      "elevationUnit": "METERS",
      "longitude": -79.23333
    },
    {
      "elevation": 491,
      "mindate": "1955-04-01",
      "maxdate": "1958-10-31",
      "latitude": 41.4,
      "name": "VOWINCKEL 1 WSW, PA US",
      "datacoverage": 1,
      "id": "GHCND:USC00369209",
      "elevationUnit": "METERS",
      "longitude": -79.25
    },
    {
      "elevation": 106.7,
      "mindate": "1967-11-01",
      "maxdate": "1972-06-30",
      "latitude": 40.75,
      "name": "WALNUTPORT RIVER GAGE, PA US",
      "datacoverage": 0.6609,
      "id": "GHCND:USC00369265",
      "elevationUnit": "METERS",
      "longitude": -75.6
    },
    {
      "elevation": 271.3,
      "mindate": "2012-01-01",
      "maxdate": "2018-02-28",
      "latitude": 39.7659,
      "name": "WARFORDSBURG 2 W, PA US",
      "datacoverage": 1,
      "id": "GHCND:USC00369270",
      "elevationUnit": "METERS",
      "longitude": -78.2351
    },
    {
      "elevation": 368.8,
      "mindate": "1893-01-01",
      "maxdate": "2025-03-07",
      "latitude": 41.8467,
      "name": "WARREN, PA US",
      "datacoverage": 1,
      "id": "GHCND:USC00369298",
      "elevationUnit": "METERS",
      "longitude": -79.1494
    },
    {
      "elevation": 350.5,
      "mindate": "1921-07-01",
      "maxdate": "1981-06-30",
      "latitude": 40.18333,
      "name": "WASHINGTON, PA US",
      "datacoverage": 0.2194,
      "id": "GHCND:USC00369312",
      "elevationUnit": "METERS",
      "longitude": -80.23333
    },
    {
      "elevation": 396.2,
      "mindate": "1975-04-01",
      "maxdate": "2014-06-30",
      "latitude": 40.1789,
      "name": "WASHINGTON 3 NE, PA US",
      "datacoverage": 1,
      "id": "GHCND:USC00369318",
      "elevationUnit": "METERS",
      "longitude": -80.1889
    },
    {
      "elevation": 190.2,
      "mindate": "1895-01-01",
      "maxdate": "1920-11-30",
      "latitude": 41.304667,
      "name": "WATERVILLE, PA US",
      "datacoverage": 0.2904,
      "id": "GHCND:USC00369328",
      "elevationUnit": "METERS",
      "longitude": -77.356667
    },
    {
      "elevation": 737.9,
      "mindate": "1943-06-01",
      "maxdate": "1949-09-30",
      "latitude": 41.61667,
      "name": "WATROUS 9 S LEE FIRE, PA US",
      "datacoverage": 0.9997,
      "id": "GHCND:USC00369340",
      "elevationUnit": "METERS",
      "longitude": -77.55
    },
    {
      "elevation": 149,
      "mindate": "1948-07-01",
      "maxdate": "1966-12-31",
      "latitude": 41.08333,
      "name": "WATSONTOWN, PA US",
      "datacoverage": 0.9819,
      "id": "GHCND:USC00369345",
      "elevationUnit": "METERS",
      "longitude": -76.86667
    },
    {
      "elevation": 299,
      "mindate": "1921-03-01",
      "maxdate": "1962-04-30",
      "latitude": 39.9,
      "name": "WAYNESBURG 2 W, PA US",
      "datacoverage": 0.966,
      "id": "GHCND:USC00369362",
      "elevationUnit": "METERS",
      "longitude": -80.21667
    },
    {
      "elevation": 286.5,
      "mindate": "1948-05-01",
      "maxdate": "2025-03-07",
      "latitude": 39.8986,
      "name": "WAYNESBURG 1 E, PA US",
      "datacoverage": 1,
      "id": "GHCND:USC00369367",
      "elevationUnit": "METERS",
      "longitude": -80.1656
    },
    {
      "elevation": 278,
      "mindate": "1948-05-01",
      "maxdate": "1951-09-30",
      "latitude": 39.81667,
      "name": "BIG COVE TANNERY, PA US",
      "datacoverage": 0.9999,
      "id": "GHCND:USC00369380",
      "elevationUnit": "METERS",
      "longitude": -78.08333
    },
    {
      "elevation": 536.4,
      "mindate": "1969-07-01",
      "maxdate": "1987-09-21",
      "latitude": 41.3,
      "name": "WEEDVILLE 1 N, PA US",
      "datacoverage": 0.9589,
      "id": "GHCND:USC00369385",
      "elevationUnit": "METERS",
      "longitude": -78.48333
    },
    {
      "elevation": 221.9,
      "mindate": "1911-01-01",
      "maxdate": "1940-11-30",
      "latitude": 40.855167,
      "name": "WEIKERT, PA US",
      "datacoverage": 0.9443,
      "id": "GHCND:USC00369398",
      "elevationUnit": "METERS",
      "longitude": -77.291
    },
    {
      "elevation": 420.6,
      "mindate": "1893-01-01",
      "maxdate": "1999-04-30",
      "latitude": 41.74167,
      "name": "WELLSBORO, PA US",
      "datacoverage": 0.3809,
      "id": "GHCND:USC00369407",
      "elevationUnit": "METERS",
      "longitude": -77.31222
    },
    {
      "elevation": 554.1,
      "mindate": "1926-01-01",
      "maxdate": "2025-03-07",
      "latitude": 41.7004,
      "name": "WELLSBORO 4 SW, PA US",
      "datacoverage": 1,
      "id": "GHCND:USC00369408",
      "elevationUnit": "METERS",
      "longitude": -77.3871
    },
    {
      "elevation": 473,
      "mindate": "1948-05-01",
      "maxdate": "1951-09-30",
      "latitude": 41.75,
      "name": "WELLSBORO 2 E, PA US",
      "datacoverage": 0.9999,
      "id": "GHCND:USC00369412",
      "elevationUnit": "METERS",
      "longitude": -77.26667
    },
    {
      "elevation": 153,
      "mindate": "1946-09-01",
      "maxdate": "1958-05-31",
      "latitude": 40.05,
      "name": "WELLSVILLE, PA US",
      "datacoverage": 1,
      "id": "GHCND:USC00369420",
      "elevationUnit": "METERS",
      "longitude": -76.95
    },
    {
      "elevation": 125,
      "mindate": "1937-12-01",
      "maxdate": "1959-06-30",
      "latitude": 40.33333,
      "name": "WERNERSVILLE, PA US",
      "datacoverage": 0.9654,
      "id": "GHCND:USC00369430",
      "elevationUnit": "METERS",
      "longitude": -76.1
    },
    {
      "elevation": 542.5,
      "mindate": "1914-06-01",
      "maxdate": "1927-07-31",
      "latitude": 41.933333,
      "name": "WEST BINGHAM, PA US",
      "datacoverage": 0.9747,
      "id": "GHCND:USC00369460",
      "elevationUnit": "METERS",
      "longitude": -77.816667
    },
    {
      "elevation": 114.3,
      "mindate": "1893-01-01",
      "maxdate": "2017-05-31",
      "latitude": 39.9708,
      "name": "WEST CHESTER 2 NW, PA US",
      "datacoverage": 1,
      "id": "GHCND:USC00369464",
      "elevationUnit": "METERS",
      "longitude": -75.635
    },
    {
      "elevation": 42.7,
      "mindate": "1978-01-01",
      "maxdate": "1982-10-31",
      "latitude": 39.96667,
      "name": "WEST CHESTER 2 W, PA US",
      "datacoverage": 0.9995,
      "id": "GHCND:USC00369465",
      "elevationUnit": "METERS",
      "longitude": -75.66667
    },
    {
      "elevation": 573,
      "mindate": "1981-01-01",
      "maxdate": "1988-10-31",
      "latitude": 41.98333,
      "name": "WESTFIELD 5 N, PA US",
      "datacoverage": 0.8744,
      "id": "GHCND:USC00369490",
      "elevationUnit": "METERS",
      "longitude": -77.56667
    },
    {
      "elevation": 335.3,
      "mindate": "1920-03-01",
      "maxdate": "1940-10-31",
      "latitude": 41.554333,
      "name": "WESTFORD, PA US",
      "datacoverage": 0.9958,
      "id": "GHCND:USC00369496",
      "elevationUnit": "METERS",
      "longitude": -80.475167
    },
    {
      "elevation": 106.7,
      "mindate": "1893-01-01",
      "maxdate": "1902-11-30",
      "latitude": 39.933333,
      "name": "WESTTOWN, PA US",
      "datacoverage": 0.7996,
      "id": "GHCND:USC00369500",
      "elevationUnit": "METERS",
      "longitude": -75.55
    },
    {
      "elevation": 136.9,
      "mindate": "1927-05-01",
      "maxdate": "1976-08-31",
      "latitude": 39.8,
      "name": "WEST GROVE 1 SE, PA US",
      "datacoverage": 0.9695,
      "id": "GHCND:USC00369503",
      "elevationUnit": "METERS",
      "longitude": -75.8
    },
    {
      "elevation": 359.7,
      "mindate": "1952-03-01",
      "maxdate": "1992-07-31",
      "latitude": 41.58333,
      "name": "WEST HICKORY RIVER, PA US",
      "datacoverage": 0.9381,
      "id": "GHCND:USC00369507",
      "elevationUnit": "METERS",
      "longitude": -79.4
    },
    {
      "elevation": 410,
      "mindate": "1992-08-01",
      "maxdate": "2012-03-31",
      "latitude": 41.57639,
      "name": "WEST HICKORY 2, PA US",
      "datacoverage": 1,
      "id": "GHCND:USC00369510",
      "elevationUnit": "METERS",
      "longitude": -79.41056
    },
    {
      "elevation": 235,
      "mindate": "1893-01-01",
      "maxdate": "1948-04-30",
      "latitude": 40.21667,
      "name": "WEST NEWTON, PA US",
      "datacoverage": 0.9986,
      "id": "GHCND:USC00369555",
      "elevationUnit": "METERS",
      "longitude": -79.76667
    },
    {
      "elevation": 378,
      "mindate": "1895-03-01",
      "maxdate": "1924-12-31",
      "latitude": 40.059833,
      "name": "WHITE HAVEN, PA US",
      "datacoverage": 0.5418,
      "id": "GHCND:USC00369650",
      "elevationUnit": "METERS",
      "longitude": -75.773667
    },
    {
      "elevation": 411.5,
      "mindate": "1940-09-01",
      "maxdate": "2007-07-01",
      "latitude": 40.76667,
      "name": "WHITESBURG, PA US",
      "datacoverage": 0.9744,
      "id": "GHCND:USC00369655",
      "elevationUnit": "METERS",
      "longitude": -79.41667
    },
    {
      "elevation": 201.2,
      "mindate": "1893-01-01",
      "maxdate": "2010-12-31",
      "latitude": 41.23333,
      "name": "WILKES BARRE, PA US",
      "datacoverage": 1,
      "id": "GHCND:USC00369702",
      "elevationUnit": "METERS",
      "longitude": -75.88333
    },
    {
      "elevation": 262.1,
      "mindate": "1941-01-01",
      "maxdate": "2025-03-07",
      "latitude": 40.46342,
      "name": "WILLIAMSBURG, PA US",
      "datacoverage": 1,
      "id": "GHCND:USC00369714",
      "elevationUnit": "METERS",
      "longitude": -78.19687
    },
    {
      "elevation": 606.9,
      "mindate": "1948-05-01",
      "maxdate": "1949-05-31",
      "latitude": 41.21667,
      "name": "WILLIAMSPORT 4 SE TO, PA US",
      "datacoverage": 0.9992,
      "id": "GHCND:USC00369723",
      "elevationUnit": "METERS",
      "longitude": -76.95
    },
    {
      "elevation": 150.9,
      "mindate": "1895-02-01",
      "maxdate": "1949-10-31",
      "latitude": 41.2358,
      "name": "WILLIAMSPORT RIVER, PA US",
      "datacoverage": 0.9529,
      "id": "GHCND:USC00369733",
      "elevationUnit": "METERS",
      "longitude": -76.9974
    },
    {
      "elevation": 160,
      "mindate": "1997-01-01",
      "maxdate": "2025-01-31",
      "latitude": 41.2486,
      "name": "WILLIAMSPORT 2, PA US",
      "datacoverage": 1,
      "id": "GHCND:USC00369735",
      "elevationUnit": "METERS",
      "longitude": -76.9833
    },
    {
      "elevation": 388.6,
      "mindate": "1934-01-01",
      "maxdate": "1942-11-30",
      "latitude": 40.588333,
      "name": "WILLIAMSTOWN, PA US",
      "datacoverage": 1,
      "id": "GHCND:USC00369738",
      "elevationUnit": "METERS",
      "longitude": -76.6095
    },
    {
      "elevation": 238,
      "mindate": "1948-05-01",
      "maxdate": "1949-07-31",
      "latitude": 40.58333,
      "name": "WILLIAMSTOWN, PA US",
      "datacoverage": 0.999,
      "id": "GHCND:USC00369741",
      "elevationUnit": "METERS",
      "longitude": -76.63333
    },
    {
      "elevation": 360,
      "mindate": "1951-02-01",
      "maxdate": "1951-08-31",
      "latitude": 40.58333,
      "name": "WILLIAMSTOWN 1 NE, PA US",
      "datacoverage": 1,
      "id": "GHCND:USC00369742",
      "elevationUnit": "METERS",
      "longitude": -76.61667
    },
    {
      "elevation": 220.1,
      "mindate": "1948-05-01",
      "maxdate": "1951-09-30",
      "latitude": 40.83333,
      "name": "WIND GAP 1 S, PA US",
      "datacoverage": 0.7561,
      "id": "GHCND:USC00369781",
      "elevationUnit": "METERS",
      "longitude": -75.3
    },
    {
      "elevation": 361.2,
      "mindate": "1950-07-01",
      "maxdate": "2023-05-31",
      "latitude": 40.03942,
      "name": "WOLFSBURG, PA US",
      "datacoverage": 1,
      "id": "GHCND:USC00369823",
      "elevationUnit": "METERS",
      "longitude": -78.52386
    },
    {
      "elevation": 666.6,
      "mindate": "1942-11-01",
      "maxdate": "1946-10-31",
      "latitude": 40.916667,
      "name": "WOODWARD, PA US",
      "datacoverage": 1,
      "id": "GHCND:USC00369870",
      "elevationUnit": "METERS",
      "longitude": -77.333333
    },
    {
      "elevation": 211.2,
      "mindate": "2012-06-01",
      "maxdate": "2025-03-06",
      "latitude": 41.5394,
      "name": "WYOMING CO EOC, PA US",
      "datacoverage": 1,
      "id": "GHCND:USC00369900",
      "elevationUnit": "METERS",
      "longitude": -75.9269
    },
    {
      "elevation": 118.9,
      "mindate": "1894-01-01",
      "maxdate": "2016-03-01",
      "latitude": 39.91667,
      "name": "YORK 3 SSW PUMP STATION, PA US",
      "datacoverage": 1,
      "id": "GHCND:USC00369933",
      "elevationUnit": "METERS",
      "longitude": -76.75
    },
    {
      "elevation": 195.1,
      "mindate": "1948-05-01",
      "maxdate": "1951-09-30",
      "latitude": 39.94,
      "name": "YORK 1 S FILTER PLAN, PA US",
      "datacoverage": 0.9999,
      "id": "GHCND:USC00369938",
      "elevationUnit": "METERS",
      "longitude": -76.72528
    },
    {
      "elevation": 121.9,
      "mindate": "1944-01-01",
      "maxdate": "1946-12-31",
      "latitude": 39.92,
      "name": "YORK INDIAN ROCK DAM, PA US",
      "datacoverage": 1,
      "id": "GHCND:USC00369943",
      "elevationUnit": "METERS",
      "longitude": -76.751833
    },
    {
      "elevation": 94.5,
      "mindate": "1921-01-01",
      "maxdate": "2017-12-31",
      "latitude": 40.11389,
      "name": "YORK HAVEN, PA US",
      "datacoverage": 1,
      "id": "GHCND:USC00369950",
      "elevationUnit": "METERS",
      "longitude": -76.71222
    },
    {
      "elevation": 140.2,
      "mindate": "1941-01-01",
      "maxdate": "1946-02-28",
      "latitude": 39.937833,
      "name": "YORK VIOLET HILL SUBSTATION, PA US",
      "datacoverage": 0.985,
      "id": "GHCND:USC00369959",
      "elevationUnit": "METERS",
      "longitude": -76.717
    },
    {
      "elevation": 370.9,
      "mindate": "1948-05-01",
      "maxdate": "1951-09-30",
      "latitude": 41.85,
      "name": "YOUNGSVILLE, PA US",
      "datacoverage": 1,
      "id": "GHCND:USC00369966",
      "elevationUnit": "METERS",
      "longitude": -79.31667
    },
    {
      "elevation": 280.4,
      "mindate": "1925-07-01",
      "maxdate": "1931-05-31",
      "latitude": 40.7895,
      "name": "ZELIENOPLE, PA US",
      "datacoverage": 1,
      "id": "GHCND:USC00369974",
      "elevationUnit": "METERS",
      "longitude": -80.186667
    },
    {
      "elevation": 519.1,
      "mindate": "1965-10-01",
      "maxdate": "1979-11-30",
      "latitude": 40.7,
      "name": "ZERBEY AIRPORT, PA US",
      "datacoverage": 1,
      "id": "GHCND:USC00369982",
      "elevationUnit": "METERS",
      "longitude": -76.38333
    },
    {
      "elevation": 287.1,
      "mindate": "1951-11-01",
      "maxdate": "1973-12-31",
      "latitude": 40.9,
      "name": "ZION GROVE, PA US",
      "datacoverage": 0.9661,
      "id": "GHCND:USC00369990",
      "elevationUnit": "METERS",
      "longitude": -76.21667
    },
    {
      "elevation": 178.3,
      "mindate": "1931-12-01",
      "maxdate": "1950-06-30",
      "latitude": 40.46667,
      "name": "ZIONSVILLE 3 ESE, PA US",
      "datacoverage": 1,
      "id": "GHCND:USC00369994",
      "elevationUnit": "METERS",
      "longitude": -75.45
    },
    {
      "elevation": 178.3,
      "mindate": "1950-01-01",
      "maxdate": "2010-12-31",
      "latitude": 40.46667,
      "name": "ZIONSVILLE 3 ESE, PA US",
      "datacoverage": 1,
      "id": "GHCND:USC00369995",
      "elevationUnit": "METERS",
      "longitude": -75.45
    },
    {
      "elevation": 30.5,
      "mindate": "1991-01-01",
      "maxdate": "1994-03-31",
      "latitude": 41.56667,
      "name": "ADAMSVILLE 2 NW, RI US",
      "datacoverage": 1,
      "id": "GHCND:USC00370218",
      "elevationUnit": "METERS",
      "longitude": -71.15
    },
    {
      "elevation": 167.9,
      "mindate": "1948-06-01",
      "maxdate": "1956-11-30",
      "latitude": 41.6,
      "name": "AUSTIN, RI US",
      "datacoverage": 0.9999,
      "id": "GHCND:USC00370576",
      "elevationUnit": "METERS",
      "longitude": -71.65
    },
    {
      "elevation": 39.6,
      "mindate": "2015-01-01",
      "maxdate": "2025-03-07",
      "latitude": 41.1578,
      "name": "BLOCK ISLAND COOP, RI US",
      "datacoverage": 0.9947,
      "id": "GHCND:USC00370897",
      "elevationUnit": "METERS",
      "longitude": -71.5676
    },
    {
      "elevation": 16.2,
      "mindate": "1893-01-01",
      "maxdate": "1926-09-30",
      "latitude": 41.666667,
      "name": "BRISTOL, RI US",
      "datacoverage": 0.973,
      "id": "GHCND:USC00371175",
      "elevationUnit": "METERS",
      "longitude": -71.3
    },
    {
      "elevation": 79.2,
      "mindate": "2011-01-01",
      "maxdate": "2025-03-07",
      "latitude": 41.7003,
      "name": "COVENTRY, RI US",
      "datacoverage": 0.9456,
      "id": "GHCND:USC00371874",
      "elevationUnit": "METERS",
      "longitude": -71.5926
    },
    {
      "elevation": 85.3,
      "mindate": "2015-01-01",
      "maxdate": "2023-09-05",
      "latitude": 41.6684,
      "name": "COVENTRY 2, RI US",
      "datacoverage": 0.9994,
      "id": "GHCND:USC00371875",
      "elevationUnit": "METERS",
      "longitude": -71.5571
    },
    {
      "elevation": 18,
      "mindate": "1948-10-01",
      "maxdate": "1950-03-26",
      "latitude": 41.46667,
      "name": "FORT ADAMS, RI US",
      "datacoverage": 0.7179,
      "id": "GHCND:USC00372826",
      "elevationUnit": "METERS",
      "longitude": -71.33333
    },
    {
      "elevation": 130.1,
      "mindate": "1910-01-01",
      "maxdate": "1925-05-31",
      "latitude": 41.666667,
      "name": "GREENE, RI US",
      "datacoverage": 0.9839,
      "id": "GHCND:USC00373260",
      "elevationUnit": "METERS",
      "longitude": -71.75
    },
    {
      "elevation": 128,
      "mindate": "1942-04-01",
      "maxdate": "1974-08-31",
      "latitude": 41.88333,
      "name": "GREENVILLE, RI US",
      "datacoverage": 0.9228,
      "id": "GHCND:USC00373306",
      "elevationUnit": "METERS",
      "longitude": -71.56667
    },
    {
      "elevation": 42.7,
      "mindate": "1910-01-01",
      "maxdate": "1920-05-31",
      "latitude": 41.5,
      "name": "HOPE VALLEY, RI US",
      "datacoverage": 1,
      "id": "GHCND:USC00373600",
      "elevationUnit": "METERS",
      "longitude": -71.75
    },
    {
      "elevation": 35.7,
      "mindate": "1893-01-01",
      "maxdate": "2025-02-25",
      "latitude": 41.4903,
      "name": "KINGSTON, RI US",
      "datacoverage": 1,
      "id": "GHCND:USC00374266",
      "elevationUnit": "METERS",
      "longitude": -71.543
    },
    {
      "elevation": 35.4,
      "mindate": "1893-01-01",
      "maxdate": "1899-12-31",
      "latitude": 41.9,
      "name": "LONSDALE, RI US",
      "datacoverage": 0.9995,
      "id": "GHCND:USC00374750",
      "elevationUnit": "METERS",
      "longitude": -71.4
    },
    {
      "elevation": 31.1,
      "mindate": "1946-12-01",
      "maxdate": "1948-09-30",
      "latitude": 41.5,
      "name": "MIDDLETOWN 2 NE NEWP, RI US",
      "datacoverage": 1,
      "id": "GHCND:USC00375002",
      "elevationUnit": "METERS",
      "longitude": -71.26667
    },
    {
      "elevation": 6.7,
      "mindate": "1895-05-01",
      "maxdate": "1918-07-31",
      "latitude": 41.433333,
      "name": "NARRAGANSETT PIER, RI US",
      "datacoverage": 0.9964,
      "id": "GHCND:USC00375110",
      "elevationUnit": "METERS",
      "longitude": -71.466667
    },
    {
      "mindate": "1893-01-01",
      "maxdate": "1899-05-30",
      "latitude": 41.533333,
      "name": "NEWPORT, RI US",
      "datacoverage": 1,
      "id": "GHCND:USC00375210",
      "longitude": -71.3
    },
    {
      "elevation": 4.6,
      "mindate": "1957-01-01",
      "maxdate": "2010-12-31",
      "latitude": 41.49546,
      "name": "NEWPORT ROSE, RI US",
      "datacoverage": 1,
      "id": "GHCND:USC00375215",
      "elevationUnit": "METERS",
      "longitude": -71.34271
    },
    {
      "elevation": 3,
      "mindate": "1950-05-01",
      "maxdate": "1951-09-27",
      "latitude": 41.5,
      "name": "NEWPORT WATER WORKS, RI US",
      "datacoverage": 1,
      "id": "GHCND:USC00375225",
      "elevationUnit": "METERS",
      "longitude": -71.3
    },
    {
      "elevation": 192,
      "mindate": "1974-10-01",
      "maxdate": "2025-01-31",
      "latitude": 41.8564,
      "name": "NORTH FOSTER 1 E, RI US",
      "datacoverage": 1,
      "id": "GHCND:USC00375270",
      "elevationUnit": "METERS",
      "longitude": -71.7333
    },
    {
      "elevation": 207,
      "mindate": "1969-12-01",
      "maxdate": "1974-09-30",
      "latitude": 41.83333,
      "name": "NORTH SCITUATE 4 W, RI US",
      "datacoverage": 0.9995,
      "id": "GHCND:USC00375354",
      "elevationUnit": "METERS",
      "longitude": -71.68333
    },
    {
      "mindate": "1893-01-01",
      "maxdate": "1893-11-30",
      "latitude": 41.8,
      "name": "OLNEYVILLE, RI US",
      "datacoverage": 0.9113,
      "id": "GHCND:USC00375610",
      "longitude": -71.483333
    },
    {
      "elevation": 29.6,
      "mindate": "1893-01-01",
      "maxdate": "1938-06-30",
      "latitude": 41.866667,
      "name": "PAWTUCKET, RI US",
      "datacoverage": 0.9947,
      "id": "GHCND:USC00375882",
      "elevationUnit": "METERS",
      "longitude": -71.366667
    },
    {
      "elevation": 7.3,
      "mindate": "1943-11-01",
      "maxdate": "1946-01-31",
      "latitude": 41.366667,
      "name": "POINT JUDITH, RI US",
      "datacoverage": 1,
      "id": "GHCND:USC00376450",
      "elevationUnit": "METERS",
      "longitude": -71.483333
    },
    {
      "elevation": 68.6,
      "mindate": "1900-04-01",
      "maxdate": "1946-11-30",
      "latitude": 41.533333,
      "name": "PORTSMOUTH, RI US",
      "datacoverage": 0.2875,
      "id": "GHCND:USC00376453",
      "elevationUnit": "METERS",
      "longitude": -71.266667
    },
    {
      "elevation": 21,
      "mindate": "1948-06-01",
      "maxdate": "1953-04-30",
      "latitude": 41.83333,
      "name": "PROVIDENCE, RI US",
      "datacoverage": 1,
      "id": "GHCND:USC00376703",
      "elevationUnit": "METERS",
      "longitude": -71.41667
    },
    {
      "elevation": 22.9,
      "mindate": "1896-02-01",
      "maxdate": "1917-01-31",
      "latitude": 41.833333,
      "name": "PROVIDENCE 1, RI US",
      "datacoverage": 0.9961,
      "id": "GHCND:USC00376710",
      "elevationUnit": "METERS",
      "longitude": -71.416667
    },
    {
      "elevation": 62.2,
      "mindate": "1893-01-01",
      "maxdate": "1913-11-30",
      "latitude": 41.833333,
      "name": "PROVIDENCE 2, RI US",
      "datacoverage": 0.9843,
      "id": "GHCND:USC00376712",
      "elevationUnit": "METERS",
      "longitude": -71.4
    },
    {
      "elevation": 21.3,
      "mindate": "1893-01-01",
      "maxdate": "1893-06-30",
      "latitude": 41.833333,
      "name": "PROVIDENCE 3, RI US",
      "datacoverage": 1,
      "id": "GHCND:USC00376714",
      "elevationUnit": "METERS",
      "longitude": -71.416667
    },
    {
      "elevation": 46,
      "mindate": "1938-04-01",
      "maxdate": "1948-09-30",
      "latitude": 41.53333,
      "name": "SLOCUM, RI US",
      "datacoverage": 0.9998,
      "id": "GHCND:USC00377567",
      "elevationUnit": "METERS",
      "longitude": -71.51667
    },
    {
      "elevation": 27.4,
      "mindate": "1998-01-01",
      "maxdate": "2019-06-30",
      "latitude": 41.6268,
      "name": "TIVERTON, RI US",
      "datacoverage": 1,
      "id": "GHCND:USC00377581",
      "elevationUnit": "METERS",
      "longitude": -71.2093
    },
    {
      "elevation": 182.9,
      "mindate": "1910-01-01",
      "maxdate": "1917-12-31",
      "latitude": 42,
      "name": "WALLUM LAKE, RI US",
      "datacoverage": 1,
      "id": "GHCND:USC00378820",
      "elevationUnit": "METERS",
      "longitude": -71.766667
    },
    {
      "elevation": 11.9,
      "mindate": "1944-09-01",
      "maxdate": "1950-10-31",
      "latitude": 41.36667,
      "name": "WESTERLY 1 W, RI US",
      "datacoverage": 0.9326,
      "id": "GHCND:USC00378911",
      "elevationUnit": "METERS",
      "longitude": -71.83333
    },
    {
      "elevation": 14.9,
      "mindate": "1938-04-01",
      "maxdate": "1948-09-30",
      "latitude": 41.43333,
      "name": "WOOD RIVER JUNCTION, RI US",
      "datacoverage": 0.9839,
      "id": "GHCND:USC00379327",
      "elevationUnit": "METERS",
      "longitude": -71.7
    }
  ]
}
