{
  "metadata": {
    "resultset": {
      "offset": 46500,
      "count": 154115,
      "limit": 100
    }
  },
  "results": [
    {
      "elevation": 256,
      "mindate": "1908-04-01",
      "maxdate": "1936-09-30",
      "latitude": 50.3333,
      "name": "PEMBERTON HATCHERY, CA",
      "datacoverage": 1,
      "id": "GHCND:CA001116084",
      "elevationUnit": "METERS",
      "longitude": -122.55
    },
    {
      "elevation": 1190,
      "mindate": "1974-08-01",
      "maxdate": "1995-04-30",
      "latitude": 51.0333,
      "name": "PORCUPINE CREEK, CA",
      "datacoverage": 1,
      "id": "GHCND:CA001116204",
      "elevationUnit": "METERS",
      "longitude": -121.8
    },
    {
      "elevation": 244,
      "mindate": "1963-07-01",
      "maxdate": "2004-04-30",
      "latitude": 50.7333,
      "name": "SHALALTH, CA",
      "datacoverage": 0.9877,
      "id": "GHCND:CA001117215",
      "elevationUnit": "METERS",
      "longitude": -122.2333
    },
    {
      "elevation": 515,
      "mindate": "1936-12-01",
      "maxdate": "1955-09-27",
      "latitude": 49.0833,
      "name": "SKAGIT RIVER, CA",
      "datacoverage": 0.9205,
      "id": "GHCND:CA001117410",
      "elevationUnit": "METERS",
      "longitude": -121.1667
    },
    {
      "elevation": 1430,
      "mindate": "1989-06-01",
      "maxdate": "1990-09-30",
      "latitude": 49.4167,
      "name": "TREASURE MOUNTAIN, CA",
      "datacoverage": 0.5625,
      "id": "GHCND:CA001118235",
      "elevationUnit": "METERS",
      "longitude": -121.05
    },
    {
      "elevation": 76,
      "mindate": "1984-12-01",
      "maxdate": "1994-11-30",
      "latitude": 49.5667,
      "name": "YALE, CA",
      "datacoverage": 0.9918,
      "id": "GHCND:CA001119002",
      "elevationUnit": "METERS",
      "longitude": -121.4333
    },
    {
      "elevation": 580,
      "mindate": "1988-07-01",
      "maxdate": "2002-10-31",
      "latitude": 51.0667,
      "name": "EDGE HILLS BUTCHER CREEK, CA",
      "datacoverage": 0.9999,
      "id": "GHCND:CA00111KFLR",
      "elevationUnit": "METERS",
      "longitude": -121.9333
    },
    {
      "elevation": 1003,
      "mindate": "1928-09-01",
      "maxdate": "1953-08-31",
      "latitude": 49.7333,
      "name": "ADRA, CA",
      "datacoverage": 1,
      "id": "GHCND:CA001120090",
      "elevationUnit": "METERS",
      "longitude": -119.5833
    },
    {
      "elevation": 1890,
      "mindate": "1965-06-01",
      "maxdate": "1971-09-30",
      "latitude": 49.4,
      "name": "APEX MOUNTAIN LODGE, CA",
      "datacoverage": 0.3027,
      "id": "GHCND:CA001120447",
      "elevationUnit": "METERS",
      "longitude": -119.9167
    },
    {
      "elevation": 503,
      "mindate": "1959-03-01",
      "maxdate": "1960-06-30",
      "latitude": 50.4,
      "name": "ARMSTRONG GRANDVIEW, CA",
      "datacoverage": 1,
      "id": "GHCND:CA001120475",
      "elevationUnit": "METERS",
      "longitude": -119.2833
    },
    {
      "elevation": 342,
      "mindate": "1991-04-01",
      "maxdate": "1992-09-30",
      "latitude": 50.4,
      "name": "ARMSTRONG OTTER LAKE, CA",
      "datacoverage": 0.998,
      "id": "GHCND:CA001120486",
      "elevationUnit": "METERS",
      "longitude": -119.25
    },
    {
      "elevation": 1097,
      "mindate": "1954-08-01",
      "maxdate": "1959-07-31",
      "latitude": 49.7167,
      "name": "BANKEIR, CA",
      "datacoverage": 1,
      "id": "GHCND:CA001120630",
      "elevationUnit": "METERS",
      "longitude": -120.2333
    },
    {
      "elevation": 1020,
      "mindate": "1974-05-01",
      "maxdate": "1991-08-31",
      "latitude": 49.7,
      "name": "BANKIER CHAIN LAKE, CA",
      "datacoverage": 0.9854,
      "id": "GHCND:CA001120633",
      "elevationUnit": "METERS",
      "longitude": -120.2833
    },
    {
      "elevation": 518,
      "mindate": "1970-12-01",
      "maxdate": "1976-06-17",
      "latitude": 49.5833,
      "name": "ARAWANA, CA",
      "datacoverage": 1,
      "id": "GHCND:CA001120M47",
      "elevationUnit": "METERS",
      "longitude": -119.5667
    },
    {
      "elevation": 972,
      "mindate": "1986-07-01",
      "maxdate": "1994-04-30",
      "latitude": 49.8167,
      "name": "BROOKMERE, CA",
      "datacoverage": 1,
      "id": "GHCND:CA001121090",
      "elevationUnit": "METERS",
      "longitude": -120.8667
    },
    {
      "elevation": 398,
      "mindate": "1979-05-01",
      "maxdate": "1992-10-31",
      "latitude": 49.1833,
      "name": "CAWSTON SIMILKAMEEN, CA",
      "datacoverage": 0.4998,
      "id": "GHCND:CA001121459",
      "elevationUnit": "METERS",
      "longitude": -119.7667
    },
    {
      "elevation": 1194,
      "mindate": "1928-09-01",
      "maxdate": "1962-10-31",
      "latitude": 49.6833,
      "name": "CHUTE LAKE, CA",
      "datacoverage": 0.9488,
      "id": "GHCND:CA001121620",
      "elevationUnit": "METERS",
      "longitude": -119.5333
    },
    {
      "elevation": 808,
      "mindate": "1979-06-01",
      "maxdate": "2007-02-27",
      "latitude": 50.1667,
      "name": "DOUGLAS LAKE, CA",
      "datacoverage": 0.8589,
      "id": "GHCND:CA001122541",
      "elevationUnit": "METERS",
      "longitude": -120.2
    },
    {
      "elevation": 1792,
      "mindate": "1914-11-01",
      "maxdate": "1925-02-28",
      "latitude": 50.3667,
      "name": "GLENEMMA, CA",
      "datacoverage": 0.6776,
      "id": "GHCND:CA001123195",
      "elevationUnit": "METERS",
      "longitude": -119.3167
    },
    {
      "elevation": 1037,
      "mindate": "1984-06-01",
      "maxdate": "1985-04-30",
      "latitude": 49.4667,
      "name": "GRANITE CREEK, CA",
      "datacoverage": 0.9113,
      "id": "GHCND:CA001123280",
      "elevationUnit": "METERS",
      "longitude": -120.7333
    },
    {
      "elevation": 517,
      "mindate": "1904-05-01",
      "maxdate": "2005-06-30",
      "latitude": 49.35,
      "name": "HEDLEY, CA",
      "datacoverage": 0.9769,
      "id": "GHCND:CA001123360",
      "elevationUnit": "METERS",
      "longitude": -120.0833
    },
    {
      "elevation": 542,
      "mindate": "2007-05-01",
      "maxdate": "2017-08-20",
      "latitude": 49.3667,
      "name": "HEDLEY N, CA",
      "datacoverage": 0.9996,
      "id": "GHCND:CA001123370",
      "elevationUnit": "METERS",
      "longitude": -120.0667
    },
    {
      "elevation": 1651,
      "mindate": "1904-01-01",
      "maxdate": "2015-02-24",
      "latitude": 49.3667,
      "name": "HEDLEY NATIONAL PARK MINE, CA",
      "datacoverage": 0.4873,
      "id": "GHCND:CA001123390",
      "elevationUnit": "METERS",
      "longitude": -120.0167
    },
    {
      "elevation": 1470,
      "mindate": "1966-12-01",
      "maxdate": "1989-06-30",
      "latitude": 50.5,
      "name": "HIGHLAND VALLEY BCCL, CA",
      "datacoverage": 0.9373,
      "id": "GHCND:CA001123468",
      "elevationUnit": "METERS",
      "longitude": -121
    },
    {
      "elevation": 1268,
      "mindate": "1967-01-01",
      "maxdate": "2011-11-20",
      "latitude": 50.4667,
      "name": "HIGHLAND VALLEY LORNEX, CA",
      "datacoverage": 0.9871,
      "id": "GHCND:CA001123469",
      "elevationUnit": "METERS",
      "longitude": -121.0167
    },
    {
      "elevation": 929,
      "mindate": "1995-08-01",
      "maxdate": "2024-04-28",
      "latitude": 49.6667,
      "name": "JELLICOE, CA",
      "datacoverage": 0.9739,
      "id": "GHCND:CA001123721",
      "elevationUnit": "METERS",
      "longitude": -120.3333
    },
    {
      "elevation": 875,
      "mindate": "1928-09-01",
      "maxdate": "2008-12-31",
      "latitude": 49.85,
      "name": "JOE RICH CREEK, CA",
      "datacoverage": 0.9523,
      "id": "GHCND:CA001123750",
      "elevationUnit": "METERS",
      "longitude": -119.1333
    },
    {
      "elevation": 354,
      "mindate": "1899-03-01",
      "maxdate": "1962-09-30",
      "latitude": 49.9,
      "name": "KELOWNA, CA",
      "datacoverage": 0.9895,
      "id": "GHCND:CA001123930",
      "elevationUnit": "METERS",
      "longitude": -119.4667
    },
    {
      "elevation": 433,
      "mindate": "2009-09-01",
      "maxdate": "2024-04-28",
      "latitude": 49.95,
      "name": "KELOWNA, CA",
      "datacoverage": 1,
      "id": "GHCND:CA001123939",
      "elevationUnit": "METERS",
      "longitude": -119.3833
    },
    {
      "elevation": 430,
      "mindate": "2005-01-01",
      "maxdate": "2010-02-21",
      "latitude": 49.95,
      "name": "KELOWNA AWOS, CA",
      "datacoverage": 1,
      "id": "GHCND:CA001123965",
      "elevationUnit": "METERS",
      "longitude": -119.3833
    },
    {
      "elevation": 430,
      "mindate": "1968-10-01",
      "maxdate": "2005-09-30",
      "latitude": 49.95,
      "name": "KELOWNA A, CA",
      "datacoverage": 0.9843,
      "id": "GHCND:CA001123970",
      "elevationUnit": "METERS",
      "longitude": -119.3833
    },
    {
      "elevation": 430,
      "mindate": "1914-03-01",
      "maxdate": "1931-06-30",
      "latitude": 49.9,
      "name": "KELOWNA BANKHEAD, CA",
      "datacoverage": 0.9423,
      "id": "GHCND:CA001123972",
      "elevationUnit": "METERS",
      "longitude": -119.3
    },
    {
      "elevation": 351,
      "mindate": "1961-08-01",
      "maxdate": "1969-11-11",
      "latitude": 49.8833,
      "name": "KELOWNA BOWES STREET, CA",
      "datacoverage": 0.9999,
      "id": "GHCND:CA001123975",
      "elevationUnit": "METERS",
      "longitude": -119.4667
    },
    {
      "elevation": 480,
      "mindate": "1994-05-01",
      "maxdate": "1995-10-31",
      "latitude": 49.8667,
      "name": "KELOWNA BYLANDS, CA",
      "datacoverage": 0.8889,
      "id": "GHCND:CA001123977",
      "elevationUnit": "METERS",
      "longitude": -119.5833
    },
    {
      "elevation": 485,
      "mindate": "1950-01-01",
      "maxdate": "1970-04-30",
      "latitude": 49.8667,
      "name": "KELOWNA CDA, CA",
      "datacoverage": 1,
      "id": "GHCND:CA001123980",
      "elevationUnit": "METERS",
      "longitude": -119.4167
    },
    {
      "elevation": 375,
      "mindate": "1994-05-01",
      "maxdate": "2008-11-30",
      "latitude": 49.7833,
      "name": "KELOWNA CEDARCREEK, CA",
      "datacoverage": 0.7941,
      "id": "GHCND:CA001123981",
      "elevationUnit": "METERS",
      "longitude": -119.5333
    },
    {
      "elevation": 375,
      "mindate": "1978-06-01",
      "maxdate": "2004-09-30",
      "latitude": 49.85,
      "name": "KELOWNA DAV SPIERS ROAD, CA",
      "datacoverage": 0.5126,
      "id": "GHCND:CA001123982",
      "elevationUnit": "METERS",
      "longitude": -119.45
    },
    {
      "elevation": 491,
      "mindate": "1980-08-01",
      "maxdate": "2000-11-30",
      "latitude": 49.8667,
      "name": "KELOWNA EAST, CA",
      "datacoverage": 0.9918,
      "id": "GHCND:CA001123984",
      "elevationUnit": "METERS",
      "longitude": -119.4
    },
    {
      "elevation": 525,
      "mindate": "1952-05-01",
      "maxdate": "2000-01-31",
      "latitude": 49.8667,
      "name": "KELOWNA LAKEVIEW, CA",
      "datacoverage": 0.4555,
      "id": "GHCND:CA001123990",
      "elevationUnit": "METERS",
      "longitude": -119.55
    },
    {
      "elevation": 350,
      "mindate": "1969-01-01",
      "maxdate": "2003-04-30",
      "latitude": 49.8667,
      "name": "KELOWNA PC BURNETTS NURSERY, CA",
      "datacoverage": 0.9905,
      "id": "GHCND:CA001123992",
      "elevationUnit": "METERS",
      "longitude": -119.4833
    },
    {
      "elevation": 417,
      "mindate": "1995-06-01",
      "maxdate": "2014-04-07",
      "latitude": 49.85,
      "name": "KELOWNA QUAILS GATE, CA",
      "datacoverage": 0.9692,
      "id": "GHCND:CA001123993",
      "elevationUnit": "METERS",
      "longitude": -119.5667
    },
    {
      "elevation": 456,
      "mindate": "1994-01-01",
      "maxdate": "2017-06-30",
      "latitude": 49.95,
      "name": "KELOWNA MWS0, CA",
      "datacoverage": 0.9402,
      "id": "GHCND:CA0011239R0",
      "elevationUnit": "METERS",
      "longitude": -119.4
    },
    {
      "elevation": 415,
      "mindate": "1891-01-01",
      "maxdate": "1995-05-31",
      "latitude": 49.2,
      "name": "KEREMEOS, CA",
      "datacoverage": 0.6585,
      "id": "GHCND:CA001124110",
      "elevationUnit": "METERS",
      "longitude": -119.8167
    },
    {
      "elevation": 435,
      "mindate": "1924-01-01",
      "maxdate": "2000-08-31",
      "latitude": 49.2167,
      "name": "KEREMEOS 2, CA",
      "datacoverage": 0.5272,
      "id": "GHCND:CA001124112",
      "elevationUnit": "METERS",
      "longitude": -119.8167
    },
    {
      "elevation": 416,
      "mindate": "1962-08-01",
      "maxdate": "1966-06-30",
      "latitude": 49.2167,
      "name": "KEREMEOS WEST, CA",
      "datacoverage": 0.9578,
      "id": "GHCND:CA001124118",
      "elevationUnit": "METERS",
      "longitude": -119.8333
    },
    {
      "elevation": 884,
      "mindate": "1928-09-01",
      "maxdate": "1962-04-30",
      "latitude": 49.6667,
      "name": "KIRTON, CA",
      "datacoverage": 0.9779,
      "id": "GHCND:CA001124260",
      "elevationUnit": "METERS",
      "longitude": -119.95
    },
    {
      "elevation": 1305,
      "mindate": "1984-11-01",
      "maxdate": "1988-01-31",
      "latitude": 50.4833,
      "name": "LAC LE JEUNE WALLOPER LK, CA",
      "datacoverage": 0.9744,
      "id": "GHCND:CA001124460",
      "elevationUnit": "METERS",
      "longitude": -120.5333
    },
    {
      "elevation": 1101,
      "mindate": "1971-10-01",
      "maxdate": "2005-10-31",
      "latitude": 50.5,
      "name": "LOGAN LAKE, CA",
      "datacoverage": 0.6528,
      "id": "GHCND:CA001124668",
      "elevationUnit": "METERS",
      "longitude": -120.8167
    },
    {
      "elevation": 1006,
      "mindate": "1924-01-01",
      "maxdate": "1965-03-31",
      "latitude": 50.3833,
      "name": "MAMIT LAKE, CA",
      "datacoverage": 0.9253,
      "id": "GHCND:CA001124860",
      "elevationUnit": "METERS",
      "longitude": -120.8
    },
    {
      "elevation": 1198,
      "mindate": "1952-12-01",
      "maxdate": "1961-04-21",
      "latitude": 49.0667,
      "name": "MANNING PARK, CA",
      "datacoverage": 1,
      "id": "GHCND:CA001124890",
      "elevationUnit": "METERS",
      "longitude": -120.7833
    },
    {
      "elevation": 1250,
      "mindate": "1923-11-01",
      "maxdate": "1996-02-29",
      "latitude": 49.8,
      "name": "MCCULLOCH, CA",
      "datacoverage": 0.9793,
      "id": "GHCND:CA001124980",
      "elevationUnit": "METERS",
      "longitude": -119.2
    },
    {
      "elevation": 1207,
      "mindate": "1980-06-01",
      "maxdate": "1986-11-30",
      "latitude": 50.4667,
      "name": "MEADOWGREEN, CA",
      "datacoverage": 0.9744,
      "id": "GHCND:CA001125060",
      "elevationUnit": "METERS",
      "longitude": -120.6833
    },
    {
      "elevation": 585,
      "mindate": "1918-11-01",
      "maxdate": "1966-12-31",
      "latitude": 50.1167,
      "name": "MERRITT, CA",
      "datacoverage": 0.7958,
      "id": "GHCND:CA001125070",
      "elevationUnit": "METERS",
      "longitude": -120.8
    },
    {
      "elevation": 591,
      "mindate": "2011-05-01",
      "maxdate": "2024-04-28",
      "latitude": 50.1167,
      "name": "MERRITT, CA",
      "datacoverage": 0.9995,
      "id": "GHCND:CA001125073",
      "elevationUnit": "METERS",
      "longitude": -120.7833
    },
    {
      "elevation": 732,
      "mindate": "1962-02-01",
      "maxdate": "1976-04-30",
      "latitude": 50.2,
      "name": "MERRITT CRAIGMONT MINES, CA",
      "datacoverage": 0.9945,
      "id": "GHCND:CA001125075",
      "elevationUnit": "METERS",
      "longitude": -120.8833
    },
    {
      "elevation": 609,
      "mindate": "1968-08-01",
      "maxdate": "2024-04-26",
      "latitude": 50.1167,
      "name": "MERRITT STP, CA",
      "datacoverage": 0.9983,
      "id": "GHCND:CA001125079",
      "elevationUnit": "METERS",
      "longitude": -120.8
    },
    {
      "elevation": 1862,
      "mindate": "1966-06-01",
      "maxdate": "1980-08-31",
      "latitude": 49.1167,
      "name": "MOUNT KOBAU OBSERVATORY, CA",
      "datacoverage": 0.9883,
      "id": "GHCND:CA001125223",
      "elevationUnit": "METERS",
      "longitude": -119.6833
    },
    {
      "elevation": 366,
      "mindate": "1924-01-01",
      "maxdate": "1936-12-31",
      "latitude": 49.6167,
      "name": "NARAMATA, CA",
      "datacoverage": 1,
      "id": "GHCND:CA001125380",
      "elevationUnit": "METERS",
      "longitude": -119.6
    },
    {
      "elevation": 411,
      "mindate": "1971-04-01",
      "maxdate": "2004-02-29",
      "latitude": 49.55,
      "name": "NARAMATA, CA",
      "datacoverage": 0.6532,
      "id": "GHCND:CA001125381",
      "elevationUnit": "METERS",
      "longitude": -119.5667
    },
    {
      "elevation": 1317,
      "mindate": "1990-07-01",
      "maxdate": "1997-08-31",
      "latitude": 50.1333,
      "name": "NICKLEN LAKE, CA",
      "datacoverage": 0.9879,
      "id": "GHCND:CA001125570",
      "elevationUnit": "METERS",
      "longitude": -119
    },
    {
      "elevation": 646,
      "mindate": "1878-01-01",
      "maxdate": "1918-10-31",
      "latitude": 50.15,
      "name": "NICOLA LAKE, CA",
      "datacoverage": 0.9695,
      "id": "GHCND:CA001125585",
      "elevationUnit": "METERS",
      "longitude": -120.65
    },
    {
      "elevation": 633,
      "mindate": "1979-06-01",
      "maxdate": "1985-02-28",
      "latitude": 50.25,
      "name": "NICOLA LAKE, CA",
      "datacoverage": 1,
      "id": "GHCND:CA001125586",
      "elevationUnit": "METERS",
      "longitude": -120.45
    },
    {
      "elevation": 642,
      "mindate": "1984-12-01",
      "maxdate": "1992-10-31",
      "latitude": 50.1667,
      "name": "NICOLA LAKE W END, CA",
      "datacoverage": 0.9157,
      "id": "GHCND:CA001125590",
      "elevationUnit": "METERS",
      "longitude": -120.6333
    },
    {
      "elevation": 501,
      "mindate": "1925-03-01",
      "maxdate": "2022-05-24",
      "latitude": 50.05,
      "name": "OKANAGAN CENTRE, CA",
      "datacoverage": 0.9771,
      "id": "GHCND:CA001125700",
      "elevationUnit": "METERS",
      "longitude": -119.45
    },
    {
      "elevation": 503,
      "mindate": "1965-06-01",
      "maxdate": "1968-09-30",
      "latitude": 49.35,
      "name": "OKANAGAN FALLS, CA",
      "datacoverage": 0.9496,
      "id": "GHCND:CA001125701",
      "elevationUnit": "METERS",
      "longitude": -119.5333
    },
    {
      "elevation": 408,
      "mindate": "1970-11-01",
      "maxdate": "1985-09-30",
      "latitude": 49.8,
      "name": "OKANAGAN MISSION, CA",
      "datacoverage": 0.9994,
      "id": "GHCND:CA001125703",
      "elevationUnit": "METERS",
      "longitude": -119.5167
    },
    {
      "elevation": 359,
      "mindate": "1984-12-01",
      "maxdate": "1992-02-29",
      "latitude": 49.8167,
      "name": "OKANAGAN MISSION TOZER, CA",
      "datacoverage": 1,
      "id": "GHCND:CA001125707",
      "elevationUnit": "METERS",
      "longitude": -119.4833
    },
    {
      "elevation": 455,
      "mindate": "1982-12-01",
      "maxdate": "1991-05-31",
      "latitude": 49.35,
      "name": "OK FALLS MCLEAN CRK, CA",
      "datacoverage": 1,
      "id": "GHCND:CA001125712",
      "elevationUnit": "METERS",
      "longitude": -119.5333
    },
    {
      "elevation": 315,
      "mindate": "1938-06-01",
      "maxdate": "2008-10-21",
      "latitude": 49.1667,
      "name": "OLIVER, CA",
      "datacoverage": 0.9846,
      "id": "GHCND:CA001125760",
      "elevationUnit": "METERS",
      "longitude": -119.5667
    },
    {
      "elevation": 335,
      "mindate": "1962-08-01",
      "maxdate": "1967-02-28",
      "latitude": 49.1833,
      "name": "OLIVER EAST, CA",
      "datacoverage": 0.9991,
      "id": "GHCND:CA001125765",
      "elevationUnit": "METERS",
      "longitude": -119.5333
    },
    {
      "elevation": 297,
      "mindate": "1924-01-01",
      "maxdate": "2022-05-31",
      "latitude": 49.1833,
      "name": "OLIVER STP, CA",
      "datacoverage": 0.9928,
      "id": "GHCND:CA001125766",
      "elevationUnit": "METERS",
      "longitude": -119.55
    },
    {
      "elevation": 280,
      "mindate": "1991-12-01",
      "maxdate": "1995-08-31",
      "latitude": 49.1833,
      "name": "OLIVER 3, CA",
      "datacoverage": 0.9998,
      "id": "GHCND:CA001125779",
      "elevationUnit": "METERS",
      "longitude": -119.55
    },
    {
      "elevation": 375,
      "mindate": "1978-06-01",
      "maxdate": "1978-09-30",
      "latitude": 49.1167,
      "name": "OLIVER MONASHEE VINEYARD, CA",
      "datacoverage": 1,
      "id": "GHCND:CA0011257FN",
      "elevationUnit": "METERS",
      "longitude": -119.55
    },
    {
      "elevation": 297,
      "mindate": "1954-04-01",
      "maxdate": "1991-11-15",
      "latitude": 49.0333,
      "name": "OSOYOOS, CA",
      "datacoverage": 0.8429,
      "id": "GHCND:CA001125850",
      "elevationUnit": "METERS",
      "longitude": -119.4333
    },
    {
      "elevation": 283,
      "mindate": "1990-08-01",
      "maxdate": "2024-04-28",
      "latitude": 49.0333,
      "name": "OSOYOOS CS, CA",
      "datacoverage": 0.9967,
      "id": "GHCND:CA001125852",
      "elevationUnit": "METERS",
      "longitude": -119.4333
    },
    {
      "elevation": 329,
      "mindate": "1962-08-01",
      "maxdate": "1964-05-31",
      "latitude": 49.0167,
      "name": "OSOYOOS EAST, CA",
      "datacoverage": 0.9994,
      "id": "GHCND:CA001125855",
      "elevationUnit": "METERS",
      "longitude": -119.4333
    },
    {
      "elevation": 297,
      "mindate": "1967-04-01",
      "maxdate": "2009-09-15",
      "latitude": 49.0333,
      "name": "OSOYOOS WEST, CA",
      "datacoverage": 0.9843,
      "id": "GHCND:CA001125865",
      "elevationUnit": "METERS",
      "longitude": -119.45
    },
    {
      "elevation": 1099,
      "mindate": "1928-09-01",
      "maxdate": "1952-05-31",
      "latitude": 49.7,
      "name": "OSPREY LAKE, CA",
      "datacoverage": 1,
      "id": "GHCND:CA001125880",
      "elevationUnit": "METERS",
      "longitude": -120.1833
    },
    {
      "elevation": 440,
      "mindate": "1965-06-01",
      "maxdate": "1997-10-31",
      "latitude": 50.1167,
      "name": "OYAMA, CA",
      "datacoverage": 0.9871,
      "id": "GHCND:CA001125907",
      "elevationUnit": "METERS",
      "longitude": -119.3667
    },
    {
      "elevation": 335,
      "mindate": "1970-11-01",
      "maxdate": "1982-05-31",
      "latitude": 49.3167,
      "name": "OKANAGAN FALLS 2 S, CA",
      "datacoverage": 1,
      "id": "GHCND:CA001125G0A",
      "elevationUnit": "METERS",
      "longitude": -119.55
    },
    {
      "elevation": 345,
      "mindate": "1971-03-01",
      "maxdate": "2024-04-28",
      "latitude": 49.7833,
      "name": "PEACHLAND, CA",
      "datacoverage": 0.7868,
      "id": "GHCND:CA001126070",
      "elevationUnit": "METERS",
      "longitude": -119.7167
    },
    {
      "elevation": 351,
      "mindate": "1973-07-01",
      "maxdate": "1981-12-31",
      "latitude": 49.7833,
      "name": "PEACHLAND, CA",
      "datacoverage": 1,
      "id": "GHCND:CA001126071",
      "elevationUnit": "METERS",
      "longitude": -119.7167
    },
    {
      "elevation": 1520,
      "mindate": "1968-04-01",
      "maxdate": "1993-10-30",
      "latitude": 49.8667,
      "name": "PEACHLAND BRENDA MINES, CA",
      "datacoverage": 0.9967,
      "id": "GHCND:CA001126077",
      "elevationUnit": "METERS",
      "longitude": -120
    },
    {
      "elevation": 398,
      "mindate": "1994-06-01",
      "maxdate": "2008-06-30",
      "latitude": 49.7,
      "name": "PEACHLAND GREATA RANCH, CA",
      "datacoverage": 0.9171,
      "id": "GHCND:CA001126078",
      "elevationUnit": "METERS",
      "longitude": -119.7333
    },
    {
      "elevation": 610,
      "mindate": "1982-01-01",
      "maxdate": "1982-04-30",
      "latitude": 49.7667,
      "name": "PEACHLAND MINOS ROCK, CA",
      "datacoverage": 1,
      "id": "GHCND:CA001126079",
      "elevationUnit": "METERS",
      "longitude": -119.75
    },
    {
      "elevation": 549,
      "mindate": "1924-10-01",
      "maxdate": "1943-05-31",
      "latitude": 49.7833,
      "name": "PEACHLAND TREPANIER CR, CA",
      "datacoverage": 1,
      "id": "GHCND:CA001126080",
      "elevationUnit": "METERS",
      "longitude": -119.8333
    },
    {
      "elevation": 1420,
      "mindate": "1970-05-01",
      "maxdate": "1972-09-30",
      "latitude": 50,
      "name": "PENNASK LAKE LODGE, CA",
      "datacoverage": 0.3111,
      "id": "GHCND:CA001126135",
      "elevationUnit": "METERS",
      "longitude": -120.15
    },
    {
      "elevation": 348,
      "mindate": "1907-04-01",
      "maxdate": "1965-09-30",
      "latitude": 49.4833,
      "name": "PENTICTON, CA",
      "datacoverage": 0.9369,
      "id": "GHCND:CA001126145",
      "elevationUnit": "METERS",
      "longitude": -119.5833
    },
    {
      "elevation": 344,
      "mindate": "2012-05-01",
      "maxdate": "2024-04-28",
      "latitude": 49.4667,
      "name": "PENTICTON A, CA",
      "datacoverage": 0.9997,
      "id": "GHCND:CA001126146",
      "elevationUnit": "METERS",
      "longitude": -119.6
    },
    {
      "elevation": 344,
      "mindate": "1941-04-01",
      "maxdate": "2012-05-09",
      "latitude": 49.4667,
      "name": "PENTICTON A, CA",
      "datacoverage": 1,
      "id": "GHCND:CA001126150",
      "elevationUnit": "METERS",
      "longitude": -119.6
    },
    {
      "elevation": 344,
      "mindate": "1954-10-01",
      "maxdate": "1969-11-30",
      "latitude": 49.5,
      "name": "PENTICTON SEWAGE PLANT, CA",
      "datacoverage": 0.9615,
      "id": "GHCND:CA001126160",
      "elevationUnit": "METERS",
      "longitude": -119.6
    },
    {
      "elevation": 633,
      "mindate": "1893-06-01",
      "maxdate": "1942-05-31",
      "latitude": 49.4333,
      "name": "PRINCETON, CA",
      "datacoverage": 0.949,
      "id": "GHCND:CA001126505",
      "elevationUnit": "METERS",
      "longitude": -120.5
    },
    {
      "elevation": 702,
      "mindate": "1936-11-01",
      "maxdate": "2024-04-28",
      "latitude": 49.4667,
      "name": "PRINCETON A, CA",
      "datacoverage": 0.9958,
      "id": "GHCND:CA001126510",
      "elevationUnit": "METERS",
      "longitude": -120.5167
    },
    {
      "elevation": 975,
      "mindate": "1971-11-01",
      "maxdate": "1984-11-30",
      "latitude": 49.5333,
      "name": "PRINCETON 8 NE, CA",
      "datacoverage": 0.9999,
      "id": "GHCND:CA001126514",
      "elevationUnit": "METERS",
      "longitude": -120.4333
    },
    {
      "elevation": 914,
      "mindate": "1926-01-01",
      "maxdate": "1947-10-31",
      "latitude": 49.9667,
      "name": "RUTLAND MISSION CREEK, CA",
      "datacoverage": 1,
      "id": "GHCND:CA001126915",
      "elevationUnit": "METERS",
      "longitude": -119.45
    },
    {
      "elevation": 1229,
      "mindate": "1980-10-01",
      "maxdate": "1995-04-30",
      "latitude": 49.3333,
      "name": "SIMILKAMEEN COPPER MOUNTAIN, CA",
      "datacoverage": 0.9831,
      "id": "GHCND:CA001127358",
      "elevationUnit": "METERS",
      "longitude": -120.5167
    },
    {
      "elevation": 940,
      "mindate": "1974-03-01",
      "maxdate": "1996-07-31",
      "latitude": 49.35,
      "name": "SIMILKAMEEN MINE, CA",
      "datacoverage": 0.959,
      "id": "GHCND:CA001127360",
      "elevationUnit": "METERS",
      "longitude": -120.55
    },
    {
      "elevation": 335,
      "mindate": "1907-07-01",
      "maxdate": "1923-06-30",
      "latitude": 49.6,
      "name": "SUMMERLAND, CA",
      "datacoverage": 1,
      "id": "GHCND:CA001127798",
      "elevationUnit": "METERS",
      "longitude": -119.6667
    },
    {
      "elevation": 455,
      "mindate": "1916-01-01",
      "maxdate": "1995-03-31",
      "latitude": 49.5667,
      "name": "SUMMERLAND CDA, CA",
      "datacoverage": 1,
      "id": "GHCND:CA001127800",
      "elevationUnit": "METERS",
      "longitude": -119.65
    },
    {
      "elevation": 346,
      "mindate": "1949-06-01",
      "maxdate": "1964-09-30",
      "latitude": 49.5667,
      "name": "SUMMERLAND CDA EL, CA",
      "datacoverage": 0.9838,
      "id": "GHCND:CA001127830",
      "elevationUnit": "METERS",
      "longitude": -119.6333
    }
  ]
}
