{
  "metadata": {
    "resultset": {
      "offset": 48200,
      "count": 154115,
      "limit": 100
    }
  },
  "results": [
    {
      "elevation": 948,
      "mindate": "2002-04-01",
      "maxdate": "2024-04-28",
      "latitude": 49.1333,
      "name": "MASINASIN AGDM, CA",
      "datacoverage": 0.9999,
      "id": "GHCND:CA003044232",
      "elevationUnit": "METERS",
      "longitude": -111.65
    },
    {
      "elevation": 1050,
      "mindate": "1994-11-01",
      "maxdate": "2024-04-28",
      "latitude": 49.1333,
      "name": "MILK RIVER, CA",
      "datacoverage": 1,
      "id": "GHCND:CA003044533",
      "elevationUnit": "METERS",
      "longitude": -112.05
    },
    {
      "elevation": 975,
      "mindate": "1959-04-01",
      "maxdate": "1980-04-30",
      "latitude": 49.1667,
      "name": "MILK RIVER, CA",
      "datacoverage": 0.9802,
      "id": "GHCND:CA003044534",
      "elevationUnit": "METERS",
      "longitude": -111.5333
    },
    {
      "elevation": 1046,
      "mindate": "1955-01-01",
      "maxdate": "1963-03-31",
      "latitude": 49.0833,
      "name": "MILK RIVER EXPERIMENTAL ST, CA",
      "datacoverage": 1,
      "id": "GHCND:CA003044540",
      "elevationUnit": "METERS",
      "longitude": -112.05
    },
    {
      "elevation": 1305,
      "mindate": "2007-03-01",
      "maxdate": "2014-08-10",
      "latitude": 49.2833,
      "name": "MILK RIVER RIDGE RESERVOIR, CA",
      "datacoverage": 0.9994,
      "id": "GHCND:CA003044545",
      "elevationUnit": "METERS",
      "longitude": -112.5333
    },
    {
      "elevation": 956,
      "mindate": "1960-05-01",
      "maxdate": "1960-10-31",
      "latitude": 49.3167,
      "name": "MILK R VERDIGRIS L, CA",
      "datacoverage": 1,
      "id": "GHCND:CA003044550",
      "elevationUnit": "METERS",
      "longitude": -112.0333
    },
    {
      "elevation": 1036,
      "mindate": "1966-05-01",
      "maxdate": "1969-11-30",
      "latitude": 49.2,
      "name": "MILK R VERDIGRIS L, CA",
      "datacoverage": 0.9992,
      "id": "GHCND:CA003044551",
      "elevationUnit": "METERS",
      "longitude": -112.0333
    },
    {
      "elevation": 935,
      "mindate": "1994-03-01",
      "maxdate": "2024-04-28",
      "latitude": 49.1167,
      "name": "ONEFOUR CDA, CA",
      "datacoverage": 0.9923,
      "id": "GHCND:CA003044923",
      "elevationUnit": "METERS",
      "longitude": -110.4667
    },
    {
      "elevation": 944,
      "mindate": "2002-12-01",
      "maxdate": "2007-10-31",
      "latitude": 49.5,
      "name": "ORION, CA",
      "datacoverage": 0.9991,
      "id": "GHCND:CA003044930",
      "elevationUnit": "METERS",
      "longitude": -110.8167
    },
    {
      "elevation": 915,
      "mindate": "2007-09-01",
      "maxdate": "2024-04-28",
      "latitude": 49.2167,
      "name": "PAKOWKI LAKE AGCM, CA",
      "datacoverage": 0.9903,
      "id": "GHCND:CA003045000",
      "elevationUnit": "METERS",
      "longitude": -111.1333
    },
    {
      "elevation": 1158,
      "mindate": "1977-07-01",
      "maxdate": "1984-08-31",
      "latitude": 49.2167,
      "name": "POTHOLE MCINTYRE, CA",
      "datacoverage": 0.9991,
      "id": "GHCND:CA003045293",
      "elevationUnit": "METERS",
      "longitude": -112.85
    },
    {
      "elevation": 1010,
      "mindate": "1955-01-01",
      "maxdate": "1966-10-31",
      "latitude": 49.2833,
      "name": "WARNER, CA",
      "datacoverage": 0.7395,
      "id": "GHCND:CA003046950",
      "elevationUnit": "METERS",
      "longitude": -112.2
    },
    {
      "elevation": 945,
      "mindate": "1963-09-01",
      "maxdate": "1967-01-31",
      "latitude": 49.2667,
      "name": "WARNER EAST, CA",
      "datacoverage": 0.9991,
      "id": "GHCND:CA003046952",
      "elevationUnit": "METERS",
      "longitude": -111.7833
    },
    {
      "elevation": 1109,
      "mindate": "1978-10-01",
      "maxdate": "2004-09-30",
      "latitude": 49.2833,
      "name": "WARNER WEST, CA",
      "datacoverage": 0.907,
      "id": "GHCND:CA003046953",
      "elevationUnit": "METERS",
      "longitude": -112.4167
    },
    {
      "elevation": 1311,
      "mindate": "1965-11-01",
      "maxdate": "1985-04-30",
      "latitude": 49.0167,
      "name": "WHISKEY GAP, CA",
      "datacoverage": 1,
      "id": "GHCND:CA003047365",
      "elevationUnit": "METERS",
      "longitude": -112.95
    },
    {
      "elevation": 899,
      "mindate": "1981-04-01",
      "maxdate": "1988-09-30",
      "latitude": 49.0833,
      "name": "WRITING ON STONE PARK, CA",
      "datacoverage": 0.9887,
      "id": "GHCND:CA003047670",
      "elevationUnit": "METERS",
      "longitude": -111.6167
    },
    {
      "elevation": 701,
      "mindate": "1969-12-01",
      "maxdate": "1970-08-31",
      "latitude": 49.2667,
      "name": "KETCHUM CREEK, CA",
      "datacoverage": 0.7883,
      "id": "GHCND:CA00304CFDC",
      "elevationUnit": "METERS",
      "longitude": -111.55
    },
    {
      "elevation": 951,
      "mindate": "1986-07-01",
      "maxdate": "1990-10-31",
      "latitude": 49.2667,
      "name": "FLORANN, CA",
      "datacoverage": 0.8263,
      "id": "GHCND:CA00304KFL0",
      "elevationUnit": "METERS",
      "longitude": -111.4
    },
    {
      "elevation": 1800,
      "mindate": "2003-01-01",
      "maxdate": "2007-11-30",
      "latitude": 49.0333,
      "name": "AKAMINA PASS, CA",
      "datacoverage": 0.9665,
      "id": "GHCND:CA0030500FR",
      "elevationUnit": "METERS",
      "longitude": -114.05
    },
    {
      "elevation": 1387,
      "mindate": "1929-03-01",
      "maxdate": "1962-02-28",
      "latitude": 51.2,
      "name": "ANTHRACITE, CA",
      "datacoverage": 0.9924,
      "id": "GHCND:CA003050240",
      "elevationUnit": "METERS",
      "longitude": -115.5
    },
    {
      "elevation": 2083,
      "mindate": "1960-06-01",
      "maxdate": "2011-09-28",
      "latitude": 52.55,
      "name": "BALDY LO, CA",
      "datacoverage": 0.4675,
      "id": "GHCND:CA003050490",
      "elevationUnit": "METERS",
      "longitude": -116.1167
    },
    {
      "elevation": 1397,
      "mindate": "1995-04-01",
      "maxdate": "2024-04-28",
      "latitude": 51.2,
      "name": "BANFF CS, CA",
      "datacoverage": 0.9999,
      "id": "GHCND:CA003050519",
      "elevationUnit": "METERS",
      "longitude": -115.55
    },
    {
      "elevation": 1384,
      "mindate": "1887-11-01",
      "maxdate": "2025-03-06",
      "latitude": 51.1833,
      "name": "BANFF, CA",
      "datacoverage": 0.9747,
      "id": "GHCND:CA003050520",
      "elevationUnit": "METERS",
      "longitude": -115.5667
    },
    {
      "elevation": 1397,
      "mindate": "1992-12-01",
      "maxdate": "1997-12-16",
      "latitude": 51.1833,
      "name": "BANFF AUT, CA",
      "datacoverage": 0.9671,
      "id": "GHCND:CA003050521",
      "elevationUnit": "METERS",
      "longitude": -115.5667
    },
    {
      "elevation": 1370,
      "mindate": "2001-09-01",
      "maxdate": "2007-08-31",
      "latitude": 51.1667,
      "name": "BANFF SPRINGS, CA",
      "datacoverage": 0.2362,
      "id": "GHCND:CA003050526",
      "elevationUnit": "METERS",
      "longitude": -115.55
    },
    {
      "elevation": 2021,
      "mindate": "1995-05-01",
      "maxdate": "2011-09-01",
      "latitude": 51.05,
      "name": "BARRIER LAKE, CA",
      "datacoverage": 0.4619,
      "id": "GHCND:CA003050533",
      "elevationUnit": "METERS",
      "longitude": -115.0833
    },
    {
      "elevation": 1257,
      "mindate": "1912-11-01",
      "maxdate": "2012-03-31",
      "latitude": 49.4667,
      "name": "BEAVER MINES, CA",
      "datacoverage": 0.9883,
      "id": "GHCND:CA003050600",
      "elevationUnit": "METERS",
      "longitude": -114.1833
    },
    {
      "elevation": 1257,
      "mindate": "2012-02-01",
      "maxdate": "2024-04-28",
      "latitude": 49.4667,
      "name": "BEAVER MINES, CA",
      "datacoverage": 1,
      "id": "GHCND:CA003050602",
      "elevationUnit": "METERS",
      "longitude": -114.1833
    },
    {
      "elevation": 1341,
      "mindate": "1969-10-01",
      "maxdate": "2010-09-27",
      "latitude": 52.3167,
      "name": "BIGHORN DAM, CA",
      "datacoverage": 0.9858,
      "id": "GHCND:CA0030506GN",
      "elevationUnit": "METERS",
      "longitude": -116.3333
    },
    {
      "elevation": 1951,
      "mindate": "1962-05-01",
      "maxdate": "2011-09-16",
      "latitude": 51.7,
      "name": "BLUEHILL LO, CA",
      "datacoverage": 0.4721,
      "id": "GHCND:CA003050725",
      "elevationUnit": "METERS",
      "longitude": -115.2167
    },
    {
      "elevation": 1372,
      "mindate": "1971-10-01",
      "maxdate": "1983-03-31",
      "latitude": 49.8833,
      "name": "BOB CREEK, CA",
      "datacoverage": 0.9711,
      "id": "GHCND:CA003050731",
      "elevationUnit": "METERS",
      "longitude": -114.25
    },
    {
      "elevation": 1298,
      "mindate": "1993-06-01",
      "maxdate": "2024-04-28",
      "latitude": 51.0833,
      "name": "BOW VALLEY, CA",
      "datacoverage": 0.9817,
      "id": "GHCND:CA003050778",
      "elevationUnit": "METERS",
      "longitude": -115.0667
    },
    {
      "elevation": 1318,
      "mindate": "1967-05-01",
      "maxdate": "1990-05-31",
      "latitude": 51.0833,
      "name": "BOW VALLEY PROV PARK, CA",
      "datacoverage": 0.592,
      "id": "GHCND:CA003050779",
      "elevationUnit": "METERS",
      "longitude": -115.0667
    },
    {
      "elevation": 1311,
      "mindate": "1971-06-01",
      "maxdate": "1999-10-31",
      "latitude": 49.6167,
      "name": "BLAIRMORE HQTS RANGER STATION, CA",
      "datacoverage": 0.7038,
      "id": "GHCND:CA0030507AC",
      "elevationUnit": "METERS",
      "longitude": -114.4333
    },
    {
      "elevation": 1115,
      "mindate": "2007-03-01",
      "maxdate": "2014-01-10",
      "latitude": 49.3,
      "name": "BULLHORN COULEE RESERVOIR, CA",
      "datacoverage": 0.9991,
      "id": "GHCND:CA003050960",
      "elevationUnit": "METERS",
      "longitude": -113.3667
    },
    {
      "elevation": 1326,
      "mindate": "2007-03-01",
      "maxdate": "2013-07-01",
      "latitude": 49.15,
      "name": "BULLHORN HEADWATERS, CA",
      "datacoverage": 0.9991,
      "id": "GHCND:CA003050965",
      "elevationUnit": "METERS",
      "longitude": -113.55
    },
    {
      "elevation": 1875,
      "mindate": "1999-03-01",
      "maxdate": "2007-11-29",
      "latitude": 50.6167,
      "name": "BURNS CREEK, CA",
      "datacoverage": 0.9986,
      "id": "GHCND:CA003050974",
      "elevationUnit": "METERS",
      "longitude": -114.8833
    },
    {
      "elevation": 2317,
      "mindate": "1975-07-01",
      "maxdate": "1986-09-10",
      "latitude": 51.5,
      "name": "BURNT TIMBER LO, CA",
      "datacoverage": 0.4221,
      "id": "GHCND:CA003050978",
      "elevationUnit": "METERS",
      "longitude": -115.3833
    },
    {
      "elevation": 2080,
      "mindate": "1998-02-01",
      "maxdate": "2007-11-30",
      "latitude": 51.7,
      "name": "AE BOW SUMMIT, CA",
      "datacoverage": 0.6952,
      "id": "GHCND:CA003050PPF",
      "elevationUnit": "METERS",
      "longitude": -116.4667
    },
    {
      "elevation": 1311,
      "mindate": "1975-03-01",
      "maxdate": "1995-12-31",
      "latitude": 49.05,
      "name": "CAMERON FALLS, CA",
      "datacoverage": 0.9958,
      "id": "GHCND:CA003051165",
      "elevationUnit": "METERS",
      "longitude": -113.9167
    },
    {
      "elevation": 1798,
      "mindate": "1961-06-01",
      "maxdate": "2011-08-23",
      "latitude": 49.4333,
      "name": "CARBONDALE LO, CA",
      "datacoverage": 0.4063,
      "id": "GHCND:CA003051310",
      "elevationUnit": "METERS",
      "longitude": -114.3667
    },
    {
      "elevation": 1524,
      "mindate": "1983-06-01",
      "maxdate": "2001-02-28",
      "latitude": 51.2667,
      "name": "CASTLE MOUNTAIN VILLAGE, CA",
      "datacoverage": 0.9061,
      "id": "GHCND:CA003051424",
      "elevationUnit": "METERS",
      "longitude": -115.9167
    },
    {
      "elevation": 1360,
      "mindate": "1958-07-01",
      "maxdate": "2011-09-01",
      "latitude": 49.4,
      "name": "CASTLE, CA",
      "datacoverage": 0.636,
      "id": "GHCND:CA003051430",
      "elevationUnit": "METERS",
      "longitude": -114.3333
    },
    {
      "elevation": 1510,
      "mindate": "1998-11-01",
      "maxdate": "2007-11-30",
      "latitude": 49.7167,
      "name": "CHAPEL ROCK, CA",
      "datacoverage": 0.7983,
      "id": "GHCND:CA003051478",
      "elevationUnit": "METERS",
      "longitude": -114.2833
    },
    {
      "elevation": 1372,
      "mindate": "2003-03-01",
      "maxdate": "2007-11-30",
      "latitude": 49,
      "name": "CHIEF CUSTOMS, CA",
      "datacoverage": 0.9806,
      "id": "GHCND:CA003051545",
      "elevationUnit": "METERS",
      "longitude": -113.6667
    },
    {
      "elevation": 2304,
      "mindate": "1960-07-01",
      "maxdate": "1964-08-31",
      "latitude": 52.6833,
      "name": "CHUNGO LO, CA",
      "datacoverage": 0.3397,
      "id": "GHCND:CA003051585",
      "elevationUnit": "METERS",
      "longitude": -116.7
    },
    {
      "elevation": 1829,
      "mindate": "1960-06-01",
      "maxdate": "1965-09-30",
      "latitude": 52.1667,
      "name": "CLINE LO, CA",
      "datacoverage": 0.5781,
      "id": "GHCND:CA003051665",
      "elevationUnit": "METERS",
      "longitude": -116.6833
    },
    {
      "elevation": 2050,
      "mindate": "1975-05-01",
      "maxdate": "2011-09-07",
      "latitude": 52.1833,
      "name": "CLINE LO, CA",
      "datacoverage": 0.4165,
      "id": "GHCND:CA0030516F5",
      "elevationUnit": "METERS",
      "longitude": -116.4
    },
    {
      "elevation": 1341,
      "mindate": "1912-10-01",
      "maxdate": "1997-09-30",
      "latitude": 49.6333,
      "name": "COLEMAN, CA",
      "datacoverage": 0.9677,
      "id": "GHCND:CA003051720",
      "elevationUnit": "METERS",
      "longitude": -114.5833
    },
    {
      "elevation": 1341,
      "mindate": "1958-07-01",
      "maxdate": "1971-03-31",
      "latitude": 49.65,
      "name": "COLEMAN RANGER STATION, CA",
      "datacoverage": 0.9986,
      "id": "GHCND:CA003051725",
      "elevationUnit": "METERS",
      "longitude": -114.5
    },
    {
      "elevation": 1981,
      "mindate": "1961-07-01",
      "maxdate": "1994-07-31",
      "latitude": 52.2333,
      "name": "COLUMBIA ICEFIELD, CA",
      "datacoverage": 0.4995,
      "id": "GHCND:CA003051740",
      "elevationUnit": "METERS",
      "longitude": -117.1667
    },
    {
      "elevation": 1798,
      "mindate": "1998-03-01",
      "maxdate": "2007-10-22",
      "latitude": 50.9,
      "name": "COMPRESSION RIDGE, CA",
      "datacoverage": 0.9135,
      "id": "GHCND:CA003051766",
      "elevationUnit": "METERS",
      "longitude": -114.9167
    },
    {
      "elevation": 1980,
      "mindate": "1980-06-01",
      "maxdate": "1982-02-22",
      "latitude": 49.7667,
      "name": "COWLEY TODD CREEK, CA",
      "datacoverage": 1,
      "id": "GHCND:CA003051928",
      "elevationUnit": "METERS",
      "longitude": -114.2667
    },
    {
      "elevation": 1675,
      "mindate": "1998-02-01",
      "maxdate": "2007-10-16",
      "latitude": 50.9833,
      "name": "COX HILL, CA",
      "datacoverage": 0.9986,
      "id": "GHCND:CA003051932",
      "elevationUnit": "METERS",
      "longitude": -114.95
    },
    {
      "elevation": 1387,
      "mindate": "1998-10-01",
      "maxdate": "2007-11-30",
      "latitude": 49.6,
      "name": "CROWSNEST CREEK, CA",
      "datacoverage": 0.7762,
      "id": "GHCND:CA0030519N0",
      "elevationUnit": "METERS",
      "longitude": -114.6833
    },
    {
      "elevation": 1120,
      "mindate": "1976-04-01",
      "maxdate": "1976-10-08",
      "latitude": 50.05,
      "name": "CLARESHOLM LYNDON CREEK, CA",
      "datacoverage": 0.9956,
      "id": "GHCND:CA003051F56",
      "elevationUnit": "METERS",
      "longitude": -113.9167
    },
    {
      "elevation": 1303,
      "mindate": "1993-06-01",
      "maxdate": "2024-04-28",
      "latitude": 49.6333,
      "name": "CROWSNEST, CA",
      "datacoverage": 0.9817,
      "id": "GHCND:CA003051R4R",
      "elevationUnit": "METERS",
      "longitude": -114.4833
    },
    {
      "elevation": 2180,
      "mindate": "1998-06-01",
      "maxdate": "2007-11-30",
      "latitude": 51.45,
      "name": "CUTHEAD LAKE, CA",
      "datacoverage": 0.7456,
      "id": "GHCND:CA003051R51",
      "elevationUnit": "METERS",
      "longitude": -115.7667
    },
    {
      "elevation": 1404,
      "mindate": "1998-08-01",
      "maxdate": "2007-11-30",
      "latitude": 53.1667,
      "name": "DEVONA, CA",
      "datacoverage": 0.9464,
      "id": "GHCND:CA003052069",
      "elevationUnit": "METERS",
      "longitude": -118.0333
    },
    {
      "elevation": 1425,
      "mindate": "1965-10-01",
      "maxdate": "1969-06-30",
      "latitude": 51.2833,
      "name": "EISENHOWER JUNCTION, CA",
      "datacoverage": 0.7782,
      "id": "GHCND:CA003052255",
      "elevationUnit": "METERS",
      "longitude": -115.9
    },
    {
      "elevation": 1400,
      "mindate": "1958-07-01",
      "maxdate": "2006-07-31",
      "latitude": 50.9,
      "name": "ELBOW RANGER STATION, CA",
      "datacoverage": 0.8145,
      "id": "GHCND:CA003052270",
      "elevationUnit": "METERS",
      "longitude": -114.7
    },
    {
      "elevation": 1298,
      "mindate": "1928-06-01",
      "maxdate": "1945-09-30",
      "latitude": 51.0667,
      "name": "EXSHAW, CA",
      "datacoverage": 0.9952,
      "id": "GHCND:CA003052508",
      "elevationUnit": "METERS",
      "longitude": -115.2
    },
    {
      "elevation": 1555,
      "mindate": "1998-02-01",
      "maxdate": "2007-11-30",
      "latitude": 51.5333,
      "name": "FALLEN TIMBER, CA",
      "datacoverage": 0.8733,
      "id": "GHCND:CA003052602",
      "elevationUnit": "METERS",
      "longitude": -115.1
    },
    {
      "elevation": 2926,
      "mindate": "1998-12-01",
      "maxdate": "2007-11-30",
      "latitude": 51.6333,
      "name": "FALSE NICHOLAS, CA",
      "datacoverage": 0.8704,
      "id": "GHCND:CA003052603",
      "elevationUnit": "METERS",
      "longitude": -116.5
    },
    {
      "elevation": 2317,
      "mindate": "1962-07-01",
      "maxdate": "1975-08-31",
      "latitude": 50.75,
      "name": "FORGET ME NOT LO, CA",
      "datacoverage": 0.3354,
      "id": "GHCND:CA003052653",
      "elevationUnit": "METERS",
      "longitude": -114.75
    },
    {
      "elevation": 1739,
      "mindate": "1998-02-01",
      "maxdate": "2007-11-30",
      "latitude": 50.7333,
      "name": "FORGET ME NOT MOUNTAIN, CA",
      "datacoverage": 0.8818,
      "id": "GHCND:CA0030526EL",
      "elevationUnit": "METERS",
      "longitude": -114.7
    },
    {
      "elevation": 2042,
      "mindate": "1974-12-01",
      "maxdate": "1975-04-30",
      "latitude": 50.85,
      "name": "FORTRESS MOUNTAIN, CA",
      "datacoverage": 1,
      "id": "GHCND:CA003052705",
      "elevationUnit": "METERS",
      "longitude": -115.25
    },
    {
      "elevation": 1295,
      "mindate": "1958-10-01",
      "maxdate": "1965-07-31",
      "latitude": 49.9667,
      "name": "FURMAN CLARESHOLM, CA",
      "datacoverage": 0.8658,
      "id": "GHCND:CA003052745",
      "elevationUnit": "METERS",
      "longitude": -114
    },
    {
      "elevation": 1417,
      "mindate": "1958-07-01",
      "maxdate": "1996-09-30",
      "latitude": 51.3,
      "name": "GHOST RANGER STATION, CA",
      "datacoverage": 0.9258,
      "id": "GHCND:CA003052780",
      "elevationUnit": "METERS",
      "longitude": -114.9333
    },
    {
      "elevation": 2200,
      "mindate": "1998-10-01",
      "maxdate": "2007-05-16",
      "latitude": 51,
      "name": "GOAT S EYE, CA",
      "datacoverage": 0.5289,
      "id": "GHCND:CA003052838",
      "elevationUnit": "METERS",
      "longitude": -115.5
    },
    {
      "elevation": 2074,
      "mindate": "1960-04-01",
      "maxdate": "2011-08-23",
      "latitude": 52.85,
      "name": "GRAVE FLATS LO, CA",
      "datacoverage": 0.4003,
      "id": "GHCND:CA003052940",
      "elevationUnit": "METERS",
      "longitude": -117
    },
    {
      "elevation": 2373,
      "mindate": "1961-07-01",
      "maxdate": "2011-09-01",
      "latitude": 50.1667,
      "name": "HAILSTONE BUTTE LO, CA",
      "datacoverage": 0.4113,
      "id": "GHCND:CA003052995",
      "elevationUnit": "METERS",
      "longitude": -114.45
    },
    {
      "elevation": 2164,
      "mindate": "1998-04-01",
      "maxdate": "2007-11-30",
      "latitude": 50.7833,
      "name": "EVANS THOMAS, CA",
      "datacoverage": 0.4569,
      "id": "GHCND:CA003052D82",
      "elevationUnit": "METERS",
      "longitude": -115.05
    },
    {
      "elevation": 1600,
      "mindate": "1998-03-01",
      "maxdate": "2007-11-30",
      "latitude": 51.3,
      "name": "GHOST DIVERSION, CA",
      "datacoverage": 0.9991,
      "id": "GHCND:CA003052PP6",
      "elevationUnit": "METERS",
      "longitude": -115.1333
    },
    {
      "elevation": 1580,
      "mindate": "1958-07-01",
      "maxdate": "2011-09-30",
      "latitude": 50.55,
      "name": "HIGHWOOD AU B1, CA",
      "datacoverage": 0.4272,
      "id": "GHCND:CA003053250",
      "elevationUnit": "METERS",
      "longitude": -114.3667
    },
    {
      "elevation": 2073,
      "mindate": "1961-06-01",
      "maxdate": "2011-08-23",
      "latitude": 49.5667,
      "name": "IRONSTONE LO, CA",
      "datacoverage": 0.4262,
      "id": "GHCND:CA003053505",
      "elevationUnit": "METERS",
      "longitude": -114.4667
    },
    {
      "elevation": 1463,
      "mindate": "1998-03-01",
      "maxdate": "2007-11-30",
      "latitude": 51.7667,
      "name": "JAMES RIVER HEADWATERS, CA",
      "datacoverage": 0.9986,
      "id": "GHCND:CA003053512",
      "elevationUnit": "METERS",
      "longitude": -115.3167
    },
    {
      "elevation": 1057,
      "mindate": "1914-01-01",
      "maxdate": "1931-06-30",
      "latitude": 52.8833,
      "name": "JASPER, CA",
      "datacoverage": 0.7955,
      "id": "GHCND:CA003053519",
      "elevationUnit": "METERS",
      "longitude": -118.15
    },
    {
      "elevation": 1062,
      "mindate": "1926-09-01",
      "maxdate": "1996-01-31",
      "latitude": 52.8833,
      "name": "JASPER, CA",
      "datacoverage": 0.9207,
      "id": "GHCND:CA003053520",
      "elevationUnit": "METERS",
      "longitude": -118.0667
    },
    {
      "elevation": 1020,
      "mindate": "1994-03-01",
      "maxdate": "2024-04-28",
      "latitude": 52.9333,
      "name": "JASPER WARDEN, CA",
      "datacoverage": 0.9999,
      "id": "GHCND:CA003053536",
      "elevationUnit": "METERS",
      "longitude": -118.0333
    },
    {
      "elevation": 1128,
      "mindate": "1974-07-01",
      "maxdate": "2000-08-31",
      "latitude": 52.8667,
      "name": "JASPER WEST GATE, CA",
      "datacoverage": 0.761,
      "id": "GHCND:CA003053538",
      "elevationUnit": "METERS",
      "longitude": -118.3833
    },
    {
      "elevation": 2005,
      "mindate": "1998-06-01",
      "maxdate": "2007-09-12",
      "latitude": 52.35,
      "name": "JOB CREEK, CA",
      "datacoverage": 0.6339,
      "id": "GHCND:CA003053552",
      "elevationUnit": "METERS",
      "longitude": -116.7833
    },
    {
      "elevation": 2239,
      "mindate": "1963-05-01",
      "maxdate": "2011-08-23",
      "latitude": 50.55,
      "name": "JUNCTION LO, CA",
      "datacoverage": 0.4069,
      "id": "GHCND:CA003053575",
      "elevationUnit": "METERS",
      "longitude": -114.6833
    },
    {
      "elevation": 1347,
      "mindate": "1972-04-01",
      "maxdate": "1972-09-30",
      "latitude": 54.2,
      "name": "KAKWA NOTUS, CA",
      "datacoverage": 1,
      "id": "GHCND:CA003053587",
      "elevationUnit": "METERS",
      "longitude": -119.8833
    },
    {
      "elevation": 1391,
      "mindate": "1939-08-01",
      "maxdate": "2024-04-10",
      "latitude": 51.0333,
      "name": "KANANASKIS, CA",
      "datacoverage": 0.9945,
      "id": "GHCND:CA003053600",
      "elevationUnit": "METERS",
      "longitude": -115.0333
    },
    {
      "elevation": 1463,
      "mindate": "1962-04-01",
      "maxdate": "1986-09-13",
      "latitude": 50.9833,
      "name": "KANANASKIS BOUNDARY RANGER STATION, CA",
      "datacoverage": 0.7495,
      "id": "GHCND:CA003053602",
      "elevationUnit": "METERS",
      "longitude": -115.1167
    },
    {
      "elevation": 1610,
      "mindate": "1976-10-01",
      "maxdate": "2018-07-04",
      "latitude": 50.7167,
      "name": "KANANASKIS POCATERRA, CA",
      "datacoverage": 0.9262,
      "id": "GHCND:CA003053604",
      "elevationUnit": "METERS",
      "longitude": -115.1167
    },
    {
      "elevation": 2073,
      "mindate": "1958-07-01",
      "maxdate": "2011-08-23",
      "latitude": 50.6167,
      "name": "KANANASKIS LO, CA",
      "datacoverage": 0.3715,
      "id": "GHCND:CA003053605",
      "elevationUnit": "METERS",
      "longitude": -115.0667
    },
    {
      "elevation": 2073,
      "mindate": "1966-05-01",
      "maxdate": "1984-08-31",
      "latitude": 52.3,
      "name": "KISKA LO, CA",
      "datacoverage": 0.4317,
      "id": "GHCND:CA003053649",
      "elevationUnit": "METERS",
      "longitude": -116.1833
    },
    {
      "elevation": 1359,
      "mindate": "1980-10-01",
      "maxdate": "2007-09-30",
      "latitude": 52.1833,
      "name": "KOOTENAY PLAINS, CA",
      "datacoverage": 0.6053,
      "id": "GHCND:CA003053668",
      "elevationUnit": "METERS",
      "longitude": -116.4667
    },
    {
      "elevation": 1294,
      "mindate": "1998-05-01",
      "maxdate": "2003-09-30",
      "latitude": 52.0667,
      "name": "KOOTENAY PLAINS R4, CA",
      "datacoverage": 0.3845,
      "id": "GHCND:CA003053669",
      "elevationUnit": "METERS",
      "longitude": -116.4167
    },
    {
      "elevation": 1219,
      "mindate": "1977-05-01",
      "maxdate": "1980-09-30",
      "latitude": 52.1833,
      "name": "KOOTENAY PLAINS RANGER STATION, CA",
      "datacoverage": 0.6336,
      "id": "GHCND:CA003053670",
      "elevationUnit": "METERS",
      "longitude": -116.4833
    },
    {
      "elevation": 1524,
      "mindate": "1915-01-01",
      "maxdate": "2007-11-30",
      "latitude": 51.4333,
      "name": "LAKE LOUISE, CA",
      "datacoverage": 0.9731,
      "id": "GHCND:CA003053760",
      "elevationUnit": "METERS",
      "longitude": -116.2167
    },
    {
      "elevation": 1951,
      "mindate": "1998-05-01",
      "maxdate": "2005-02-28",
      "latitude": 51.9,
      "name": "LIMESTONE RIDGE, CA",
      "datacoverage": 0.3293,
      "id": "GHCND:CA003053908",
      "elevationUnit": "METERS",
      "longitude": -115.3833
    },
    {
      "elevation": 1417,
      "mindate": "1958-07-01",
      "maxdate": "2011-09-30",
      "latitude": 49.8833,
      "name": "LIVINGSTONE, CA",
      "datacoverage": 0.374,
      "id": "GHCND:CA003053925",
      "elevationUnit": "METERS",
      "longitude": -114.3833
    },
    {
      "elevation": 2170,
      "mindate": "1960-07-01",
      "maxdate": "2011-07-07",
      "latitude": 49.9,
      "name": "LIVINGSTONE LO, CA",
      "datacoverage": 0.3116,
      "id": "GHCND:CA003053926",
      "elevationUnit": "METERS",
      "longitude": -114.35
    },
    {
      "elevation": 1219,
      "mindate": "1977-03-01",
      "maxdate": "1978-10-31",
      "latitude": 50.3667,
      "name": "LONGVIEW, CA",
      "datacoverage": 0.998,
      "id": "GHCND:CA003053985",
      "elevationUnit": "METERS",
      "longitude": -114.6333
    },
    {
      "elevation": 2130,
      "mindate": "1998-02-01",
      "maxdate": "2007-08-12",
      "latitude": 50.1667,
      "name": "LOST CREEK SOUTH, CA",
      "datacoverage": 0.7995,
      "id": "GHCND:CA003053988",
      "elevationUnit": "METERS",
      "longitude": -114.7
    },
    {
      "elevation": 1194,
      "mindate": "1911-04-01",
      "maxdate": "1958-09-30",
      "latitude": 49.9167,
      "name": "LUNDBRECK, CA",
      "datacoverage": 0.9544,
      "id": "GHCND:CA003054080",
      "elevationUnit": "METERS",
      "longitude": -114.1333
    },
    {
      "elevation": 1250,
      "mindate": "1910-11-01",
      "maxdate": "1966-03-31",
      "latitude": 50.0167,
      "name": "LYNDON, CA",
      "datacoverage": 0.9955,
      "id": "GHCND:CA003054120",
      "elevationUnit": "METERS",
      "longitude": -113.8833
    }
  ]
}
