{
  "metadata": {
    "resultset": {
      "offset": 68500,
      "count": 154115,
      "limit": 100
    }
  },
  "results": [
    {
      "elevation": 39,
      "mindate": "1950-12-01",
      "maxdate": "2025-01-10",
      "latitude": 52.1831,
      "name": "KOOTWIJK, NL",
      "datacoverage": 1,
      "id": "GHCND:NLE00109166",
      "elevationUnit": "METERS",
      "longitude": 5.8331
    },
    {
      "elevation": 3,
      "mindate": "1950-12-01",
      "maxdate": "2025-01-10",
      "latitude": 53.0667,
      "name": "KORNWERDERZAND",
      "datacoverage": 1,
      "id": "GHCND:NLE00109168",
      "elevationUnit": "METERS",
      "longitude": 5.3331
    },
    {
      "elevation": 1,
      "mindate": "1950-12-01",
      "maxdate": "2025-01-10",
      "latitude": 51.5667,
      "name": "KORTGENE, NL",
      "datacoverage": 0.999,
      "id": "GHCND:NLE00109170",
      "elevationUnit": "METERS",
      "longitude": 3.8331
    },
    {
      "elevation": 1,
      "mindate": "1950-12-01",
      "maxdate": "2025-01-10",
      "latitude": 51.4331,
      "name": "KRABBENDIJKE, NL",
      "datacoverage": 1,
      "id": "GHCND:NLE00109172",
      "elevationUnit": "METERS",
      "longitude": 4.0997
    },
    {
      "elevation": 2,
      "mindate": "1950-12-01",
      "maxdate": "2025-01-10",
      "latitude": 52.8667,
      "name": "KREILEROORD",
      "datacoverage": 0.9983,
      "id": "GHCND:NLE00109174",
      "elevationUnit": "METERS",
      "longitude": 5.1
    },
    {
      "elevation": 5,
      "mindate": "1950-12-01",
      "maxdate": "2025-01-10",
      "latitude": 52.7831,
      "name": "KUINRE, NL",
      "datacoverage": 0.999,
      "id": "GHCND:NLE00109176",
      "elevationUnit": "METERS",
      "longitude": 5.85
    },
    {
      "elevation": 16,
      "mindate": "1950-12-31",
      "maxdate": "2025-01-10",
      "latitude": 52.9167,
      "name": "LAAGHALEN, NL",
      "datacoverage": 0.9985,
      "id": "GHCND:NLE00109178",
      "elevationUnit": "METERS",
      "longitude": 6.5331
    },
    {
      "elevation": 15,
      "mindate": "1950-12-01",
      "maxdate": "2025-01-10",
      "latitude": 52.25,
      "name": "LAREN, NL",
      "datacoverage": 0.9983,
      "id": "GHCND:NLE00109180",
      "elevationUnit": "METERS",
      "longitude": 5.2
    },
    {
      "elevation": 25,
      "mindate": "1950-12-01",
      "maxdate": "2025-01-10",
      "latitude": 51.3331,
      "name": "LEENDE, NL",
      "datacoverage": 1,
      "id": "GHCND:NLE00109182",
      "elevationUnit": "METERS",
      "longitude": 5.5331
    },
    {
      "elevation": 0,
      "mindate": "1931-12-01",
      "maxdate": "2014-12-31",
      "latitude": 52.1331,
      "name": "LEIDEN, NL",
      "datacoverage": 1,
      "id": "GHCND:NLE00109184",
      "elevationUnit": "METERS",
      "longitude": 4.4831
    },
    {
      "elevation": 19,
      "mindate": "1956-12-31",
      "maxdate": "2025-01-10",
      "latitude": 52,
      "name": "LICHTENVOORDE, NL",
      "datacoverage": 0.9999,
      "id": "GHCND:NLE00109186",
      "elevationUnit": "METERS",
      "longitude": 6.5667
    },
    {
      "elevation": -5,
      "mindate": "1950-12-01",
      "maxdate": "2025-01-10",
      "latitude": 52.35,
      "name": "LIJNDEN NH, NL",
      "datacoverage": 1,
      "id": "GHCND:NLE00109190",
      "elevationUnit": "METERS",
      "longitude": 4.75
    },
    {
      "elevation": 5,
      "mindate": "1931-12-01",
      "maxdate": "2025-01-10",
      "latitude": 52.2667,
      "name": "LISSE, NL",
      "datacoverage": 1,
      "id": "GHCND:NLE00109192",
      "elevationUnit": "METERS",
      "longitude": 4.55
    },
    {
      "elevation": 12,
      "mindate": "1950-12-01",
      "maxdate": "2025-01-10",
      "latitude": 52.15,
      "name": "LOCHEM, NL",
      "datacoverage": 0.9987,
      "id": "GHCND:NLE00109194",
      "elevationUnit": "METERS",
      "longitude": 6.3831
    },
    {
      "elevation": 13,
      "mindate": "1950-12-01",
      "maxdate": "2025-01-10",
      "latitude": 52.0831,
      "name": "LUNTEREN, NL",
      "datacoverage": 1,
      "id": "GHCND:NLE00109196",
      "elevationUnit": "METERS",
      "longitude": 5.6
    },
    {
      "elevation": 28,
      "mindate": "1950-12-31",
      "maxdate": "2025-01-10",
      "latitude": 51.3,
      "name": "MAARHEEZE, NL",
      "datacoverage": 0.9999,
      "id": "GHCND:NLE00109198",
      "elevationUnit": "METERS",
      "longitude": 5.5831
    },
    {
      "elevation": -2,
      "mindate": "1996-02-01",
      "maxdate": "2025-01-10",
      "latitude": 51.9667,
      "name": "MAASLAND, NL",
      "datacoverage": 1,
      "id": "GHCND:NLE00109200",
      "elevationUnit": "METERS",
      "longitude": 4.25
    },
    {
      "elevation": 3,
      "mindate": "1950-12-01",
      "maxdate": "2025-01-10",
      "latitude": 53.15,
      "name": "MARUM, NL",
      "datacoverage": 1,
      "id": "GHCND:NLE00109202",
      "elevationUnit": "METERS",
      "longitude": 6.2831
    },
    {
      "elevation": 6,
      "mindate": "1950-12-01",
      "maxdate": "2025-01-10",
      "latitude": 51.8167,
      "name": "MEGEN, NL",
      "datacoverage": 1,
      "id": "GHCND:NLE00109204",
      "elevationUnit": "METERS",
      "longitude": 5.5667
    },
    {
      "elevation": -1,
      "mindate": "1950-12-01",
      "maxdate": "2025-01-10",
      "latitude": 51.4831,
      "name": "MIDDELBURG, NL",
      "datacoverage": 1,
      "id": "GHCND:NLE00109206",
      "elevationUnit": "METERS",
      "longitude": 3.6
    },
    {
      "elevation": 0,
      "mindate": "1990-12-01",
      "maxdate": "2025-01-10",
      "latitude": 53.3167,
      "name": "MIDDELSTUM, NL",
      "datacoverage": 0.9999,
      "id": "GHCND:NLE00109208",
      "elevationUnit": "METERS",
      "longitude": 6.6167
    },
    {
      "elevation": 17,
      "mindate": "1950-12-01",
      "maxdate": "2025-01-10",
      "latitude": 51.6831,
      "name": "MILL, NL",
      "datacoverage": 1,
      "id": "GHCND:NLE00109210",
      "elevationUnit": "METERS",
      "longitude": 5.8
    },
    {
      "elevation": -4,
      "mindate": "1950-12-01",
      "maxdate": "2025-01-10",
      "latitude": 52.6167,
      "name": "NAGELE, NL",
      "datacoverage": 1,
      "id": "GHCND:NLE00109212",
      "elevationUnit": "METERS",
      "longitude": 5.7167
    },
    {
      "elevation": 3,
      "mindate": "1950-12-01",
      "maxdate": "2025-01-10",
      "latitude": 53.45,
      "name": "NES AMELAND, NL",
      "datacoverage": 1,
      "id": "GHCND:NLE00109214",
      "elevationUnit": "METERS",
      "longitude": 5.7667
    },
    {
      "elevation": 1,
      "mindate": "1950-12-01",
      "maxdate": "2025-01-10",
      "latitude": 53.2167,
      "name": "NIEKERK, NL",
      "datacoverage": 1,
      "id": "GHCND:NLE00109216",
      "elevationUnit": "METERS",
      "longitude": 6.35
    },
    {
      "elevation": 7,
      "mindate": "1950-12-01",
      "maxdate": "2025-01-10",
      "latitude": 52.9667,
      "name": "NIEUW BUINEN, NL",
      "datacoverage": 0.999,
      "id": "GHCND:NLE00109218",
      "elevationUnit": "METERS",
      "longitude": 6.95
    },
    {
      "elevation": 0,
      "mindate": "1950-12-01",
      "maxdate": "2025-01-10",
      "latitude": 51.8331,
      "name": "NIEUW HELVOET, NL",
      "datacoverage": 1,
      "id": "GHCND:NLE00109220",
      "elevationUnit": "METERS",
      "longitude": 4.1167
    },
    {
      "elevation": 0,
      "mindate": "1950-12-01",
      "maxdate": "2025-01-10",
      "latitude": 51.7667,
      "name": "NIEUWENDIJK NB, NL",
      "datacoverage": 1,
      "id": "GHCND:NLE00109222",
      "elevationUnit": "METERS",
      "longitude": 4.9331
    },
    {
      "elevation": -2,
      "mindate": "1992-04-01",
      "maxdate": "2025-01-10",
      "latitude": 53.25,
      "name": "NIEUWOLDA, NL",
      "datacoverage": 0.9999,
      "id": "GHCND:NLE00109224",
      "elevationUnit": "METERS",
      "longitude": 6.9831
    },
    {
      "elevation": 0,
      "mindate": "1950-12-01",
      "maxdate": "2025-01-10",
      "latitude": 52.2331,
      "name": "NIJKERK, NL",
      "datacoverage": 1,
      "id": "GHCND:NLE00109226",
      "elevationUnit": "METERS",
      "longitude": 5.4667
    },
    {
      "elevation": 160,
      "mindate": "1950-12-01",
      "maxdate": "2025-01-10",
      "latitude": 50.7667,
      "name": "NOORBEEK, NL",
      "datacoverage": 0.999,
      "id": "GHCND:NLE00109228",
      "elevationUnit": "METERS",
      "longitude": 5.8167
    },
    {
      "elevation": -1,
      "mindate": "1950-12-01",
      "maxdate": "2025-01-10",
      "latitude": 51.7,
      "name": "NOORDGOUWE, NL",
      "datacoverage": 0.9989,
      "id": "GHCND:NLE00109230",
      "elevationUnit": "METERS",
      "longitude": 3.9667
    },
    {
      "elevation": -2,
      "mindate": "1950-12-31",
      "maxdate": "2025-01-10",
      "latitude": 52.6831,
      "name": "OBDAM, NL",
      "datacoverage": 1,
      "id": "GHCND:NLE00109232",
      "elevationUnit": "METERS",
      "longitude": 4.8831
    },
    {
      "elevation": 16,
      "mindate": "1950-12-31",
      "maxdate": "2025-01-10",
      "latitude": 51.5,
      "name": "OIRSCHOT, NL",
      "datacoverage": 0.9989,
      "id": "GHCND:NLE00109234",
      "elevationUnit": "METERS",
      "longitude": 5.3331
    },
    {
      "elevation": 60,
      "mindate": "1950-12-01",
      "maxdate": "2025-01-10",
      "latitude": 52.3831,
      "name": "OLDEBROEK, NL",
      "datacoverage": 1,
      "id": "GHCND:NLE00109236",
      "elevationUnit": "METERS",
      "longitude": 5.9167
    },
    {
      "elevation": 2,
      "mindate": "1950-12-01",
      "maxdate": "2025-01-10",
      "latitude": 52.9,
      "name": "OLDEHOLTPADE, NL",
      "datacoverage": 1,
      "id": "GHCND:NLE00109238",
      "elevationUnit": "METERS",
      "longitude": 6.05
    },
    {
      "elevation": 0,
      "mindate": "1950-12-01",
      "maxdate": "2025-01-10",
      "latitude": 53.15,
      "name": "ONNEN, NL",
      "datacoverage": 1,
      "id": "GHCND:NLE00109240",
      "elevationUnit": "METERS",
      "longitude": 6.6667
    },
    {
      "elevation": 50,
      "mindate": "1985-12-01",
      "maxdate": "2025-01-10",
      "latitude": 50.8,
      "name": "OOST MAARLAND, NL",
      "datacoverage": 0.9972,
      "id": "GHCND:NLE00109242",
      "elevationUnit": "METERS",
      "longitude": 5.7167
    },
    {
      "elevation": 6,
      "mindate": "1950-12-01",
      "maxdate": "2025-01-10",
      "latitude": 53.3,
      "name": "OOST VLIELAND, NL",
      "datacoverage": 0.9987,
      "id": "GHCND:NLE00109244",
      "elevationUnit": "METERS",
      "longitude": 5.0831
    },
    {
      "elevation": 21,
      "mindate": "1950-12-01",
      "maxdate": "2025-01-10",
      "latitude": 52.0167,
      "name": "OOSTERBEEK, NL",
      "datacoverage": 1,
      "id": "GHCND:NLE00109246",
      "elevationUnit": "METERS",
      "longitude": 5.8331
    },
    {
      "elevation": 4,
      "mindate": "1950-12-01",
      "maxdate": "2025-01-10",
      "latitude": 51.7667,
      "name": "OSS, NL",
      "datacoverage": 1,
      "id": "GHCND:NLE00109248",
      "elevationUnit": "METERS",
      "longitude": 5.5331
    },
    {
      "elevation": 1,
      "mindate": "1955-12-31",
      "maxdate": "2025-01-10",
      "latitude": 52.8667,
      "name": "OUDEMIRDUM, NL",
      "datacoverage": 1,
      "id": "GHCND:NLE00109250",
      "elevationUnit": "METERS",
      "longitude": 5.5
    },
    {
      "elevation": 7,
      "mindate": "1950-12-01",
      "maxdate": "2025-01-09",
      "latitude": 52.4,
      "name": "OVERVEEN, NL",
      "datacoverage": 1,
      "id": "GHCND:NLE00109252",
      "elevationUnit": "METERS",
      "longitude": 4.6
    },
    {
      "elevation": -3,
      "mindate": "1956-01-01",
      "maxdate": "2025-01-10",
      "latitude": 52.5167,
      "name": "PURMEREND, NL",
      "datacoverage": 0.9954,
      "id": "GHCND:NLE00109255",
      "elevationUnit": "METERS",
      "longitude": 4.95
    },
    {
      "elevation": 27,
      "mindate": "1950-12-01",
      "maxdate": "2025-01-10",
      "latitude": 52.0831,
      "name": "REKKEN, NL",
      "datacoverage": 1,
      "id": "GHCND:NLE00109256",
      "elevationUnit": "METERS",
      "longitude": 6.7167
    },
    {
      "elevation": 27,
      "mindate": "1995-01-01",
      "maxdate": "2013-03-31",
      "latitude": 51.2831,
      "name": "REUVER, NL",
      "datacoverage": 1,
      "id": "GHCND:NLE00109258",
      "elevationUnit": "METERS",
      "longitude": 6.0831
    },
    {
      "elevation": 8,
      "mindate": "1950-12-01",
      "maxdate": "2025-01-10",
      "latitude": 52.5667,
      "name": "RHEEZERVEEN, NL",
      "datacoverage": 1,
      "id": "GHCND:NLE00109260",
      "elevationUnit": "METERS",
      "longitude": 6.5667
    },
    {
      "elevation": 1,
      "mindate": "1950-12-01",
      "maxdate": "2025-01-10",
      "latitude": 51.4167,
      "name": "RILLAND, NL",
      "datacoverage": 0.999,
      "id": "GHCND:NLE00109262",
      "elevationUnit": "METERS",
      "longitude": 4.1831
    },
    {
      "elevation": 1,
      "mindate": "1956-01-01",
      "maxdate": "2025-01-10",
      "latitude": 51.4667,
      "name": "RITTHEM, NL",
      "datacoverage": 1,
      "id": "GHCND:NLE00109264",
      "elevationUnit": "METERS",
      "longitude": 3.6167
    },
    {
      "elevation": 2,
      "mindate": "1950-12-01",
      "maxdate": "2025-01-10",
      "latitude": 53.4331,
      "name": "ROODESCHOOL, NL",
      "datacoverage": 1,
      "id": "GHCND:NLE00109266",
      "elevationUnit": "METERS",
      "longitude": 6.7831
    },
    {
      "elevation": 1,
      "mindate": "1950-12-31",
      "maxdate": "2025-01-10",
      "latitude": 52.6167,
      "name": "ROUVEEN, NL",
      "datacoverage": 0.9999,
      "id": "GHCND:NLE00109268",
      "elevationUnit": "METERS",
      "longitude": 6.1831
    },
    {
      "elevation": 2,
      "mindate": "1993-12-01",
      "maxdate": "2025-01-10",
      "latitude": 52.7167,
      "name": "RUINERWOLD, NL",
      "datacoverage": 0.9999,
      "id": "GHCND:NLE00109270",
      "elevationUnit": "METERS",
      "longitude": 6.2331
    },
    {
      "elevation": 0,
      "mindate": "1950-12-01",
      "maxdate": "2025-01-10",
      "latitude": 53.1667,
      "name": "SAPPEMEER, NL",
      "datacoverage": 1,
      "id": "GHCND:NLE00109272",
      "elevationUnit": "METERS",
      "longitude": 6.7331
    },
    {
      "elevation": 0,
      "mindate": "1950-12-01",
      "maxdate": "2025-01-10",
      "latitude": 52.7831,
      "name": "SCHAGEN, NL",
      "datacoverage": 1,
      "id": "GHCND:NLE00109274",
      "elevationUnit": "METERS",
      "longitude": 4.8
    },
    {
      "elevation": 2,
      "mindate": "1950-12-01",
      "maxdate": "2025-01-10",
      "latitude": 53.4831,
      "name": "SCHIERMONNIKOOG, NL",
      "datacoverage": 1,
      "id": "GHCND:NLE00109276",
      "elevationUnit": "METERS",
      "longitude": 6.1831
    },
    {
      "elevation": 80,
      "mindate": "1950-12-01",
      "maxdate": "2025-01-10",
      "latitude": 50.9331,
      "name": "SCHINNEN, NL",
      "datacoverage": 0.999,
      "id": "GHCND:NLE00109278",
      "elevationUnit": "METERS",
      "longitude": 5.8667
    },
    {
      "elevation": 55,
      "mindate": "1995-04-01",
      "maxdate": "2025-01-10",
      "latitude": 50.9831,
      "name": "SCHINVELD, GM",
      "datacoverage": 0.9998,
      "id": "GHCND:NLE00109280",
      "elevationUnit": "METERS",
      "longitude": 5.9831
    },
    {
      "elevation": 13,
      "mindate": "1956-01-01",
      "maxdate": "2025-01-10",
      "latitude": 52.6831,
      "name": "SCHOONEBEEK, NL",
      "datacoverage": 0.9918,
      "id": "GHCND:NLE00109283",
      "elevationUnit": "METERS",
      "longitude": 6.9
    },
    {
      "elevation": 16,
      "mindate": "1995-05-01",
      "maxdate": "2025-01-10",
      "latitude": 51.65,
      "name": "SIEBENGEWALD, NL",
      "datacoverage": 0.9997,
      "id": "GHCND:NLE00109284",
      "elevationUnit": "METERS",
      "longitude": 6.0831
    },
    {
      "elevation": 0,
      "mindate": "1975-12-31",
      "maxdate": "2025-01-10",
      "latitude": 53.1167,
      "name": "SKRINS, NL",
      "datacoverage": 0.9976,
      "id": "GHCND:NLE00109286",
      "elevationUnit": "METERS",
      "longitude": 5.65
    },
    {
      "elevation": 0,
      "mindate": "1950-12-01",
      "maxdate": "2025-01-10",
      "latitude": 53.0331,
      "name": "SNEEK, NL",
      "datacoverage": 1,
      "id": "GHCND:NLE00109288",
      "elevationUnit": "METERS",
      "longitude": 5.6331
    },
    {
      "elevation": 4,
      "mindate": "1995-12-01",
      "maxdate": "2025-01-10",
      "latitude": 52.1667,
      "name": "SOEST, NL",
      "datacoverage": 0.9998,
      "id": "GHCND:NLE00109290",
      "elevationUnit": "METERS",
      "longitude": 5.3167
    },
    {
      "elevation": 0,
      "mindate": "1950-12-01",
      "maxdate": "2025-01-10",
      "latitude": 52.25,
      "name": "SPAKENBURG, NL",
      "datacoverage": 0.9982,
      "id": "GHCND:NLE00109292",
      "elevationUnit": "METERS",
      "longitude": 5.4
    },
    {
      "elevation": 15,
      "mindate": "1950-12-01",
      "maxdate": "2025-01-10",
      "latitude": 51.6331,
      "name": "ST ANTHONIS, NL",
      "datacoverage": 1,
      "id": "GHCND:NLE00109294",
      "elevationUnit": "METERS",
      "longitude": 5.8831
    },
    {
      "elevation": 1,
      "mindate": "1950-12-01",
      "maxdate": "2025-01-10",
      "latitude": 51.2667,
      "name": "ST KRUIS, NL",
      "datacoverage": 1,
      "id": "GHCND:NLE00109296",
      "elevationUnit": "METERS",
      "longitude": 3.5
    },
    {
      "elevation": 1,
      "mindate": "1950-12-01",
      "maxdate": "2025-01-10",
      "latitude": 51.5831,
      "name": "STAVENISSE, NL",
      "datacoverage": 0.999,
      "id": "GHCND:NLE00109300",
      "elevationUnit": "METERS",
      "longitude": 4.0167
    },
    {
      "elevation": 1,
      "mindate": "1950-12-31",
      "maxdate": "2025-01-10",
      "latitude": 51.5831,
      "name": "STEENBERGEN NB, NL",
      "datacoverage": 0.9989,
      "id": "GHCND:NLE00109302",
      "elevationUnit": "METERS",
      "longitude": 4.3331
    },
    {
      "elevation": 9,
      "mindate": "1950-12-31",
      "maxdate": "2025-01-10",
      "latitude": 52.6667,
      "name": "STEENWIJKSMOER, NL",
      "datacoverage": 0.9998,
      "id": "GHCND:NLE00109304",
      "elevationUnit": "METERS",
      "longitude": 6.6831
    },
    {
      "elevation": 22,
      "mindate": "1950-12-01",
      "maxdate": "2025-01-10",
      "latitude": 50.9667,
      "name": "STEIN L, NL",
      "datacoverage": 1,
      "id": "GHCND:NLE00109306",
      "elevationUnit": "METERS",
      "longitude": 5.75
    },
    {
      "elevation": 31,
      "mindate": "1950-12-01",
      "maxdate": "2025-01-10",
      "latitude": 51.1831,
      "name": "STRAMPROY, NL",
      "datacoverage": 1,
      "id": "GHCND:NLE00109308",
      "elevationUnit": "METERS",
      "longitude": 5.7167
    },
    {
      "elevation": -1,
      "mindate": "1931-12-01",
      "maxdate": "2025-01-10",
      "latitude": 51.7667,
      "name": "STRIJEN, NL",
      "datacoverage": 1,
      "id": "GHCND:NLE00109310",
      "elevationUnit": "METERS",
      "longitude": 4.5831
    },
    {
      "elevation": 2,
      "mindate": "1950-12-01",
      "maxdate": "2025-01-10",
      "latitude": 51.3,
      "name": "TERNEUZEN, NL",
      "datacoverage": 1,
      "id": "GHCND:NLE00109312",
      "elevationUnit": "METERS",
      "longitude": 3.8667
    },
    {
      "elevation": 11,
      "mindate": "1950-12-01",
      "maxdate": "2025-01-10",
      "latitude": 51.5667,
      "name": "TILBURG, NL",
      "datacoverage": 1,
      "id": "GHCND:NLE00109316",
      "elevationUnit": "METERS",
      "longitude": 5.1331
    },
    {
      "elevation": 27,
      "mindate": "1960-12-31",
      "maxdate": "2025-01-10",
      "latitude": 52.4,
      "name": "TUBBERGEN, NL",
      "datacoverage": 1,
      "id": "GHCND:NLE00109318",
      "elevationUnit": "METERS",
      "longitude": 6.7831
    },
    {
      "elevation": 175,
      "mindate": "1952-10-01",
      "maxdate": "2025-01-10",
      "latitude": 50.85,
      "name": "UBACHSBERG, NL",
      "datacoverage": 0.9988,
      "id": "GHCND:NLE00109320",
      "elevationUnit": "METERS",
      "longitude": 5.9167
    },
    {
      "elevation": 1,
      "mindate": "1950-12-01",
      "maxdate": "2025-01-10",
      "latitude": 53.4,
      "name": "UITHUIZEN, NL",
      "datacoverage": 0.9989,
      "id": "GHCND:NLE00109322",
      "elevationUnit": "METERS",
      "longitude": 6.6667
    },
    {
      "elevation": 180,
      "mindate": "1950-12-01",
      "maxdate": "2025-01-10",
      "latitude": 50.7831,
      "name": "VAALS, NL",
      "datacoverage": 1,
      "id": "GHCND:NLE00109324",
      "elevationUnit": "METERS",
      "longitude": 6
    },
    {
      "elevation": 13,
      "mindate": "1965-12-31",
      "maxdate": "2025-01-10",
      "latitude": 52.2831,
      "name": "VAASSEN, NL",
      "datacoverage": 1,
      "id": "GHCND:NLE00109326",
      "elevationUnit": "METERS",
      "longitude": 5.9667
    },
    {
      "elevation": 2,
      "mindate": "1950-12-01",
      "maxdate": "2025-01-10",
      "latitude": 53.1,
      "name": "VEENDAM, NL",
      "datacoverage": 1,
      "id": "GHCND:NLE00109328",
      "elevationUnit": "METERS",
      "longitude": 6.8331
    },
    {
      "elevation": 6,
      "mindate": "1950-12-01",
      "maxdate": "2025-01-10",
      "latitude": 52.0331,
      "name": "VEENENDAAL, NL",
      "datacoverage": 1,
      "id": "GHCND:NLE00109330",
      "elevationUnit": "METERS",
      "longitude": 5.6
    },
    {
      "elevation": 7,
      "mindate": "1950-12-01",
      "maxdate": "2025-01-10",
      "latitude": 53.05,
      "name": "VEENHUIZEN D, NL",
      "datacoverage": 1,
      "id": "GHCND:NLE00109332",
      "elevationUnit": "METERS",
      "longitude": 6.4
    },
    {
      "elevation": 22,
      "mindate": "1971-12-31",
      "maxdate": "2025-01-10",
      "latitude": 51.5167,
      "name": "VENRAY, NL",
      "datacoverage": 1,
      "id": "GHCND:NLE00109334",
      "elevationUnit": "METERS",
      "longitude": 6
    },
    {
      "elevation": 4,
      "mindate": "1951-12-01",
      "maxdate": "2025-01-10",
      "latitude": 52.5331,
      "name": "VILSTEREN, NL",
      "datacoverage": 1,
      "id": "GHCND:NLE00109336",
      "elevationUnit": "METERS",
      "longitude": 6.35
    },
    {
      "elevation": 0,
      "mindate": "1950-12-01",
      "maxdate": "2025-01-10",
      "latitude": 52.0831,
      "name": "VLEUTEN, NL",
      "datacoverage": 1,
      "id": "GHCND:NLE00109338",
      "elevationUnit": "METERS",
      "longitude": 5
    },
    {
      "elevation": -6,
      "mindate": "2004-04-01",
      "maxdate": "2025-01-10",
      "latitude": 52.1331,
      "name": "VOORSCHOTEN, NL",
      "datacoverage": 0.9998,
      "id": "GHCND:NLE00109340",
      "elevationUnit": "METERS",
      "longitude": 4.4331
    },
    {
      "elevation": 14,
      "mindate": "1950-12-01",
      "maxdate": "2025-01-10",
      "latitude": 52.1831,
      "name": "VOORTHUIZEN, NL",
      "datacoverage": 1,
      "id": "GHCND:NLE00109342",
      "elevationUnit": "METERS",
      "longitude": 5.6167
    },
    {
      "elevation": 8,
      "mindate": "1950-12-01",
      "maxdate": "2025-01-10",
      "latitude": 52.45,
      "name": "VROOMSHOOP, NL",
      "datacoverage": 1,
      "id": "GHCND:NLE00109344",
      "elevationUnit": "METERS",
      "longitude": 6.5667
    },
    {
      "elevation": 16,
      "mindate": "1950-12-01",
      "maxdate": "2025-01-10",
      "latitude": 51.5831,
      "name": "VROUWENPOLDER, NL",
      "datacoverage": 1,
      "id": "GHCND:NLE00109346",
      "elevationUnit": "METERS",
      "longitude": 3.5831
    },
    {
      "elevation": 15,
      "mindate": "1950-12-01",
      "maxdate": "2025-01-10",
      "latitude": 51.9667,
      "name": "WAGENINGEN PD, NL",
      "datacoverage": 1,
      "id": "GHCND:NLE00109348",
      "elevationUnit": "METERS",
      "longitude": 5.65
    },
    {
      "elevation": 2,
      "mindate": "1950-12-01",
      "maxdate": "2025-01-10",
      "latitude": 52.4331,
      "name": "WAPENVELD, NL",
      "datacoverage": 1,
      "id": "GHCND:NLE00109350",
      "elevationUnit": "METERS",
      "longitude": 6.0831
    },
    {
      "elevation": 32,
      "mindate": "1950-12-01",
      "maxdate": "2025-01-10",
      "latitude": 51.25,
      "name": "WEERT, NL",
      "datacoverage": 1,
      "id": "GHCND:NLE00109352",
      "elevationUnit": "METERS",
      "longitude": 5.7
    },
    {
      "elevation": -3,
      "mindate": "1950-12-31",
      "maxdate": "2025-01-10",
      "latitude": 52.5831,
      "name": "WEST BEEMSTER, NL",
      "datacoverage": 0.999,
      "id": "GHCND:NLE00109354",
      "elevationUnit": "METERS",
      "longitude": 4.9
    },
    {
      "elevation": 1,
      "mindate": "1950-12-01",
      "maxdate": "2025-01-10",
      "latitude": 51.5331,
      "name": "WESTKAPELLE, NL",
      "datacoverage": 1,
      "id": "GHCND:NLE00109356",
      "elevationUnit": "METERS",
      "longitude": 3.45
    },
    {
      "elevation": 6,
      "mindate": "1960-12-31",
      "maxdate": "2025-01-10",
      "latitude": 51.9667,
      "name": "WIJK BIJ DUURSTEDE, NL",
      "datacoverage": 1,
      "id": "GHCND:NLE00109358",
      "elevationUnit": "METERS",
      "longitude": 5.3167
    },
    {
      "elevation": 0,
      "mindate": "1950-12-01",
      "maxdate": "2018-01-31",
      "latitude": 53.1331,
      "name": "WINSCHOTEN, NL",
      "datacoverage": 1,
      "id": "GHCND:NLE00109360",
      "elevationUnit": "METERS",
      "longitude": 7.05
    },
    {
      "elevation": 1,
      "mindate": "1950-12-01",
      "maxdate": "2025-01-10",
      "latitude": 51.5331,
      "name": "WOLPHAARTSDIJK, NL",
      "datacoverage": 1,
      "id": "GHCND:NLE00109362",
      "elevationUnit": "METERS",
      "longitude": 3.7331
    },
    {
      "elevation": -1,
      "mindate": "1950-12-01",
      "maxdate": "2020-09-19",
      "latitude": 53.2667,
      "name": "WOLTERSUM, NL",
      "datacoverage": 1,
      "id": "GHCND:NLE00109364",
      "elevationUnit": "METERS",
      "longitude": 6.7167
    },
    {
      "elevation": 48,
      "mindate": "1979-12-31",
      "maxdate": "2025-01-10",
      "latitude": 51.9167,
      "name": "WOOLD, NL",
      "datacoverage": 1,
      "id": "GHCND:NLE00109366",
      "elevationUnit": "METERS",
      "longitude": 6.7331
    },
    {
      "elevation": 18,
      "mindate": "1950-12-01",
      "maxdate": "2025-01-10",
      "latitude": 52.4167,
      "name": "ZAANDAM HEMBRUG, NL",
      "datacoverage": 0.9984,
      "id": "GHCND:NLE00109368",
      "elevationUnit": "METERS",
      "longitude": 4.8331
    },
    {
      "elevation": 3,
      "mindate": "1950-12-01",
      "maxdate": "2025-01-10",
      "latitude": 51.8,
      "name": "ZALTBOMMEL, NL",
      "datacoverage": 0.9985,
      "id": "GHCND:NLE00109370",
      "elevationUnit": "METERS",
      "longitude": 5.2667
    }
  ]
}
