{
  "metadata": {
    "resultset": {
      "offset": 59200,
      "count": 154115,
      "limit": 100
    }
  },
  "results": [
    {
      "elevation": 1122,
      "mindate": "1938-09-01",
      "maxdate": "1969-12-31",
      "latitude": 33.03,
      "name": "CHENANI, IN",
      "datacoverage": 0.4388,
      "id": "GHCND:IN008090700",
      "elevationUnit": "METERS",
      "longitude": 75.28
    },
    {
      "elevation": 1630,
      "mindate": "1961-08-01",
      "maxdate": "1970-12-31",
      "latitude": 33.5,
      "name": "BANIHAL OBSERVATORY, IN",
      "datacoverage": 1,
      "id": "GHCND:IN008090900",
      "elevationUnit": "METERS",
      "longitude": 75.17
    },
    {
      "elevation": 1628,
      "mindate": "1901-01-01",
      "maxdate": "1947-09-30",
      "latitude": 34.05,
      "name": "URI, IN",
      "datacoverage": 0.9983,
      "id": "GHCND:IN008119900",
      "elevationUnit": "METERS",
      "longitude": 74.03
    },
    {
      "elevation": 2799,
      "mindate": "1901-01-01",
      "maxdate": "1947-08-31",
      "latitude": 34.67,
      "name": "KARNAH, IN",
      "datacoverage": 0.9929,
      "id": "GHCND:IN008119902",
      "elevationUnit": "METERS",
      "longitude": 74.08
    },
    {
      "elevation": 921,
      "mindate": "1901-01-01",
      "maxdate": "2025-03-06",
      "latitude": 12.967,
      "name": "BANGALORE, IN",
      "datacoverage": 0.9487,
      "id": "GHCND:IN009010100",
      "elevationUnit": "METERS",
      "longitude": 77.583
    },
    {
      "elevation": 858,
      "mindate": "1901-01-01",
      "maxdate": "1970-12-31",
      "latitude": 13.08,
      "name": "HASKOTE, IN",
      "datacoverage": 0.9976,
      "id": "GHCND:IN009010101",
      "elevationUnit": "METERS",
      "longitude": 77.78
    },
    {
      "elevation": 889,
      "mindate": "1901-01-01",
      "maxdate": "1970-12-31",
      "latitude": 13.28,
      "name": "DODBALLAPUR, IN",
      "datacoverage": 1,
      "id": "GHCND:IN009010200",
      "elevationUnit": "METERS",
      "longitude": 77.55
    },
    {
      "elevation": 627,
      "mindate": "1901-01-01",
      "maxdate": "1970-12-31",
      "latitude": 12.55,
      "name": "KANAKAPURA, IN",
      "datacoverage": 0.9988,
      "id": "GHCND:IN009010201",
      "elevationUnit": "METERS",
      "longitude": 77.42
    },
    {
      "elevation": 909,
      "mindate": "1901-01-01",
      "maxdate": "1970-12-31",
      "latitude": 13.1,
      "name": "NELAMANGALA, IN",
      "datacoverage": 1,
      "id": "GHCND:IN009010300",
      "elevationUnit": "METERS",
      "longitude": 77.4
    },
    {
      "elevation": 871,
      "mindate": "1901-01-01",
      "maxdate": "1968-12-31",
      "latitude": 12.95,
      "name": "MAGADI, IN",
      "datacoverage": 0.9975,
      "id": "GHCND:IN009010301",
      "elevationUnit": "METERS",
      "longitude": 77.22
    },
    {
      "elevation": 686,
      "mindate": "1901-01-01",
      "maxdate": "1970-12-31",
      "latitude": 12.72,
      "name": "RAMNAGARAM, IN",
      "datacoverage": 0.9976,
      "id": "GHCND:IN009010400",
      "elevationUnit": "METERS",
      "longitude": 77.28
    },
    {
      "elevation": 891,
      "mindate": "1901-01-01",
      "maxdate": "1969-12-31",
      "latitude": 13.25,
      "name": "DEVANHALLI, IN",
      "datacoverage": 1,
      "id": "GHCND:IN009010401",
      "elevationUnit": "METERS",
      "longitude": 77.7
    },
    {
      "elevation": 914,
      "mindate": "1901-01-01",
      "maxdate": "1970-12-31",
      "latitude": 12.7,
      "name": "ANEKAL, IN",
      "datacoverage": 0.9988,
      "id": "GHCND:IN009010500",
      "elevationUnit": "METERS",
      "longitude": 77.68
    },
    {
      "elevation": 669,
      "mindate": "1901-01-01",
      "maxdate": "1970-12-31",
      "latitude": 12.65,
      "name": "CHANNAPATANA, IN",
      "datacoverage": 0.9857,
      "id": "GHCND:IN009010600",
      "elevationUnit": "METERS",
      "longitude": 77.2
    },
    {
      "elevation": 903,
      "mindate": "1952-04-01",
      "maxdate": "1964-12-31",
      "latitude": 12.92,
      "name": "VARTUR, IN",
      "datacoverage": 0.7993,
      "id": "GHCND:IN009011400",
      "elevationUnit": "METERS",
      "longitude": 77.75
    },
    {
      "elevation": 656,
      "mindate": "1955-01-01",
      "maxdate": "1970-12-31",
      "latitude": 12.43,
      "name": "KODIHALLI, IN",
      "datacoverage": 0.5,
      "id": "GHCND:IN009011600",
      "elevationUnit": "METERS",
      "longitude": 77.5
    },
    {
      "elevation": 711,
      "mindate": "1952-04-01",
      "maxdate": "1970-12-31",
      "latitude": 12.45,
      "name": "SATNUR SATNURU, IN",
      "datacoverage": 0.5644,
      "id": "GHCND:IN009011700",
      "elevationUnit": "METERS",
      "longitude": 77.32
    },
    {
      "elevation": 860,
      "mindate": "1952-04-01",
      "maxdate": "1970-12-31",
      "latitude": 13.08,
      "name": "HESSARGHATTA, IN",
      "datacoverage": 0.6425,
      "id": "GHCND:IN009011800",
      "elevationUnit": "METERS",
      "longitude": 77.42
    },
    {
      "elevation": 891,
      "mindate": "1957-01-01",
      "maxdate": "1970-12-31",
      "latitude": 12.75,
      "name": "ATTIBELE, IN",
      "datacoverage": 0.8572,
      "id": "GHCND:IN009011801",
      "elevationUnit": "METERS",
      "longitude": 77.78
    },
    {
      "elevation": 899,
      "mindate": "1952-04-01",
      "maxdate": "1970-12-31",
      "latitude": 13,
      "name": "HEBBAL, IN",
      "datacoverage": 0.866,
      "id": "GHCND:IN009011900",
      "elevationUnit": "METERS",
      "longitude": 77.58
    },
    {
      "elevation": 909,
      "mindate": "1952-04-01",
      "maxdate": "1960-12-31",
      "latitude": 13.12,
      "name": "YELAHANKA, IN",
      "datacoverage": 0.8854,
      "id": "GHCND:IN009012000",
      "elevationUnit": "METERS",
      "longitude": 77.58
    },
    {
      "elevation": 857,
      "mindate": "1953-01-01",
      "maxdate": "1970-12-31",
      "latitude": 13,
      "name": "KADGUDI KADGOD, IN",
      "datacoverage": 0.9369,
      "id": "GHCND:IN009012200",
      "elevationUnit": "METERS",
      "longitude": 77.78
    },
    {
      "elevation": 823,
      "mindate": "1952-04-01",
      "maxdate": "1970-12-31",
      "latitude": 13.4,
      "name": "SASALU, IN",
      "datacoverage": 0.8799,
      "id": "GHCND:IN009012300",
      "elevationUnit": "METERS",
      "longitude": 77.38
    },
    {
      "elevation": 693,
      "mindate": "1952-04-01",
      "maxdate": "1970-12-31",
      "latitude": 13.58,
      "name": "BHAKTHARAHALLI, IN",
      "datacoverage": 0.9955,
      "id": "GHCND:IN009012400",
      "elevationUnit": "METERS",
      "longitude": 77.42
    },
    {
      "elevation": 91,
      "mindate": "1952-04-01",
      "maxdate": "1964-12-31",
      "latitude": 13.22,
      "name": "TYAMAGONDLU, IN",
      "datacoverage": 0.9932,
      "id": "GHCND:IN009012500",
      "elevationUnit": "METERS",
      "longitude": 77.3
    },
    {
      "elevation": 927,
      "mindate": "1952-04-01",
      "maxdate": "1970-12-31",
      "latitude": 13.23,
      "name": "DOBSPET SAMPUR, IN",
      "datacoverage": 0.7328,
      "id": "GHCND:IN009012600",
      "elevationUnit": "METERS",
      "longitude": 77.25
    },
    {
      "elevation": 91,
      "mindate": "1952-04-01",
      "maxdate": "1967-12-31",
      "latitude": 13.13,
      "name": "BEGUR, IN",
      "datacoverage": 0.9788,
      "id": "GHCND:IN009012700",
      "elevationUnit": "METERS",
      "longitude": 77.33
    },
    {
      "elevation": 897,
      "mindate": "1942-09-03",
      "maxdate": "2024-05-30",
      "latitude": 12.95,
      "name": "BANGALORE HINDUSTAN, IN",
      "datacoverage": 0.3379,
      "id": "GHCND:IN009012800",
      "elevationUnit": "METERS",
      "longitude": 77.633
    },
    {
      "elevation": 919,
      "mindate": "1952-04-01",
      "maxdate": "1965-12-31",
      "latitude": 13.08,
      "name": "TAVAREKERE, IN",
      "datacoverage": 0.8545,
      "id": "GHCND:IN009012801",
      "elevationUnit": "METERS",
      "longitude": 77.92
    },
    {
      "elevation": 899,
      "mindate": "1952-04-01",
      "maxdate": "1969-12-31",
      "latitude": 12.95,
      "name": "BANGALORE C.JAIL, IN",
      "datacoverage": 0.7699,
      "id": "GHCND:IN009012900",
      "elevationUnit": "METERS",
      "longitude": 77.6
    },
    {
      "elevation": 903,
      "mindate": "1952-04-01",
      "maxdate": "1967-12-31",
      "latitude": 13.07,
      "name": "SOLUR, IN",
      "datacoverage": 0.9365,
      "id": "GHCND:IN009012901",
      "elevationUnit": "METERS",
      "longitude": 77.25
    },
    {
      "elevation": 896,
      "mindate": "1956-10-01",
      "maxdate": "1964-12-31",
      "latitude": 13.17,
      "name": "CHIKJALA, IN",
      "datacoverage": 0.8789,
      "id": "GHCND:IN009013000",
      "elevationUnit": "METERS",
      "longitude": 77.58
    },
    {
      "elevation": 485,
      "mindate": "1951-01-01",
      "maxdate": "1960-03-15",
      "latitude": 13.37,
      "name": "NANDI HILLS, IN",
      "datacoverage": 0.9643,
      "id": "GHCND:IN009015300",
      "elevationUnit": "METERS",
      "longitude": 77.68
    },
    {
      "elevation": 861,
      "mindate": "1952-04-01",
      "maxdate": "1970-12-31",
      "latitude": 13.08,
      "name": "SOLDEVANHALLI, IN",
      "datacoverage": 0.7139,
      "id": "GHCND:IN009015400",
      "elevationUnit": "METERS",
      "longitude": 77.52
    },
    {
      "elevation": 615,
      "mindate": "1901-01-01",
      "maxdate": "1970-12-31",
      "latitude": 16.17,
      "name": "GOKAK, IN",
      "datacoverage": 1,
      "id": "GHCND:IN009020100",
      "elevationUnit": "METERS",
      "longitude": 74.83
    },
    {
      "elevation": 637,
      "mindate": "1901-01-01",
      "maxdate": "1970-12-31",
      "latitude": 16.43,
      "name": "CHIKODI, IN",
      "datacoverage": 1,
      "id": "GHCND:IN009020201",
      "elevationUnit": "METERS",
      "longitude": 74.58
    },
    {
      "elevation": 630,
      "mindate": "1901-01-01",
      "maxdate": "1970-12-31",
      "latitude": 16.23,
      "name": "HUKERI, IN",
      "datacoverage": 1,
      "id": "GHCND:IN009020300",
      "elevationUnit": "METERS",
      "longitude": 74.6
    },
    {
      "elevation": 654,
      "mindate": "1901-01-01",
      "maxdate": "1970-12-31",
      "latitude": 15.63,
      "name": "KHANPUR, IN",
      "datacoverage": 1,
      "id": "GHCND:IN009020400",
      "elevationUnit": "METERS",
      "longitude": 74.52
    },
    {
      "elevation": 581,
      "mindate": "1934-01-01",
      "maxdate": "1970-12-31",
      "latitude": 16.48,
      "name": "RAIBAG, IN",
      "datacoverage": 1,
      "id": "GHCND:IN009020401",
      "elevationUnit": "METERS",
      "longitude": 74.78
    },
    {
      "elevation": 555,
      "mindate": "1901-01-01",
      "maxdate": "1970-12-31",
      "latitude": 16.73,
      "name": "ATHANI, IN",
      "datacoverage": 0.9857,
      "id": "GHCND:IN009020700",
      "elevationUnit": "METERS",
      "longitude": 75.07
    },
    {
      "elevation": 680,
      "mindate": "1901-01-01",
      "maxdate": "1970-12-31",
      "latitude": 15.82,
      "name": "SAMPAGAON BAILH, IN",
      "datacoverage": 1,
      "id": "GHCND:IN009020900",
      "elevationUnit": "METERS",
      "longitude": 74.85
    },
    {
      "elevation": 557,
      "mindate": "1901-01-01",
      "maxdate": "1970-12-31",
      "latitude": 15.95,
      "name": "RAMDURG, IN",
      "datacoverage": 1,
      "id": "GHCND:IN009020901",
      "elevationUnit": "METERS",
      "longitude": 75.3
    },
    {
      "elevation": 747,
      "mindate": "1953-01-01",
      "maxdate": "2025-03-06",
      "latitude": 15.85,
      "name": "BELGAUM SAMBRA, IN",
      "datacoverage": 0.8657,
      "id": "GHCND:IN009021000",
      "elevationUnit": "METERS",
      "longitude": 74.617
    },
    {
      "elevation": 669,
      "mindate": "1901-01-01",
      "maxdate": "1970-12-31",
      "latitude": 15.77,
      "name": "SAUNDATTI, IN",
      "datacoverage": 0.8857,
      "id": "GHCND:IN009021001",
      "elevationUnit": "METERS",
      "longitude": 75.1
    },
    {
      "elevation": 753,
      "mindate": "1901-01-01",
      "maxdate": "1970-12-31",
      "latitude": 15.85,
      "name": "BELGAUM, IN",
      "datacoverage": 0.9714,
      "id": "GHCND:IN009021100",
      "elevationUnit": "METERS",
      "longitude": 74.533
    },
    {
      "elevation": 737,
      "mindate": "1957-01-01",
      "maxdate": "1965-12-31",
      "latitude": 15.83,
      "name": "PARASGAD, IN",
      "datacoverage": 0.889,
      "id": "GHCND:IN009021400",
      "elevationUnit": "METERS",
      "longitude": 75.08
    },
    {
      "elevation": 381,
      "mindate": "1901-01-01",
      "maxdate": "1970-12-31",
      "latitude": 15.63,
      "name": "SIRUGUPPA, IN",
      "datacoverage": 1,
      "id": "GHCND:IN009030200",
      "elevationUnit": "METERS",
      "longitude": 76.9
    },
    {
      "elevation": 449,
      "mindate": "1901-01-01",
      "maxdate": "1970-12-31",
      "latitude": 15.15,
      "name": "BELLARY, IN",
      "datacoverage": 0.9953,
      "id": "GHCND:IN009030300",
      "elevationUnit": "METERS",
      "longitude": 76.85
    },
    {
      "elevation": 390,
      "mindate": "1901-01-01",
      "maxdate": "1970-12-31",
      "latitude": 15.4,
      "name": "KAMPLI, IN",
      "datacoverage": 0.9988,
      "id": "GHCND:IN009030400",
      "elevationUnit": "METERS",
      "longitude": 76.6
    },
    {
      "elevation": 467,
      "mindate": "1901-01-01",
      "maxdate": "1970-12-31",
      "latitude": 15.27,
      "name": "HOSPET, IN",
      "datacoverage": 0.9988,
      "id": "GHCND:IN009030500",
      "elevationUnit": "METERS",
      "longitude": 76.4
    },
    {
      "elevation": 443,
      "mindate": "1929-01-01",
      "maxdate": "1970-12-31",
      "latitude": 15.35,
      "name": "KURUGODU, IN",
      "datacoverage": 0.8274,
      "id": "GHCND:IN009030600",
      "elevationUnit": "METERS",
      "longitude": 76.83
    },
    {
      "elevation": 575,
      "mindate": "1902-01-01",
      "maxdate": "1970-12-31",
      "latitude": 14.92,
      "name": "KUDLIGI, IN",
      "datacoverage": 1,
      "id": "GHCND:IN009030601",
      "elevationUnit": "METERS",
      "longitude": 76.38
    },
    {
      "elevation": 582,
      "mindate": "1928-05-01",
      "maxdate": "1959-12-31",
      "latitude": 14.83,
      "name": "KOTTUR, IN",
      "datacoverage": 0.9973,
      "id": "GHCND:IN009030700",
      "elevationUnit": "METERS",
      "longitude": 76.22
    },
    {
      "elevation": 577,
      "mindate": "1953-02-01",
      "maxdate": "1970-12-31",
      "latitude": 15.1,
      "name": "SANDUR, IN",
      "datacoverage": 0.9994,
      "id": "GHCND:IN009030701",
      "elevationUnit": "METERS",
      "longitude": 76.55
    },
    {
      "elevation": 549,
      "mindate": "1901-01-01",
      "maxdate": "1970-12-31",
      "latitude": 15.02,
      "name": "HADAGALLI, IN",
      "datacoverage": 1,
      "id": "GHCND:IN009031100",
      "elevationUnit": "METERS",
      "longitude": 75.93
    },
    {
      "elevation": 476,
      "mindate": "1959-01-01",
      "maxdate": "1970-12-31",
      "latitude": 15.25,
      "name": "MALLAPURAM, IN",
      "datacoverage": 1,
      "id": "GHCND:IN009031500",
      "elevationUnit": "METERS",
      "longitude": 76.33
    },
    {
      "elevation": 448,
      "mindate": "1901-01-01",
      "maxdate": "1970-12-31",
      "latitude": 14.78,
      "name": "HARAPANAHALLI, IN",
      "datacoverage": 1,
      "id": "GHCND:IN009031600",
      "elevationUnit": "METERS",
      "longitude": 75.98
    },
    {
      "elevation": 413,
      "mindate": "1956-01-01",
      "maxdate": "1970-12-31",
      "latitude": 15.13,
      "name": "HAGRI A.R.S., IN",
      "datacoverage": 1,
      "id": "GHCND:IN009032000",
      "elevationUnit": "METERS",
      "longitude": 77.05
    },
    {
      "elevation": 664,
      "mindate": "1901-01-01",
      "maxdate": "1970-12-31",
      "latitude": 17.917,
      "name": "BIDAR, IN",
      "datacoverage": 0.9345,
      "id": "GHCND:IN009040100",
      "elevationUnit": "METERS",
      "longitude": 77.533
    },
    {
      "elevation": 670,
      "mindate": "1956-11-01",
      "maxdate": "1970-12-31",
      "latitude": 17.77,
      "name": "HOMANABAD, IN",
      "datacoverage": 1,
      "id": "GHCND:IN009041100",
      "elevationUnit": "METERS",
      "longitude": 77.13
    },
    {
      "elevation": 639,
      "mindate": "1956-11-01",
      "maxdate": "1970-12-31",
      "latitude": 18.08,
      "name": "SANTHPUR AURAD, IN",
      "datacoverage": 1,
      "id": "GHCND:IN009042000",
      "elevationUnit": "METERS",
      "longitude": 77.43
    },
    {
      "elevation": 602,
      "mindate": "1956-11-01",
      "maxdate": "1970-12-31",
      "latitude": 18.03,
      "name": "BHALKI, IN",
      "datacoverage": 0.9295,
      "id": "GHCND:IN009042100",
      "elevationUnit": "METERS",
      "longitude": 77.22
    },
    {
      "elevation": 594,
      "mindate": "1901-01-01",
      "maxdate": "1970-12-31",
      "latitude": 16.817,
      "name": "BIJAPUR, IN",
      "datacoverage": 1,
      "id": "GHCND:IN009050100",
      "elevationUnit": "METERS",
      "longitude": 75.717
    },
    {
      "elevation": 487,
      "mindate": "1901-01-01",
      "maxdate": "1970-12-31",
      "latitude": 17.17,
      "name": "INDI, IN",
      "datacoverage": 1,
      "id": "GHCND:IN009050101",
      "elevationUnit": "METERS",
      "longitude": 75.97
    },
    {
      "elevation": 502,
      "mindate": "1901-01-01",
      "maxdate": "1970-12-31",
      "latitude": 16.92,
      "name": "SINDGI, IN",
      "datacoverage": 0.9857,
      "id": "GHCND:IN009050102",
      "elevationUnit": "METERS",
      "longitude": 76.23
    },
    {
      "elevation": 564,
      "mindate": "1901-01-01",
      "maxdate": "1970-12-31",
      "latitude": 15.97,
      "name": "ILKAL, IN",
      "datacoverage": 0.9845,
      "id": "GHCND:IN009050103",
      "elevationUnit": "METERS",
      "longitude": 76.12
    },
    {
      "elevation": 594,
      "mindate": "1901-01-01",
      "maxdate": "1970-12-31",
      "latitude": 16.58,
      "name": "BAGEWADI, IN",
      "datacoverage": 1,
      "id": "GHCND:IN009050200",
      "elevationUnit": "METERS",
      "longitude": 75.97
    },
    {
      "elevation": 586,
      "mindate": "1901-01-01",
      "maxdate": "1970-12-31",
      "latitude": 16.33,
      "name": "MUDDEBIHAL, IN",
      "datacoverage": 1,
      "id": "GHCND:IN009050201",
      "elevationUnit": "METERS",
      "longitude": 76.13
    },
    {
      "elevation": 538,
      "mindate": "1901-01-01",
      "maxdate": "1970-12-31",
      "latitude": 16.2,
      "name": "BAGALKOT, IN",
      "datacoverage": 1,
      "id": "GHCND:IN009050300",
      "elevationUnit": "METERS",
      "longitude": 75.7
    },
    {
      "elevation": 533,
      "mindate": "1901-01-01",
      "maxdate": "1970-12-31",
      "latitude": 16.07,
      "name": "HUNGUND, IN",
      "datacoverage": 0.9857,
      "id": "GHCND:IN009050301",
      "elevationUnit": "METERS",
      "longitude": 76.05
    },
    {
      "elevation": 550,
      "mindate": "1901-01-01",
      "maxdate": "1970-12-31",
      "latitude": 16.35,
      "name": "BILGI, IN",
      "datacoverage": 1,
      "id": "GHCND:IN009050400",
      "elevationUnit": "METERS",
      "longitude": 75.62
    },
    {
      "elevation": 581,
      "mindate": "1901-01-01",
      "maxdate": "1970-12-31",
      "latitude": 16.5,
      "name": "JAMKHANDI, IN",
      "datacoverage": 1,
      "id": "GHCND:IN009050500",
      "elevationUnit": "METERS",
      "longitude": 75.3
    },
    {
      "elevation": 556,
      "mindate": "1901-01-01",
      "maxdate": "1970-12-31",
      "latitude": 16.33,
      "name": "MUDHOL, IN",
      "datacoverage": 1,
      "id": "GHCND:IN009050600",
      "elevationUnit": "METERS",
      "longitude": 75.28
    },
    {
      "elevation": 554,
      "mindate": "1901-01-01",
      "maxdate": "1970-12-31",
      "latitude": 15.92,
      "name": "BADAMI, IN",
      "datacoverage": 0.9857,
      "id": "GHCND:IN009050800",
      "elevationUnit": "METERS",
      "longitude": 75.68
    },
    {
      "elevation": 1018,
      "mindate": "1901-01-01",
      "maxdate": "1970-12-31",
      "latitude": 13.33,
      "name": "CHICKMAGALUR, IN",
      "datacoverage": 1,
      "id": "GHCND:IN009060500",
      "elevationUnit": "METERS",
      "longitude": 75.77
    },
    {
      "elevation": 668,
      "mindate": "1901-01-01",
      "maxdate": "1970-12-31",
      "latitude": 13.72,
      "name": "TARIKERE, IN",
      "datacoverage": 1,
      "id": "GHCND:IN009060600",
      "elevationUnit": "METERS",
      "longitude": 75.8
    },
    {
      "elevation": 806,
      "mindate": "1901-01-01",
      "maxdate": "1970-12-31",
      "latitude": 13.55,
      "name": "KOPPA BALGADI, IN",
      "datacoverage": 1,
      "id": "GHCND:IN009060700",
      "elevationUnit": "METERS",
      "longitude": 75.35
    },
    {
      "elevation": 754,
      "mindate": "1901-01-01",
      "maxdate": "1970-12-31",
      "latitude": 13.55,
      "name": "KADUR, IN",
      "datacoverage": 0.9988,
      "id": "GHCND:IN009060800",
      "elevationUnit": "METERS",
      "longitude": 76.02
    },
    {
      "elevation": 995,
      "mindate": "1901-01-01",
      "maxdate": "1970-12-31",
      "latitude": 13.13,
      "name": "MUDIGERE, IN",
      "datacoverage": 1,
      "id": "GHCND:IN009060801",
      "elevationUnit": "METERS",
      "longitude": 75.63
    },
    {
      "elevation": 677,
      "mindate": "1901-01-01",
      "maxdate": "1970-12-31",
      "latitude": 13.62,
      "name": "NARASIMHARAJAPURA, IN",
      "datacoverage": 1,
      "id": "GHCND:IN009060900",
      "elevationUnit": "METERS",
      "longitude": 75.52
    },
    {
      "elevation": 743,
      "mindate": "1901-01-01",
      "maxdate": "1970-12-31",
      "latitude": 13.42,
      "name": "SRINGERI, IN",
      "datacoverage": 1,
      "id": "GHCND:IN009061000",
      "elevationUnit": "METERS",
      "longitude": 75.25
    },
    {
      "elevation": 907,
      "mindate": "1929-01-01",
      "maxdate": "1970-12-31",
      "latitude": 13.367,
      "name": "BALEHONUR, IN",
      "datacoverage": 0.9286,
      "id": "GHCND:IN009061200",
      "elevationUnit": "METERS",
      "longitude": 75.45
    },
    {
      "elevation": 871,
      "mindate": "1952-04-01",
      "maxdate": "1970-12-31",
      "latitude": 13.25,
      "name": "KALASAPUR, IN",
      "datacoverage": 0.8177,
      "id": "GHCND:IN009062200",
      "elevationUnit": "METERS",
      "longitude": 75.92
    },
    {
      "elevation": 1796,
      "mindate": "1952-04-01",
      "maxdate": "1962-12-31",
      "latitude": 13.43,
      "name": "ATTIGUNDI, IN",
      "datacoverage": 0.8371,
      "id": "GHCND:IN009062300",
      "elevationUnit": "METERS",
      "longitude": 75.75
    },
    {
      "elevation": 1042,
      "mindate": "1952-04-01",
      "maxdate": "1967-12-31",
      "latitude": 13.25,
      "name": "ALDUR, IN",
      "datacoverage": 0.6192,
      "id": "GHCND:IN009062400",
      "elevationUnit": "METERS",
      "longitude": 75.65
    },
    {
      "elevation": 857,
      "mindate": "1952-04-01",
      "maxdate": "1970-12-31",
      "latitude": 13.43,
      "name": "SAKREPATNA, IN",
      "datacoverage": 0.8933,
      "id": "GHCND:IN009062500",
      "elevationUnit": "METERS",
      "longitude": 75.92
    },
    {
      "elevation": 792,
      "mindate": "1952-04-01",
      "maxdate": "1966-12-31",
      "latitude": 13.7,
      "name": "LAKKAVALLI, IN",
      "datacoverage": 0.8419,
      "id": "GHCND:IN009062600",
      "elevationUnit": "METERS",
      "longitude": 75.67
    },
    {
      "elevation": 791,
      "mindate": "1952-04-01",
      "maxdate": "1970-12-31",
      "latitude": 13.6,
      "name": "LINGADAHALLI, IN",
      "datacoverage": 0.9644,
      "id": "GHCND:IN009062700",
      "elevationUnit": "METERS",
      "longitude": 75.83
    },
    {
      "elevation": 625,
      "mindate": "1952-04-01",
      "maxdate": "1970-12-31",
      "latitude": 13.53,
      "name": "HARIHARPUR, IN",
      "datacoverage": 0.8889,
      "id": "GHCND:IN009062800",
      "elevationUnit": "METERS",
      "longitude": 75.3
    },
    {
      "elevation": 794,
      "mindate": "1952-04-01",
      "maxdate": "1970-12-31",
      "latitude": 13.23,
      "name": "KALASA, IN",
      "datacoverage": 0.9777,
      "id": "GHCND:IN009062900",
      "elevationUnit": "METERS",
      "longitude": 75.35
    },
    {
      "elevation": 991,
      "mindate": "1952-05-01",
      "maxdate": "1969-12-31",
      "latitude": 13.42,
      "name": "HIREBYLE, IN",
      "datacoverage": 0.8913,
      "id": "GHCND:IN009063000",
      "elevationUnit": "METERS",
      "longitude": 75.5
    },
    {
      "elevation": 711,
      "mindate": "1955-01-01",
      "maxdate": "1961-12-31",
      "latitude": 13.62,
      "name": "YEGATI, IN",
      "datacoverage": 0.7024,
      "id": "GHCND:IN009063100",
      "elevationUnit": "METERS",
      "longitude": 76.15
    },
    {
      "elevation": 889,
      "mindate": "1953-01-01",
      "maxdate": "1970-12-31",
      "latitude": 13.35,
      "name": "BELEHONNUR, IN",
      "datacoverage": 0.9993,
      "id": "GHCND:IN009063101",
      "elevationUnit": "METERS",
      "longitude": 75.47
    },
    {
      "elevation": 744,
      "mindate": "1952-04-01",
      "maxdate": "1970-12-31",
      "latitude": 13.73,
      "name": "AIJAMPUR, IN",
      "datacoverage": 0.8711,
      "id": "GHCND:IN009063200",
      "elevationUnit": "METERS",
      "longitude": 76
    },
    {
      "elevation": 914,
      "mindate": "1952-04-01",
      "maxdate": "1968-12-31",
      "latitude": 13.1,
      "name": "GONIBIDU, IN",
      "datacoverage": 0.9551,
      "id": "GHCND:IN009063201",
      "elevationUnit": "METERS",
      "longitude": 75.68
    },
    {
      "elevation": 770,
      "mindate": "1952-04-01",
      "maxdate": "1970-12-31",
      "latitude": 13.82,
      "name": "SIVANI, IN",
      "datacoverage": 0.8533,
      "id": "GHCND:IN009063300",
      "elevationUnit": "METERS",
      "longitude": 76.03
    },
    {
      "elevation": 945,
      "mindate": "1952-04-01",
      "maxdate": "1970-12-31",
      "latitude": 13.08,
      "name": "KOTTIGEHAR TOLL, IN",
      "datacoverage": 0.9993,
      "id": "GHCND:IN009063400",
      "elevationUnit": "METERS",
      "longitude": 75.5
    },
    {
      "elevation": 914,
      "mindate": "1952-04-01",
      "maxdate": "1968-12-31",
      "latitude": 13.2,
      "name": "SEEGEHALLI ESTATE, IN",
      "datacoverage": 0.965,
      "id": "GHCND:IN009063500",
      "elevationUnit": "METERS",
      "longitude": 75.7
    },
    {
      "elevation": 1057,
      "mindate": "1975-01-01",
      "maxdate": "1984-12-31",
      "latitude": 13.25,
      "name": "CHICKMAGALUR OBSERVATORY, IN",
      "datacoverage": 0.9249,
      "id": "GHCND:IN009063800",
      "elevationUnit": "METERS",
      "longitude": 75.75
    },
    {
      "elevation": 733,
      "mindate": "1901-01-01",
      "maxdate": "2025-03-06",
      "latitude": 14.233,
      "name": "CHITRADURGA, IN",
      "datacoverage": 0.9227,
      "id": "GHCND:IN009070100",
      "elevationUnit": "METERS",
      "longitude": 76.433
    }
  ]
}
