{
  "metadata": {
    "resultset": {
      "offset": 17600,
      "count": 154115,
      "limit": 100
    }
  },
  "results": [
    {
      "elevation": 1969.9,
      "mindate": "1948-07-01",
      "maxdate": "1975-12-01",
      "latitude": 38.11667,
      "name": "ANTIMONY, UT US",
      "datacoverage": 0.4277,
      "id": "COOP:420201",
      "elevationUnit": "METERS",
      "longitude": -112
    },
    {
      "elevation": 2104.9,
      "mindate": "1968-10-01",
      "maxdate": "1973-03-30",
      "latitude": 38.1,
      "name": "ANTIMONY CREEK, UT US",
      "datacoverage": 0.0146,
      "id": "COOP:420213",
      "elevationUnit": "METERS",
      "longitude": -111.88333
    },
    {
      "elevation": 1293,
      "mindate": "1950-01-01",
      "maxdate": "1966-04-01",
      "latitude": 40.7,
      "name": "SALT LAKE CITY SUBURBAN SEWAGE PLANT, UT US",
      "datacoverage": 1,
      "id": "COOP:420302",
      "elevationUnit": "METERS",
      "longitude": -111.91667
    },
    {
      "elevation": 1247.5,
      "mindate": "1980-06-01",
      "maxdate": "2015-11-01",
      "latitude": 38.6163,
      "name": "ARCHES NATIONAL PARK HQS, UT US",
      "datacoverage": 0.9906,
      "id": "COOP:420336",
      "elevationUnit": "METERS",
      "longitude": -109.6191
    },
    {
      "elevation": 2127.5,
      "mindate": "1977-03-01",
      "maxdate": "2011-09-01",
      "latitude": 40.6419,
      "name": "ARGENTA, UT US",
      "datacoverage": 0.0295,
      "id": "COOP:420342",
      "elevationUnit": "METERS",
      "longitude": -111.6797
    },
    {
      "elevation": 1566.4,
      "mindate": "1956-09-01",
      "maxdate": "1994-09-01",
      "latitude": 40.16667,
      "name": "BARTHOLOMEW POWERHOU, UT US",
      "datacoverage": 0.9914,
      "id": "COOP:420449",
      "elevationUnit": "METERS",
      "longitude": -111.5
    },
    {
      "elevation": 1513,
      "mindate": "1941-03-01",
      "maxdate": "1959-12-01",
      "latitude": 40.46667,
      "name": "BAUER, UT US",
      "datacoverage": 0.9158,
      "id": "COOP:420478",
      "elevationUnit": "METERS",
      "longitude": -112.36667
    },
    {
      "elevation": 1806.9,
      "mindate": "1989-04-01",
      "maxdate": "2015-11-01",
      "latitude": 41.96393,
      "name": "BEAR LAKE STATE PARK, UT US",
      "datacoverage": 0.9625,
      "id": "COOP:420487",
      "elevationUnit": "METERS",
      "longitude": -111.39844
    },
    {
      "elevation": 1283.2,
      "mindate": "1969-05-01",
      "maxdate": "1996-06-01",
      "latitude": 41.3,
      "name": "BEAR RIVER BAY, UT US",
      "datacoverage": 0.9417,
      "id": "COOP:420490",
      "elevationUnit": "METERS",
      "longitude": -112.26667
    },
    {
      "elevation": 1284.1,
      "mindate": "1937-08-01",
      "maxdate": "1984-02-01",
      "latitude": 41.46667,
      "name": "BEAR RIVER REFUGE, UT US",
      "datacoverage": 0.9982,
      "id": "COOP:420506",
      "elevationUnit": "METERS",
      "longitude": -112.26667
    },
    {
      "elevation": 1810.5,
      "mindate": "1931-01-01",
      "maxdate": "1990-05-01",
      "latitude": 38.3,
      "name": "BEAVER, UT US",
      "datacoverage": 0.986,
      "id": "COOP:420519",
      "elevationUnit": "METERS",
      "longitude": -112.65
    },
    {
      "elevation": 1975.1,
      "mindate": "1979-08-01",
      "maxdate": "2014-01-01",
      "latitude": 38.27978,
      "name": "BEAVER 4 E, UT US",
      "datacoverage": 0.0152,
      "id": "COOP:420522",
      "elevationUnit": "METERS",
      "longitude": -112.56821
    },
    {
      "elevation": 2215.9,
      "mindate": "1939-08-01",
      "maxdate": "2015-11-01",
      "latitude": 38.26827,
      "name": "BEAVER CANYON POWER HOUSE, UT US",
      "datacoverage": 0.9705,
      "id": "COOP:420527",
      "elevationUnit": "METERS",
      "longitude": -112.4818
    },
    {
      "elevation": 1815.1,
      "mindate": "1931-01-01",
      "maxdate": "1953-08-01",
      "latitude": 40.03333,
      "name": "BENMORE, UT US",
      "datacoverage": 0.9559,
      "id": "COOP:420617",
      "elevationUnit": "METERS",
      "longitude": -112.41667
    },
    {
      "elevation": 1249.7,
      "mindate": "1986-05-01",
      "maxdate": "2015-11-01",
      "latitude": 37.0769,
      "name": "BIG WATER, UT US",
      "datacoverage": 0.9323,
      "id": "COOP:420688",
      "elevationUnit": "METERS",
      "longitude": -111.6638
    },
    {
      "elevation": 1861.1,
      "mindate": "1941-01-01",
      "maxdate": "1974-10-01",
      "latitude": 40.53333,
      "name": "BINGHAM CANYON, UT US",
      "datacoverage": 0.9705,
      "id": "COOP:420699",
      "elevationUnit": "METERS",
      "longitude": -112.15
    },
    {
      "elevation": 1713.9,
      "mindate": "1975-01-01",
      "maxdate": "1985-08-01",
      "latitude": 40.56667,
      "name": "BINGHAM CANYON 2 NE, UT US",
      "datacoverage": 1,
      "id": "COOP:420700",
      "elevationUnit": "METERS",
      "longitude": -112.13333
    },
    {
      "elevation": 1743.2,
      "mindate": "1933-10-01",
      "maxdate": "1992-04-01",
      "latitude": 39.86667,
      "name": "BIRDSEYE, UT US",
      "datacoverage": 0.845,
      "id": "COOP:420716",
      "elevationUnit": "METERS",
      "longitude": -111.53333
    },
    {
      "elevation": 1664.5,
      "mindate": "1983-05-01",
      "maxdate": "1983-05-01",
      "latitude": 39.91667,
      "name": "BIRDSEYE BENNIE CRK, UT US",
      "datacoverage": 0.9819,
      "id": "COOP:420717",
      "elevationUnit": "METERS",
      "longitude": -111.55
    },
    {
      "elevation": 1701.1,
      "mindate": "1979-11-01",
      "maxdate": "1983-09-01",
      "latitude": 39.88333,
      "name": "BIRDSEYE NEBO CREEK, UT US",
      "datacoverage": 0.9153,
      "id": "COOP:420718",
      "elevationUnit": "METERS",
      "longitude": -111.55
    },
    {
      "elevation": 1498.4,
      "mindate": "1951-05-01",
      "maxdate": "2015-11-01",
      "latitude": 38.7076,
      "name": "BLACK ROCK, UT US",
      "datacoverage": 0.9987,
      "id": "COOP:420730",
      "elevationUnit": "METERS",
      "longitude": -112.9539
    },
    {
      "elevation": 1839.5,
      "mindate": "1931-01-01",
      "maxdate": "2015-11-01",
      "latitude": 37.61322,
      "name": "BLANDING, UT US",
      "datacoverage": 0.9912,
      "id": "COOP:420738",
      "elevationUnit": "METERS",
      "longitude": -109.48484
    },
    {
      "elevation": 3259.5,
      "mindate": "1964-06-01",
      "maxdate": "2006-03-01",
      "latitude": 37.5927,
      "name": "BLOWHARD MOUNTAIN RADAR, UT US",
      "datacoverage": 0.9801,
      "id": "COOP:420757",
      "elevationUnit": "METERS",
      "longitude": -112.8638
    },
    {
      "elevation": 1478.9,
      "mindate": "1941-01-01",
      "maxdate": "1952-07-01",
      "latitude": 41.9,
      "name": "BLUE CREEK, UT US",
      "datacoverage": 0.8563,
      "id": "COOP:420777",
      "elevationUnit": "METERS",
      "longitude": -112.5
    },
    {
      "elevation": 1316.4,
      "mindate": "1931-01-01",
      "maxdate": "2015-11-01",
      "latitude": 37.2824,
      "name": "BLUFF, UT US",
      "datacoverage": 0.9932,
      "id": "COOP:420788",
      "elevationUnit": "METERS",
      "longitude": -109.5575
    },
    {
      "elevation": 1661.2,
      "mindate": "1938-01-01",
      "maxdate": "1993-02-01",
      "latitude": 40.01667,
      "name": "BONANZA, UT US",
      "datacoverage": 0.8535,
      "id": "COOP:420802",
      "elevationUnit": "METERS",
      "longitude": -109.18333
    },
    {
      "elevation": 1738.9,
      "mindate": "1960-05-01",
      "maxdate": "1966-05-01",
      "latitude": 40.03333,
      "name": "BONANZA PUMPING STATION, UT US",
      "datacoverage": 1,
      "id": "COOP:420810",
      "elevationUnit": "METERS",
      "longitude": -109.11667
    },
    {
      "elevation": 1383.8,
      "mindate": "1981-04-01",
      "maxdate": "2014-01-01",
      "latitude": 40.8547,
      "name": "BOUNTIFUL VAL VERDA, UT US",
      "datacoverage": 0.9948,
      "id": "COOP:420820",
      "elevationUnit": "METERS",
      "longitude": -111.8902
    },
    {
      "elevation": 1321,
      "mindate": "1946-07-01",
      "maxdate": "1959-12-01",
      "latitude": 41.71667,
      "name": "BOTHWELL, UT US",
      "datacoverage": 0.9813,
      "id": "COOP:420841",
      "elevationUnit": "METERS",
      "longitude": -112.25
    },
    {
      "elevation": 2026.9,
      "mindate": "1954-06-01",
      "maxdate": "2015-11-01",
      "latitude": 37.905,
      "name": "BOULDER, UT US",
      "datacoverage": 0.9986,
      "id": "COOP:420849",
      "elevationUnit": "METERS",
      "longitude": -111.42
    },
    {
      "elevation": 2977.9,
      "mindate": "1991-02-01",
      "maxdate": "2009-11-01",
      "latitude": 37.6933,
      "name": "BRIAN HEAD, UT US",
      "datacoverage": 0.947,
      "id": "COOP:420900",
      "elevationUnit": "METERS",
      "longitude": -112.8469
    },
    {
      "elevation": 1324.1,
      "mindate": "1913-04-01",
      "maxdate": "1974-05-01",
      "latitude": 41.48333,
      "name": "BRIGHAM CITY, UT US",
      "datacoverage": 0.9796,
      "id": "COOP:420924",
      "elevationUnit": "METERS",
      "longitude": -112.03333
    },
    {
      "elevation": 1292.4,
      "mindate": "1974-06-01",
      "maxdate": "2015-11-01",
      "latitude": 41.52417,
      "name": "BRIGHAM CITY WASTE PLANT, UT US",
      "datacoverage": 0.9759,
      "id": "COOP:420928",
      "elevationUnit": "METERS",
      "longitude": -112.04349
    },
    {
      "elevation": 2309.9,
      "mindate": "1948-11-01",
      "maxdate": "1983-05-01",
      "latitude": 37.70127,
      "name": "BRYCE CANYON AIRPORT, UT US",
      "datacoverage": 0.9833,
      "id": "COOP:421002",
      "elevationUnit": "METERS",
      "longitude": -112.14897
    },
    {
      "elevation": 2425,
      "mindate": "1971-10-01",
      "maxdate": "1978-12-01",
      "latitude": 37.63333,
      "name": "BRYCE CNYN NATIONAL PARK, UT US",
      "datacoverage": 0.9996,
      "id": "COOP:421006",
      "elevationUnit": "METERS",
      "longitude": -112.18333
    },
    {
      "elevation": 2425,
      "mindate": "1933-01-01",
      "maxdate": "1959-05-25",
      "latitude": 37.63333,
      "name": "BRYCE CNYN NATIONAL PARK, UT US",
      "datacoverage": 1,
      "id": "COOP:421007",
      "elevationUnit": "METERS",
      "longitude": -112.18333
    },
    {
      "elevation": 2404.9,
      "mindate": "1959-06-01",
      "maxdate": "2015-11-01",
      "latitude": 37.64101,
      "name": "BRYCE CANYON NATIONAL PARK HQRS, UT US",
      "datacoverage": 0.9911,
      "id": "COOP:421008",
      "elevationUnit": "METERS",
      "longitude": -112.17024
    },
    {
      "elevation": 1164.9,
      "mindate": "1967-01-01",
      "maxdate": "2015-11-01",
      "latitude": 37.52686,
      "name": "BULLFROG BASIN, UT US",
      "datacoverage": 0.8535,
      "id": "COOP:421020",
      "elevationUnit": "METERS",
      "longitude": -110.71655
    },
    {
      "elevation": 1225.3,
      "mindate": "1999-12-01",
      "maxdate": "2001-09-01",
      "latitude": 37.63028,
      "name": "BULLFROG 8 N, UT US",
      "datacoverage": 0.7723,
      "id": "COOP:421023",
      "elevationUnit": "METERS",
      "longitude": -110.72806
    },
    {
      "elevation": 1323.4,
      "mindate": "1938-06-01",
      "maxdate": "2015-11-01",
      "latitude": 39.8997,
      "name": "CALLAO, UT US",
      "datacoverage": 0.9968,
      "id": "COOP:421144",
      "elevationUnit": "METERS",
      "longitude": -113.7128
    },
    {
      "elevation": 1299.1,
      "mindate": "1967-05-01",
      "maxdate": "1984-10-01",
      "latitude": 40.68333,
      "name": "CALLISTER RANCH, UT US",
      "datacoverage": 0.9997,
      "id": "COOP:421149",
      "elevationUnit": "METERS",
      "longitude": -112.66667
    },
    {
      "elevation": 1634.6,
      "mindate": "2007-05-01",
      "maxdate": "2013-05-01",
      "latitude": 37.6661,
      "name": "CANYON BREEZE RANCH, UT US",
      "datacoverage": 0.7786,
      "id": "COOP:421162",
      "elevationUnit": "METERS",
      "longitude": -113.5423
    },
    {
      "elevation": 1789.5,
      "mindate": "1965-06-01",
      "maxdate": "2015-11-01",
      "latitude": 38.46,
      "name": "CANYONLANDS THE NECK, UT US",
      "datacoverage": 0.9918,
      "id": "COOP:421163",
      "elevationUnit": "METERS",
      "longitude": -109.8213
    },
    {
      "elevation": 1387.1,
      "mindate": "2012-01-01",
      "maxdate": "2015-11-01",
      "latitude": 38.75006,
      "name": "MOAB CANYONLAND AIRPORT, UT US",
      "datacoverage": 1,
      "id": "COOP:421164",
      "elevationUnit": "METERS",
      "longitude": -109.76267
    },
    {
      "elevation": 1495.3,
      "mindate": "1965-06-01",
      "maxdate": "2015-11-01",
      "latitude": 38.1678,
      "name": "CANYONLANDS THE NEEDLES, UT US",
      "datacoverage": 0.9901,
      "id": "COOP:421168",
      "elevationUnit": "METERS",
      "longitude": -109.7597
    },
    {
      "elevation": 1676.4,
      "mindate": "1967-01-01",
      "maxdate": "2015-11-01",
      "latitude": 38.29132,
      "name": "CAPITOL REEF NATIONAL PARK, UT US",
      "datacoverage": 0.9983,
      "id": "COOP:421171",
      "elevationUnit": "METERS",
      "longitude": -111.26221
    },
    {
      "elevation": 1715.7,
      "mindate": "1931-01-01",
      "maxdate": "2015-11-01",
      "latitude": 39.20765,
      "name": "CASTLE DALE, UT US",
      "datacoverage": 0.9166,
      "id": "COOP:421214",
      "elevationUnit": "METERS",
      "longitude": -111.0128
    },
    {
      "elevation": 1725.2,
      "mindate": "1980-03-01",
      "maxdate": "2006-08-01",
      "latitude": 39.17444,
      "name": "CASTLEDALE HTR UP AND L, UT US",
      "datacoverage": 0.9873,
      "id": "COOP:421216",
      "elevationUnit": "METERS",
      "longitude": -111.02917
    },
    {
      "elevation": 1966.9,
      "mindate": "1956-01-01",
      "maxdate": "1961-11-01",
      "latitude": 41.13333,
      "name": "CASTLE ROCK, UT US",
      "datacoverage": 0.6902,
      "id": "COOP:421222",
      "elevationUnit": "METERS",
      "longitude": -111.16667
    },
    {
      "elevation": 1780.9,
      "mindate": "1963-11-01",
      "maxdate": "1978-05-01",
      "latitude": 38.6,
      "name": "CASTLETON, UT US",
      "datacoverage": 0.983,
      "id": "COOP:421230",
      "elevationUnit": "METERS",
      "longitude": -109.33333
    },
    {
      "elevation": 1495,
      "mindate": "2015-01-01",
      "maxdate": "2015-11-01",
      "latitude": 38.6225,
      "name": "CASTLE VALLEY 1 SE, UT US",
      "datacoverage": 1,
      "id": "COOP:421240",
      "elevationUnit": "METERS",
      "longitude": -109.3916
    },
    {
      "elevation": 1440.2,
      "mindate": "1978-08-01",
      "maxdate": "2011-12-01",
      "latitude": 38.6513,
      "name": "CASTLE VALLEY, UT US",
      "datacoverage": 0.8828,
      "id": "COOP:421241",
      "elevationUnit": "METERS",
      "longitude": -109.3986
    },
    {
      "elevation": 1458.8,
      "mindate": "2009-08-01",
      "maxdate": "2014-12-01",
      "latitude": 38.6472,
      "name": "CASTLE VALLEY 1 NE, UT US",
      "datacoverage": 0.9997,
      "id": "COOP:421243",
      "elevationUnit": "METERS",
      "longitude": -109.3891
    },
    {
      "elevation": 3123,
      "mindate": "1948-07-01",
      "maxdate": "1970-09-01",
      "latitude": 37.61667,
      "name": "CEDAR BREAKS STORAGE, UT US",
      "datacoverage": 0.3932,
      "id": "COOP:421256",
      "elevationUnit": "METERS",
      "longitude": -112.83333
    },
    {
      "elevation": 3161.4,
      "mindate": "2015-01-01",
      "maxdate": "2015-11-01",
      "latitude": 37.6094,
      "name": "CEDAR BREAKS N.M., UT US",
      "datacoverage": 1,
      "id": "COOP:421258",
      "elevationUnit": "METERS",
      "longitude": -112.8377
    },
    {
      "elevation": 1856.2,
      "mindate": "2000-03-01",
      "maxdate": "2015-11-01",
      "latitude": 37.6658,
      "name": "CEDAR CITY, UT US",
      "datacoverage": 0.9894,
      "id": "COOP:421259",
      "elevationUnit": "METERS",
      "longitude": -113.08372
    },
    {
      "elevation": 1970.5,
      "mindate": "1983-03-01",
      "maxdate": "2015-11-01",
      "latitude": 37.65647,
      "name": "CEDAR CITY 5 E, UT US",
      "datacoverage": 0.9846,
      "id": "COOP:421260",
      "elevationUnit": "METERS",
      "longitude": -112.99179
    },
    {
      "elevation": 1703.8,
      "mindate": "1948-07-01",
      "maxdate": "2015-11-01",
      "latitude": 37.70672,
      "name": "CEDAR CITY AIRPORT, UT US",
      "datacoverage": 0.9802,
      "id": "COOP:421267",
      "elevationUnit": "METERS",
      "longitude": -113.09698
    },
    {
      "elevation": 1731.9,
      "mindate": "1931-01-01",
      "maxdate": "1962-01-01",
      "latitude": 37.68333,
      "name": "CEDAR CITY POWERHOUS, UT US",
      "datacoverage": 1,
      "id": "COOP:421272",
      "elevationUnit": "METERS",
      "longitude": -113.08333
    },
    {
      "elevation": 1830,
      "mindate": "1961-12-01",
      "maxdate": "1984-02-17",
      "latitude": 37.66667,
      "name": "CEDAR CITY STEAM PLA, UT US",
      "datacoverage": 0.996,
      "id": "COOP:421273",
      "elevationUnit": "METERS",
      "longitude": -113.03333
    },
    {
      "elevation": 2060.4,
      "mindate": "1957-01-01",
      "maxdate": "2015-11-01",
      "latitude": 37.7158,
      "name": "CEDAR POINT, UT US",
      "datacoverage": 0.9916,
      "id": "COOP:421308",
      "elevationUnit": "METERS",
      "longitude": -109.0827
    },
    {
      "elevation": 1377.7,
      "mindate": "1975-10-01",
      "maxdate": "1986-01-01",
      "latitude": 37.1,
      "name": "CHURCH WELLS, UT US",
      "datacoverage": 0.9754,
      "id": "COOP:421418",
      "elevationUnit": "METERS",
      "longitude": -111.76667
    },
    {
      "elevation": 1844,
      "mindate": "1941-10-01",
      "maxdate": "2010-08-01",
      "latitude": 38.1706,
      "name": "CIRCLEVILLE, UT US",
      "datacoverage": 0.9238,
      "id": "COOP:421432",
      "elevationUnit": "METERS",
      "longitude": -112.2786
    },
    {
      "elevation": 1321,
      "mindate": "1952-09-01",
      "maxdate": "1967-06-01",
      "latitude": 38.96667,
      "name": "CISCO, UT US",
      "datacoverage": 0.9835,
      "id": "COOP:421440",
      "elevationUnit": "METERS",
      "longitude": -109.31667
    },
    {
      "elevation": 1627.6,
      "mindate": "1956-02-01",
      "maxdate": "2015-11-01",
      "latitude": 40.81496,
      "name": "CITY CREEK WATER PLANT, UT US",
      "datacoverage": 0.9959,
      "id": "COOP:421446",
      "elevationUnit": "METERS",
      "longitude": -111.83209
    },
    {
      "elevation": 2532,
      "mindate": "1935-11-01",
      "maxdate": "1967-12-01",
      "latitude": 39.65,
      "name": "CLEAR CREEK, UT US",
      "datacoverage": 0.987,
      "id": "COOP:421472",
      "elevationUnit": "METERS",
      "longitude": -111.15
    },
    {
      "elevation": 1403,
      "mindate": "1963-10-01",
      "maxdate": "1984-05-01",
      "latitude": 39.1,
      "name": "CLEAR LAKE REFUGE, UT US",
      "datacoverage": 0.9999,
      "id": "COOP:421500",
      "elevationUnit": "METERS",
      "longitude": -112.61667
    },
    {
      "elevation": 1691.6,
      "mindate": "1931-01-01",
      "maxdate": "2012-12-01",
      "latitude": 40.9138,
      "name": "COALVILLE, UT US",
      "datacoverage": 0.9777,
      "id": "COOP:421588",
      "elevationUnit": "METERS",
      "longitude": -111.3983
    },
    {
      "elevation": 1984.2,
      "mindate": "1974-11-01",
      "maxdate": "2015-11-01",
      "latitude": 40.9383,
      "name": "COALVILLE 13 E, UT US",
      "datacoverage": 0.8297,
      "id": "COOP:421590",
      "elevationUnit": "METERS",
      "longitude": -111.1472
    },
    {
      "elevation": 1368.9,
      "mindate": "1968-01-01",
      "maxdate": "1969-04-01",
      "latitude": 41.66667,
      "name": "COLLEGE WARD UTAH ST, UT US",
      "datacoverage": 1,
      "id": "COOP:421601",
      "elevationUnit": "METERS",
      "longitude": -111.9
    },
    {
      "elevation": 1718.8,
      "mindate": "1963-02-01",
      "maxdate": "1989-11-01",
      "latitude": 40.33333,
      "name": "CONRAD RANCH, UT US",
      "datacoverage": 0.9597,
      "id": "COOP:421685",
      "elevationUnit": "METERS",
      "longitude": -111.51667
    },
    {
      "elevation": 2806,
      "mindate": "1952-10-01",
      "maxdate": "1953-08-01",
      "latitude": 40.66667,
      "name": "COON PEAK KSL TV, UT US",
      "datacoverage": 0.9086,
      "id": "COOP:421695",
      "elevationUnit": "METERS",
      "longitude": -112.2
    },
    {
      "elevation": 1289.3,
      "mindate": "1897-01-01",
      "maxdate": "2006-06-01",
      "latitude": 41.548,
      "name": "CORINNE, UT US",
      "datacoverage": 0.9171,
      "id": "COOP:421731",
      "elevationUnit": "METERS",
      "longitude": -112.1105
    },
    {
      "elevation": 1519.7,
      "mindate": "1931-01-01",
      "maxdate": "2015-11-01",
      "latitude": 40.6189,
      "name": "COTTONWOOD WEIR, UT US",
      "datacoverage": 0.9882,
      "id": "COOP:421759",
      "elevationUnit": "METERS",
      "longitude": -111.7836
    },
    {
      "elevation": 1827,
      "mindate": "1941-11-01",
      "maxdate": "1980-03-01",
      "latitude": 38.6,
      "name": "COVE FORT, UT US",
      "datacoverage": 0.9762,
      "id": "COOP:421792",
      "elevationUnit": "METERS",
      "longitude": -112.58333
    },
    {
      "elevation": 2036.1,
      "mindate": "1985-07-01",
      "maxdate": "1996-06-01",
      "latitude": 40.2,
      "name": "CURRANT CREEK JCT, UT US",
      "datacoverage": 0.6287,
      "id": "COOP:421907",
      "elevationUnit": "METERS",
      "longitude": -110.9
    },
    {
      "elevation": 1307.6,
      "mindate": "1980-01-01",
      "maxdate": "2015-11-01",
      "latitude": 41.83308,
      "name": "CUTLER DAM, UT US",
      "datacoverage": 0.9792,
      "id": "COOP:421918",
      "elevationUnit": "METERS",
      "longitude": -112.05788
    },
    {
      "elevation": 1606.3,
      "mindate": "1939-03-01",
      "maxdate": "2015-11-01",
      "latitude": 40.4044,
      "name": "DEER CREEK DAM, UT US",
      "datacoverage": 0.9956,
      "id": "COOP:422057",
      "elevationUnit": "METERS",
      "longitude": -111.5289
    },
    {
      "elevation": 1302.1,
      "mindate": "1951-07-01",
      "maxdate": "1952-12-01",
      "latitude": 40.76667,
      "name": "DELLE, UT US",
      "datacoverage": 0.9961,
      "id": "COOP:422073",
      "elevationUnit": "METERS",
      "longitude": -112.8
    },
    {
      "elevation": 1411.2,
      "mindate": "1938-06-01",
      "maxdate": "2015-11-01",
      "latitude": 39.33741,
      "name": "DELTA, UT US",
      "datacoverage": 0.9592,
      "id": "COOP:422090",
      "elevationUnit": "METERS",
      "longitude": -112.58571
    },
    {
      "elevation": 1466.1,
      "mindate": "1985-01-01",
      "maxdate": "1987-06-01",
      "latitude": 38.93333,
      "name": "DELTA 32 SSW, UT US",
      "datacoverage": 0.9689,
      "id": "COOP:422093",
      "elevationUnit": "METERS",
      "longitude": -112.81667
    },
    {
      "elevation": 1399.6,
      "mindate": "1931-01-01",
      "maxdate": "2015-11-01",
      "latitude": 39.28754,
      "name": "DESERET, UT US",
      "datacoverage": 0.9971,
      "id": "COOP:422101",
      "elevationUnit": "METERS",
      "longitude": -112.6513
    },
    {
      "elevation": 1599.9,
      "mindate": "1950-01-01",
      "maxdate": "1984-09-01",
      "latitude": 38.6,
      "name": "DESERT EXPERIMENTAL RANGE, UT US",
      "datacoverage": 1,
      "id": "COOP:422116",
      "elevationUnit": "METERS",
      "longitude": -113.75
    },
    {
      "elevation": 1255.8,
      "mindate": "1967-10-01",
      "maxdate": "2004-06-01",
      "latitude": 38.81278,
      "name": "DEWEY, UT US",
      "datacoverage": 0.9864,
      "id": "COOP:422150",
      "elevationUnit": "METERS",
      "longitude": -109.29972
    },
    {
      "elevation": 1549,
      "mindate": "1941-02-01",
      "maxdate": "1958-03-01",
      "latitude": 40.43333,
      "name": "DINOSAUR NATIONAL MO, UT US",
      "datacoverage": 0.7478,
      "id": "COOP:422172",
      "elevationUnit": "METERS",
      "longitude": -109.3
    },
    {
      "elevation": 1463.6,
      "mindate": "1958-04-01",
      "maxdate": "2015-11-01",
      "latitude": 40.4384,
      "name": "DINOSAUR NM QUARRY AREA, UT US",
      "datacoverage": 0.9855,
      "id": "COOP:422173",
      "elevationUnit": "METERS",
      "longitude": -109.307
    },
    {
      "elevation": 1412.1,
      "mindate": "1963-10-01",
      "maxdate": "1968-09-29",
      "latitude": 40.53333,
      "name": "DRAPER, UT US",
      "datacoverage": 0.7997,
      "id": "COOP:422233",
      "elevationUnit": "METERS",
      "longitude": -111.83333
    },
    {
      "elevation": 1373.4,
      "mindate": "1985-10-01",
      "maxdate": "2008-10-01",
      "latitude": 40.4877,
      "name": "DRAPER POINT OF MOUNTAIN, UT US",
      "datacoverage": 0.9638,
      "id": "COOP:422235",
      "elevationUnit": "METERS",
      "longitude": -111.8997
    },
    {
      "elevation": 1774.9,
      "mindate": "1974-03-01",
      "maxdate": "1980-10-01",
      "latitude": 40.2,
      "name": "DUCHESNE AIRPORT, UT US",
      "datacoverage": 0.9992,
      "id": "COOP:422252",
      "elevationUnit": "METERS",
      "longitude": -110.38333
    },
    {
      "elevation": 1691.9,
      "mindate": "1931-01-01",
      "maxdate": "2015-11-01",
      "latitude": 40.1703,
      "name": "DUCHESNE, UT US",
      "datacoverage": 0.9107,
      "id": "COOP:422253",
      "elevationUnit": "METERS",
      "longitude": -110.3978
    },
    {
      "elevation": 1716.9,
      "mindate": "1973-08-01",
      "maxdate": "1974-01-01",
      "latitude": 40.16667,
      "name": "DUCHESNE BENCH, UT US",
      "datacoverage": 0.6617,
      "id": "COOP:422254",
      "elevationUnit": "METERS",
      "longitude": -110.38333
    },
    {
      "elevation": 2560.6,
      "mindate": "1978-09-01",
      "maxdate": "2014-01-01",
      "latitude": 37.5255,
      "name": "DUCK CREEK VILLAGE, UT US",
      "datacoverage": 0.0225,
      "id": "COOP:422256",
      "elevationUnit": "METERS",
      "longitude": -112.6625
    },
    {
      "elevation": 1324.4,
      "mindate": "1950-10-01",
      "maxdate": "2012-12-01",
      "latitude": 40.1838,
      "name": "DUGWAY, UT US",
      "datacoverage": 0.9879,
      "id": "COOP:422257",
      "elevationUnit": "METERS",
      "longitude": -112.9216
    },
    {
      "elevation": 1434.1,
      "mindate": "1970-10-01",
      "maxdate": "1972-07-01",
      "latitude": 40.3,
      "name": "DUGWAY 7 N ORR RANCH, UT US",
      "datacoverage": 0.8177,
      "id": "COOP:422258",
      "elevationUnit": "METERS",
      "longitude": -112.73333
    },
    {
      "elevation": 1780.9,
      "mindate": "1952-10-01",
      "maxdate": "1971-12-01",
      "latitude": 40.85,
      "name": "EAST CANYON, UT US",
      "datacoverage": 1,
      "id": "COOP:422294",
      "elevationUnit": "METERS",
      "longitude": -111.58333
    },
    {
      "elevation": 2321.1,
      "mindate": "1948-06-01",
      "maxdate": "1955-10-01",
      "latitude": 40.16667,
      "name": "STRWBERY RES E PRTAL, UT US",
      "datacoverage": 0.5505,
      "id": "COOP:422319",
      "elevationUnit": "METERS",
      "longitude": -111.18333
    },
    {
      "elevation": 1667.3,
      "mindate": "1940-02-01",
      "maxdate": "2015-11-01",
      "latitude": 40.96554,
      "name": "ECHO DAM, UT US",
      "datacoverage": 1,
      "id": "COOP:422385",
      "elevationUnit": "METERS",
      "longitude": -111.4336
    },
    {
      "elevation": 1429.5,
      "mindate": "1931-01-01",
      "maxdate": "1992-08-01",
      "latitude": 39.95,
      "name": "ELBERTA, UT US",
      "datacoverage": 0.9838,
      "id": "COOP:422418",
      "elevationUnit": "METERS",
      "longitude": -111.95
    },
    {
      "elevation": 1424,
      "mindate": "1975-08-01",
      "maxdate": "1975-09-01",
      "latitude": 39.98333,
      "name": "ELBERTA 1 N, UT US",
      "datacoverage": 0.998,
      "id": "COOP:422420",
      "elevationUnit": "METERS",
      "longitude": -111.95
    },
    {
      "elevation": 2554.2,
      "mindate": "1980-03-01",
      "maxdate": "2009-06-01",
      "latitude": 39.5997,
      "name": "ELECTRIC LAKE, UT US",
      "datacoverage": 0.9347,
      "id": "COOP:422424",
      "elevationUnit": "METERS",
      "longitude": -111.2127
    }
  ]
}
