{
  "metadata": {
    "resultset": {
      "offset": 107800,
      "count": 154115,
      "limit": 100
    }
  },
  "results": [
    {
      "elevation": 385,
      "mindate": "2023-03-26",
      "maxdate": "2025-03-07",
      "latitude": 40.708214,
      "name": "LEXINGTON 2.3 NNW, OH US",
      "datacoverage": 0.9902,
      "id": "GHCND:US1OHRC0018",
      "elevationUnit": "METERS",
      "longitude": -82.606018
    },
    {
      "elevation": 256.3,
      "mindate": "2009-02-01",
      "maxdate": "2018-01-28",
      "latitude": 39.2825,
      "name": "CHILLICOTHE 3.7 S, OH US",
      "datacoverage": 1,
      "id": "GHCND:US1OHRS0001",
      "elevationUnit": "METERS",
      "longitude": -82.99446
    },
    {
      "elevation": 223.1,
      "mindate": "2021-03-30",
      "maxdate": "2024-11-19",
      "latitude": 39.229233,
      "name": "BAINBRIDGE 0.5 ENE, OH US",
      "datacoverage": 0.3531,
      "id": "GHCND:US1OHRS0010",
      "elevationUnit": "METERS",
      "longitude": -83.261167
    },
    {
      "elevation": 258.8,
      "mindate": "2023-03-23",
      "maxdate": "2025-03-06",
      "latitude": 39.4188772,
      "name": "CHILLICOTHE 7.1 NE, OH US",
      "datacoverage": 0.9497,
      "id": "GHCND:US1OHRS0014",
      "elevationUnit": "METERS",
      "longitude": -82.9101389
    },
    {
      "elevation": 226.8,
      "mindate": "2023-04-04",
      "maxdate": "2025-03-07",
      "latitude": 39.41522,
      "name": "FRANKFORT 0.7 NE, OH US",
      "datacoverage": 0.9994,
      "id": "GHCND:US1OHRS0017",
      "elevationUnit": "METERS",
      "longitude": -83.17352
    },
    {
      "elevation": 298.1,
      "mindate": "2023-09-01",
      "maxdate": "2025-03-05",
      "latitude": 39.267806,
      "name": "BAINBRIDGE 6.1 NNW, OH US",
      "datacoverage": 0.7992,
      "id": "GHCND:US1OHRS0018",
      "elevationUnit": "METERS",
      "longitude": -83.364571
    },
    {
      "elevation": 162.8,
      "mindate": "2009-02-01",
      "maxdate": "2018-09-27",
      "latitude": 38.758412,
      "name": "SCIOTODALE 1.2 W, OH US",
      "datacoverage": 0.7679,
      "id": "GHCND:US1OHSC0001",
      "elevationUnit": "METERS",
      "longitude": -82.883169
    },
    {
      "elevation": 189.6,
      "mindate": "2010-10-01",
      "maxdate": "2025-03-07",
      "latitude": 38.787274,
      "name": "ROSEMOUNT 0.3 W, OH US",
      "datacoverage": 0.9999,
      "id": "GHCND:US1OHSC0004",
      "elevationUnit": "METERS",
      "longitude": -82.977865
    },
    {
      "elevation": 254.2,
      "mindate": "2012-06-01",
      "maxdate": "2015-10-15",
      "latitude": 38.8295587152243,
      "name": "LUCASVILLE 4.5 SE, OH US",
      "datacoverage": 0.9999,
      "id": "GHCND:US1OHSC0006",
      "elevationUnit": "METERS",
      "longitude": -82.9411051422358
    },
    {
      "elevation": 208.2,
      "mindate": "2017-01-20",
      "maxdate": "2023-01-11",
      "latitude": 38.8845,
      "name": "LUCASVILLE 0.9 ENE, OH US",
      "datacoverage": 0.9991,
      "id": "GHCND:US1OHSC0008",
      "elevationUnit": "METERS",
      "longitude": -82.980176
    },
    {
      "elevation": 247.5,
      "mindate": "2020-04-23",
      "maxdate": "2025-03-06",
      "latitude": 38.80242,
      "name": "PORTSMOUTH 3.3 N, OH US",
      "datacoverage": 0.8943,
      "id": "GHCND:US1OHSC0013",
      "elevationUnit": "METERS",
      "longitude": -82.95679
    },
    {
      "elevation": 185.6,
      "mindate": "2009-02-01",
      "maxdate": "2025-03-07",
      "latitude": 41.365826,
      "name": "FREMONT 2.2 ENE, OH US",
      "datacoverage": 1,
      "id": "GHCND:US1OHSD0002",
      "elevationUnit": "METERS",
      "longitude": -83.075386
    },
    {
      "elevation": 197.8,
      "mindate": "2009-02-01",
      "maxdate": "2012-08-20",
      "latitude": 41.3148042,
      "name": "CLYDE 0.7 N, OH US",
      "datacoverage": 1,
      "id": "GHCND:US1OHSD0003",
      "elevationUnit": "METERS",
      "longitude": -82.9761113
    },
    {
      "elevation": 209.4,
      "mindate": "2012-04-01",
      "maxdate": "2012-11-05",
      "latitude": 41.2924455106258,
      "name": "CLYDE 1.8 WSW, OH US",
      "datacoverage": 0.998,
      "id": "GHCND:US1OHSD0007",
      "elevationUnit": "METERS",
      "longitude": -83.0078291147947
    },
    {
      "elevation": 191.7,
      "mindate": "2012-08-01",
      "maxdate": "2014-10-31",
      "latitude": 41.3447799682617,
      "name": "FREMONT 0.5 SW, OH US",
      "datacoverage": 0.9998,
      "id": "GHCND:US1OHSD0009",
      "elevationUnit": "METERS",
      "longitude": -83.1200637817383
    },
    {
      "elevation": 318.8,
      "mindate": "2009-02-01",
      "maxdate": "2012-07-20",
      "latitude": 40.344924,
      "name": "SIDNEY 5.3 NE, OH US",
      "datacoverage": 0.9534,
      "id": "GHCND:US1OHSH0001",
      "elevationUnit": "METERS",
      "longitude": -84.093883
    },
    {
      "elevation": 303.9,
      "mindate": "2009-03-01",
      "maxdate": "2009-09-21",
      "latitude": 40.515785,
      "name": "LAKEVIEW 2.6 NE, OH US",
      "datacoverage": 0.9956,
      "id": "GHCND:US1OHSH0002",
      "elevationUnit": "METERS",
      "longitude": -83.893159
    },
    {
      "elevation": 302.7,
      "mindate": "2009-03-01",
      "maxdate": "2025-03-05",
      "latitude": 40.43708,
      "name": "ANNA 3.1 NNW, OH US",
      "datacoverage": 0.9993,
      "id": "GHCND:US1OHSH0004",
      "elevationUnit": "METERS",
      "longitude": -84.177844
    },
    {
      "elevation": 286.5,
      "mindate": "2009-04-01",
      "maxdate": "2016-12-14",
      "latitude": 40.248911,
      "name": "HOUSTON 0.5 SE, OH US",
      "datacoverage": 0.988,
      "id": "GHCND:US1OHSH0005",
      "elevationUnit": "METERS",
      "longitude": -84.330786
    },
    {
      "elevation": 322.2,
      "mindate": "2009-05-01",
      "maxdate": "2015-10-29",
      "latitude": 40.283,
      "name": "SIDNEY 4.3 E, OH US",
      "datacoverage": 0.5254,
      "id": "GHCND:US1OHSH0007",
      "elevationUnit": "METERS",
      "longitude": -84.0816
    },
    {
      "elevation": 299.3,
      "mindate": "1998-06-01",
      "maxdate": "2021-12-16",
      "latitude": 40.329138,
      "name": "FORT LORAMIE 2.1 SE, OH US",
      "datacoverage": 0.3148,
      "id": "GHCND:US1OHSH0009",
      "elevationUnit": "METERS",
      "longitude": -84.337489
    },
    {
      "elevation": 306,
      "mindate": "2003-08-24",
      "maxdate": "2025-03-07",
      "latitude": 40.2504853,
      "name": "RUSSIA 1.3 NNE, OH US",
      "datacoverage": 0.9996,
      "id": "GHCND:US1OHSH0010",
      "elevationUnit": "METERS",
      "longitude": -84.4052586
    },
    {
      "elevation": 298.1,
      "mindate": "2011-04-01",
      "maxdate": "2025-03-07",
      "latitude": 40.2708906,
      "name": "HOUSTON 1.3 NNE, OH US",
      "datacoverage": 0.9996,
      "id": "GHCND:US1OHSH0011",
      "elevationUnit": "METERS",
      "longitude": -84.3246597
    },
    {
      "elevation": 313.9,
      "mindate": "2011-04-01",
      "maxdate": "2012-07-28",
      "latitude": 40.3018751,
      "name": "SIDNEY 1.9 ENE, OH US",
      "datacoverage": 0.7485,
      "id": "GHCND:US1OHSH0012",
      "elevationUnit": "METERS",
      "longitude": -84.1317202
    },
    {
      "elevation": 299.3,
      "mindate": "2011-05-01",
      "maxdate": "2025-03-07",
      "latitude": 40.3153157,
      "name": "FORT LORAMIE 3.2 SW, OH US",
      "datacoverage": 0.9993,
      "id": "GHCND:US1OHSH0013",
      "elevationUnit": "METERS",
      "longitude": -84.4154331
    },
    {
      "elevation": 289.9,
      "mindate": "2011-08-01",
      "maxdate": "2025-03-06",
      "latitude": 40.356285,
      "name": "FORT LORAMIE 2.1 WNW, OH US",
      "datacoverage": 0.964,
      "id": "GHCND:US1OHSH0014",
      "elevationUnit": "METERS",
      "longitude": -84.407598
    },
    {
      "elevation": 287.4,
      "mindate": "2012-02-01",
      "maxdate": "2025-03-07",
      "latitude": 40.35694444,
      "name": "FORT LORAMIE 0.8 NNW, OH US",
      "datacoverage": 1,
      "id": "GHCND:US1OHSH0015",
      "elevationUnit": "METERS",
      "longitude": -84.37361111
    },
    {
      "elevation": 317.6,
      "mindate": "2014-04-01",
      "maxdate": "2018-09-28",
      "latitude": 40.3147152811289,
      "name": "SIDNEY 1.9 NNE, OH US",
      "datacoverage": 0.9993,
      "id": "GHCND:US1OHSH0016",
      "elevationUnit": "METERS",
      "longitude": -84.151903912425
    },
    {
      "elevation": 311.5,
      "mindate": "2017-06-24",
      "maxdate": "2024-09-25",
      "latitude": 40.324811,
      "name": "SIDNEY 2.9 NNE, OH US",
      "datacoverage": 0.6272,
      "id": "GHCND:US1OHSH0018",
      "elevationUnit": "METERS",
      "longitude": -84.135083
    },
    {
      "elevation": 282.9,
      "mindate": "2018-04-01",
      "maxdate": "2025-03-07",
      "latitude": 40.237079,
      "name": "SIDNEY 5.4 SW, OH US",
      "datacoverage": 1,
      "id": "GHCND:US1OHSH0020",
      "elevationUnit": "METERS",
      "longitude": -84.24076
    },
    {
      "elevation": 348.4,
      "mindate": "2009-02-01",
      "maxdate": "2010-12-10",
      "latitude": 41.072344,
      "name": "AKRON 3.1 E, OH US",
      "datacoverage": 0.7838,
      "id": "GHCND:US1OHSM0002",
      "elevationUnit": "METERS",
      "longitude": -81.463511
    },
    {
      "elevation": 311.2,
      "mindate": "2009-02-01",
      "maxdate": "2011-11-05",
      "latitude": 41.3196,
      "name": "MACEDONIA 1.2 WNW, OH US",
      "datacoverage": 1,
      "id": "GHCND:US1OHSM0003",
      "elevationUnit": "METERS",
      "longitude": -81.5185
    },
    {
      "elevation": 312.7,
      "mindate": "2009-03-01",
      "maxdate": "2017-07-28",
      "latitude": 41.320279,
      "name": "MACEDONIA 0.7 NNW, OH US",
      "datacoverage": 0.9998,
      "id": "GHCND:US1OHSM0004",
      "elevationUnit": "METERS",
      "longitude": -81.501224
    },
    {
      "elevation": 303,
      "mindate": "2009-03-01",
      "maxdate": "2025-03-06",
      "latitude": 41.16227722,
      "name": "CUYAHOGA FALLS 1.1 ESE, OH US",
      "datacoverage": 1,
      "id": "GHCND:US1OHSM0005",
      "elevationUnit": "METERS",
      "longitude": -81.50374603
    },
    {
      "elevation": 355.7,
      "mindate": "2009-03-01",
      "maxdate": "2011-09-17",
      "latitude": 41.091761,
      "name": "TALLMADGE 0.8 S, OH US",
      "datacoverage": 0.3869,
      "id": "GHCND:US1OHSM0006",
      "elevationUnit": "METERS",
      "longitude": -81.42408
    },
    {
      "elevation": 345.3,
      "mindate": "2009-03-01",
      "maxdate": "2009-10-20",
      "latitude": 41.1667085,
      "name": "STOW 0.8 SE, OH US",
      "datacoverage": 0.9939,
      "id": "GHCND:US1OHSM0007",
      "elevationUnit": "METERS",
      "longitude": -81.4268674
    },
    {
      "elevation": 317.6,
      "mindate": "2009-03-01",
      "maxdate": "2024-05-21",
      "latitude": 41.176522,
      "name": "CUYAHOGA FALLS 0.7 NE, OH US",
      "datacoverage": 0.998,
      "id": "GHCND:US1OHSM0008",
      "elevationUnit": "METERS",
      "longitude": -81.514314
    },
    {
      "elevation": 340.5,
      "mindate": "2009-04-01",
      "maxdate": "2011-10-20",
      "latitude": 40.960402,
      "name": "CLINTON 3.5 NE, OH US",
      "datacoverage": 0.6449,
      "id": "GHCND:US1OHSM0009",
      "elevationUnit": "METERS",
      "longitude": -81.578803
    },
    {
      "elevation": 293.5,
      "mindate": "2009-04-01",
      "maxdate": "2012-02-21",
      "latitude": 40.919681,
      "name": "CLINTON 3.2 ESE, OH US",
      "datacoverage": 0.9146,
      "id": "GHCND:US1OHSM0010",
      "elevationUnit": "METERS",
      "longitude": -81.570514
    },
    {
      "elevation": 310,
      "mindate": "2010-04-01",
      "maxdate": "2012-01-20",
      "latitude": 40.953363,
      "name": "AKRON 8.9 S, OH US",
      "datacoverage": 0.9988,
      "id": "GHCND:US1OHSM0014",
      "elevationUnit": "METERS",
      "longitude": -81.523914
    },
    {
      "elevation": 339.5,
      "mindate": "2010-04-01",
      "maxdate": "2014-04-20",
      "latitude": 41.065181,
      "name": "AKRON 3.6 ESE, OH US",
      "datacoverage": 0.8166,
      "id": "GHCND:US1OHSM0015",
      "elevationUnit": "METERS",
      "longitude": -81.455697
    },
    {
      "elevation": 337.7,
      "mindate": "2010-12-01",
      "maxdate": "2015-08-20",
      "latitude": 41.160253,
      "name": "STOW 1.6 SE, OH US",
      "datacoverage": 1,
      "id": "GHCND:US1OHSM0016",
      "elevationUnit": "METERS",
      "longitude": -81.415596
    },
    {
      "elevation": 336.2,
      "mindate": "2011-04-01",
      "maxdate": "2014-01-17",
      "latitude": 41.1499,
      "name": "MUNROE FALLS 0.7 NNW, OH US",
      "datacoverage": 0.998,
      "id": "GHCND:US1OHSM0017",
      "elevationUnit": "METERS",
      "longitude": -81.439
    },
    {
      "elevation": 306,
      "mindate": "2013-11-01",
      "maxdate": "2025-03-05",
      "latitude": 41.122936,
      "name": "FAIRLAWN 0.2 SW, OH US",
      "datacoverage": 0.9991,
      "id": "GHCND:US1OHSM0022",
      "elevationUnit": "METERS",
      "longitude": -81.625194
    },
    {
      "elevation": 310.9,
      "mindate": "2014-03-01",
      "maxdate": "2017-08-19",
      "latitude": 41.038825,
      "name": "AKRON 2.9 S, OH US",
      "datacoverage": 0.8534,
      "id": "GHCND:US1OHSM0025",
      "elevationUnit": "METERS",
      "longitude": -81.524778
    },
    {
      "elevation": 338.6,
      "mindate": "2014-04-01",
      "maxdate": "2025-01-01",
      "latitude": 41.1486667,
      "name": "MUNROE FALLS 0.7 NNE, OH US",
      "datacoverage": 0.916,
      "id": "GHCND:US1OHSM0026",
      "elevationUnit": "METERS",
      "longitude": -81.4306667
    },
    {
      "elevation": 272.5,
      "mindate": "2014-06-18",
      "maxdate": "2021-04-11",
      "latitude": 41.114451,
      "name": "AKRON 2.4 NNW, OH US",
      "datacoverage": 0.9819,
      "id": "GHCND:US1OHSM0027",
      "elevationUnit": "METERS",
      "longitude": -81.534418
    },
    {
      "elevation": 307.2,
      "mindate": "2015-09-08",
      "maxdate": "2016-05-26",
      "latitude": 40.98121,
      "name": "AKRON 7.0 S, OH US",
      "datacoverage": 0.4275,
      "id": "GHCND:US1OHSM0028",
      "elevationUnit": "METERS",
      "longitude": -81.540686
    },
    {
      "elevation": 337.1,
      "mindate": "2017-04-29",
      "maxdate": "2024-11-30",
      "latitude": 41.07979,
      "name": "AKRON 2.6 E, OH US",
      "datacoverage": 0.7169,
      "id": "GHCND:US1OHSM0032",
      "elevationUnit": "METERS",
      "longitude": -81.47098
    },
    {
      "elevation": 304.2,
      "mindate": "2020-04-20",
      "maxdate": "2022-05-10",
      "latitude": 41.08008,
      "name": "AKRON 2.4 W, OH US",
      "datacoverage": 0.8815,
      "id": "GHCND:US1OHSM0038",
      "elevationUnit": "METERS",
      "longitude": -81.56801
    },
    {
      "elevation": 371.9,
      "mindate": "2020-04-17",
      "maxdate": "2025-03-07",
      "latitude": 41.114027,
      "name": "TALLMADGE 0.8 NNE, OH US",
      "datacoverage": 0.9986,
      "id": "GHCND:US1OHSM0039",
      "elevationUnit": "METERS",
      "longitude": -81.419702
    },
    {
      "elevation": 296.6,
      "mindate": "2020-12-31",
      "maxdate": "2021-11-13",
      "latitude": 41.040576,
      "name": "BARBERTON 2.4 NE, OH US",
      "datacoverage": 0.9939,
      "id": "GHCND:US1OHSM0040",
      "elevationUnit": "METERS",
      "longitude": -81.578391
    },
    {
      "elevation": 366.4,
      "mindate": "2022-05-18",
      "maxdate": "2025-03-06",
      "latitude": 41.2552,
      "name": "RICHFIELD 1.7 NNW, OH US",
      "datacoverage": 0.998,
      "id": "GHCND:US1OHSM0044",
      "elevationUnit": "METERS",
      "longitude": -81.6495
    },
    {
      "elevation": 304.8,
      "mindate": "2023-04-24",
      "maxdate": "2025-03-07",
      "latitude": 41.330744,
      "name": "REMINDERVILLE 0.3 NNE, OH US",
      "datacoverage": 0.8465,
      "id": "GHCND:US1OHSM0046",
      "elevationUnit": "METERS",
      "longitude": -81.394969
    },
    {
      "elevation": 347.5,
      "mindate": "2023-07-27",
      "maxdate": "2024-12-31",
      "latitude": 41.31817,
      "name": "MACEDONIA 0.7 NE, OH US",
      "datacoverage": 0.9819,
      "id": "GHCND:US1OHSM0047",
      "elevationUnit": "METERS",
      "longitude": -81.48773
    },
    {
      "elevation": 244.1,
      "mindate": "2009-02-01",
      "maxdate": "2015-09-09",
      "latitude": 41.205,
      "name": "BELLEVUE 4.9 S, OH US",
      "datacoverage": 1,
      "id": "GHCND:US1OHSN0001",
      "elevationUnit": "METERS",
      "longitude": -82.838
    },
    {
      "elevation": 236.8,
      "mindate": "1998-06-17",
      "maxdate": "2024-09-25",
      "latitude": 41.13143,
      "name": "BASCOM 0.3 ESE, OH US",
      "datacoverage": 0.6922,
      "id": "GHCND:US1OHSN0002",
      "elevationUnit": "METERS",
      "longitude": -83.28077
    },
    {
      "elevation": 254.2,
      "mindate": "2002-02-01",
      "maxdate": "2025-03-06",
      "latitude": 41.0589354,
      "name": "TIFFIN 5.2 SE, OH US",
      "datacoverage": 1,
      "id": "GHCND:US1OHSN0003",
      "elevationUnit": "METERS",
      "longitude": -83.1126723
    },
    {
      "elevation": 324,
      "mindate": "2013-05-01",
      "maxdate": "2020-10-30",
      "latitude": 40.8415,
      "name": "CANTON 2.8 NE, OH US",
      "datacoverage": 0.998,
      "id": "GHCND:US1OHST0002",
      "elevationUnit": "METERS",
      "longitude": -81.3367
    },
    {
      "elevation": 318.2,
      "mindate": "2018-11-27",
      "maxdate": "2019-12-30",
      "latitude": 40.832211,
      "name": "CANTON 5.8 WNW, OH US",
      "datacoverage": 0.9011,
      "id": "GHCND:US1OHST0006",
      "elevationUnit": "METERS",
      "longitude": -81.480857
    },
    {
      "elevation": 353.9,
      "mindate": "2023-03-27",
      "maxdate": "2025-03-07",
      "latitude": 40.8224,
      "name": "CANTON 2.0 ENE, OH US",
      "datacoverage": 0.9566,
      "id": "GHCND:US1OHST0011",
      "elevationUnit": "METERS",
      "longitude": -81.33738
    },
    {
      "elevation": 385,
      "mindate": "2023-03-21",
      "maxdate": "2025-03-07",
      "latitude": 40.8517,
      "name": "ALLIANCE 4.8 SSW, OH US",
      "datacoverage": 1,
      "id": "GHCND:US1OHST0012",
      "elevationUnit": "METERS",
      "longitude": -81.1631
    },
    {
      "elevation": 303.3,
      "mindate": "2009-03-01",
      "maxdate": "2013-11-08",
      "latitude": 41.39,
      "name": "KINSMAN 4.3 SW, OH US",
      "datacoverage": 0.9468,
      "id": "GHCND:US1OHTR0001",
      "elevationUnit": "METERS",
      "longitude": -80.63
    },
    {
      "elevation": 275.2,
      "mindate": "2010-09-01",
      "maxdate": "2025-03-05",
      "latitude": 41.197735,
      "name": "NEWTON FALLS 0.6 N, OH US",
      "datacoverage": 1,
      "id": "GHCND:US1OHTR0004",
      "elevationUnit": "METERS",
      "longitude": -80.972115
    },
    {
      "elevation": 302.1,
      "mindate": "2018-03-11",
      "maxdate": "2018-11-04",
      "latitude": 41.16135,
      "name": "HUBBARD 0.4 ENE, OH US",
      "datacoverage": 0.9956,
      "id": "GHCND:US1OHTR0010",
      "elevationUnit": "METERS",
      "longitude": -80.56164
    },
    {
      "elevation": 284.7,
      "mindate": "2018-09-22",
      "maxdate": "2024-11-15",
      "latitude": 41.32616,
      "name": "WARREN 6.1 N, OH US",
      "datacoverage": 0.347,
      "id": "GHCND:US1OHTR0011",
      "elevationUnit": "METERS",
      "longitude": -80.82683167
    },
    {
      "elevation": 322.2,
      "mindate": "2022-04-23",
      "maxdate": "2025-02-11",
      "latitude": 41.343012,
      "name": "CORTLAND 1.2 NE, OH US",
      "datacoverage": 0.7982,
      "id": "GHCND:US1OHTR0013",
      "elevationUnit": "METERS",
      "longitude": -80.705935
    },
    {
      "elevation": 346.6,
      "mindate": "2022-03-16",
      "maxdate": "2025-03-07",
      "latitude": 41.1955968,
      "name": "GIRARD 3.9 NE, OH US",
      "datacoverage": 0.9431,
      "id": "GHCND:US1OHTR0014",
      "elevationUnit": "METERS",
      "longitude": -80.6453042
    },
    {
      "elevation": 322.8,
      "mindate": "2023-03-04",
      "maxdate": "2025-03-05",
      "latitude": 41.353038,
      "name": "CORTLAND 1.7 NNE, OH US",
      "datacoverage": 0.1774,
      "id": "GHCND:US1OHTR0017",
      "elevationUnit": "METERS",
      "longitude": -80.707003
    },
    {
      "elevation": 285,
      "mindate": "2009-02-01",
      "maxdate": "2025-03-05",
      "latitude": 40.5507,
      "name": "DOVER 4.6 WNW, OH US",
      "datacoverage": 1,
      "id": "GHCND:US1OHTS0001",
      "elevationUnit": "METERS",
      "longitude": -81.564
    },
    {
      "elevation": 287.1,
      "mindate": "2009-04-01",
      "maxdate": "2009-10-31",
      "latitude": 40.630398,
      "name": "BOLIVAR 1.9 SE, OH US",
      "datacoverage": 0.998,
      "id": "GHCND:US1OHTS0002",
      "elevationUnit": "METERS",
      "longitude": -81.430427
    },
    {
      "elevation": 279.5,
      "mindate": "1998-06-17",
      "maxdate": "2019-06-02",
      "latitude": 40.530177,
      "name": "DOVER 1.0 E, OH US",
      "datacoverage": 0.9997,
      "id": "GHCND:US1OHTS0004",
      "elevationUnit": "METERS",
      "longitude": -81.461096
    },
    {
      "elevation": 280.1,
      "mindate": "2013-03-01",
      "maxdate": "2017-04-29",
      "latitude": 40.6020164489746,
      "name": "STRASBURG 0.1 ESE, OH US",
      "datacoverage": 0.9993,
      "id": "GHCND:US1OHTS0006",
      "elevationUnit": "METERS",
      "longitude": -81.5283660888672
    },
    {
      "elevation": 284.4,
      "mindate": "2015-07-01",
      "maxdate": "2016-07-11",
      "latitude": 40.5495,
      "name": "DOVER 1.5 NNW, OH US",
      "datacoverage": 0.998,
      "id": "GHCND:US1OHTS0007",
      "elevationUnit": "METERS",
      "longitude": -81.4904
    },
    {
      "elevation": 303.9,
      "mindate": "2016-07-12",
      "maxdate": "2025-03-07",
      "latitude": 40.51136,
      "name": "SUGARCREEK 0.9 ENE, OH US",
      "datacoverage": 0.9763,
      "id": "GHCND:US1OHTS0008",
      "elevationUnit": "METERS",
      "longitude": -81.625728
    },
    {
      "elevation": 260.6,
      "mindate": "2018-08-21",
      "maxdate": "2025-03-07",
      "latitude": 40.409887,
      "name": "UHRICHSVILLE 0.7 N, OH US",
      "datacoverage": 0.9492,
      "id": "GHCND:US1OHTS0014",
      "elevationUnit": "METERS",
      "longitude": -81.353197
    },
    {
      "elevation": 266.7,
      "mindate": "2019-05-13",
      "maxdate": "2021-07-17",
      "latitude": 40.486043,
      "name": "NEW PHILADELPHIA 2.4 W, OH US",
      "datacoverage": 0.9898,
      "id": "GHCND:US1OHTS0015",
      "elevationUnit": "METERS",
      "longitude": -81.486105
    },
    {
      "elevation": 294.1,
      "mindate": "2020-10-05",
      "maxdate": "2024-02-17",
      "latitude": 40.5205,
      "name": "MINERAL CITY 7.2 SE, OH US",
      "datacoverage": 0.9925,
      "id": "GHCND:US1OHTS0019",
      "elevationUnit": "METERS",
      "longitude": -81.27689
    },
    {
      "elevation": 279.5,
      "mindate": "2022-08-31",
      "maxdate": "2025-03-07",
      "latitude": 40.4445424,
      "name": "NEW PHILADELPHIA 5.6 WSW, OH US",
      "datacoverage": 0.9239,
      "id": "GHCND:US1OHTS0024",
      "elevationUnit": "METERS",
      "longitude": -81.531691
    },
    {
      "elevation": 299,
      "mindate": "2009-04-01",
      "maxdate": "2009-10-29",
      "latitude": 40.256432,
      "name": "MARYSVILLE 1.5 NNE, OH US",
      "datacoverage": 0.9956,
      "id": "GHCND:US1OHUN0001",
      "elevationUnit": "METERS",
      "longitude": -83.35962
    },
    {
      "elevation": 307.2,
      "mindate": "2010-05-01",
      "maxdate": "2010-11-27",
      "latitude": 40.2220903,
      "name": "MARYSVILLE 1.1 SSE, OH US",
      "datacoverage": 0.998,
      "id": "GHCND:US1OHUN0003",
      "elevationUnit": "METERS",
      "longitude": -83.3674912
    },
    {
      "elevation": 309.4,
      "mindate": "2020-10-08",
      "maxdate": "2023-08-24",
      "latitude": 40.255666,
      "name": "MARYSVILLE 1.4 NNW, OH US",
      "datacoverage": 0.669,
      "id": "GHCND:US1OHUN0015",
      "elevationUnit": "METERS",
      "longitude": -83.387327
    },
    {
      "elevation": 300.8,
      "mindate": "2021-04-11",
      "maxdate": "2021-11-22",
      "latitude": 40.24388889,
      "name": "MARYSVILLE 1.9 ENE, OH US",
      "datacoverage": 0.5221,
      "id": "GHCND:US1OHUN0017",
      "elevationUnit": "METERS",
      "longitude": -83.33916667
    },
    {
      "elevation": 301.8,
      "mindate": "2021-07-01",
      "maxdate": "2025-03-06",
      "latitude": 40.272664,
      "name": "MARYSVILLE 6.1 ENE, OH US",
      "datacoverage": 1,
      "id": "GHCND:US1OHUN0018",
      "elevationUnit": "METERS",
      "longitude": -83.267966
    },
    {
      "elevation": 313,
      "mindate": "2022-04-25",
      "maxdate": "2023-02-07",
      "latitude": 40.213279,
      "name": "MARYSVILLE 1.7 S, OH US",
      "datacoverage": 0.5536,
      "id": "GHCND:US1OHUN0019",
      "elevationUnit": "METERS",
      "longitude": -83.370334
    },
    {
      "elevation": 307.5,
      "mindate": "2023-03-01",
      "maxdate": "2025-03-07",
      "latitude": 40.153333184552,
      "name": "PLAIN CITY 4.1 NE, OH US",
      "datacoverage": 0.916,
      "id": "GHCND:US1OHUN0020",
      "elevationUnit": "METERS",
      "longitude": -83.2231868103345
    },
    {
      "elevation": 303.6,
      "mindate": "2023-12-30",
      "maxdate": "2025-03-07",
      "latitude": 40.242459,
      "name": "MARYSVILLE 1.3 ENE, OH US",
      "datacoverage": 1,
      "id": "GHCND:US1OHUN0021",
      "elevationUnit": "METERS",
      "longitude": -83.35077
    },
    {
      "elevation": 289,
      "mindate": "2009-08-01",
      "maxdate": "2012-02-01",
      "latitude": 39.249,
      "name": "MCARTHUR 2.4 W, OH US",
      "datacoverage": 0.936,
      "id": "GHCND:US1OHVN0001",
      "elevationUnit": "METERS",
      "longitude": -82.523
    },
    {
      "elevation": 271.9,
      "mindate": "2018-01-29",
      "maxdate": "2025-03-05",
      "latitude": 39.251218,
      "name": "ALBANY 4.5 WNW, OH US",
      "datacoverage": 0.9986,
      "id": "GHCND:US1OHVN0003",
      "elevationUnit": "METERS",
      "longitude": -82.274717
    },
    {
      "elevation": 227.7,
      "mindate": "2024-04-09",
      "maxdate": "2025-03-06",
      "latitude": 39.263254,
      "name": "MCARTHUR 7.0 W, OH US",
      "datacoverage": 0.9011,
      "id": "GHCND:US1OHVN0005",
      "elevationUnit": "METERS",
      "longitude": -82.606954
    },
    {
      "elevation": 189.9,
      "mindate": "2009-01-01",
      "maxdate": "2009-07-01",
      "latitude": 41.559933,
      "name": "PERRYSBURG 4.5 E, OH US",
      "datacoverage": 1,
      "id": "GHCND:US1OHWD0001",
      "elevationUnit": "METERS",
      "longitude": -83.537914
    },
    {
      "elevation": 203.9,
      "mindate": "2009-01-01",
      "maxdate": "2015-01-06",
      "latitude": 41.39121,
      "name": "BOWLING GREEN 1.7 NW, OH US",
      "datacoverage": 0.8493,
      "id": "GHCND:US1OHWD0002",
      "elevationUnit": "METERS",
      "longitude": -83.675149
    },
    {
      "elevation": 184.7,
      "mindate": "2009-02-01",
      "maxdate": "2014-03-11",
      "latitude": 41.618586,
      "name": "NORTHWOOD 2.8 ENE, OH US",
      "datacoverage": 1,
      "id": "GHCND:US1OHWD0003",
      "elevationUnit": "METERS",
      "longitude": -83.427694
    },
    {
      "elevation": 207.9,
      "mindate": "2009-04-01",
      "maxdate": "2011-01-03",
      "latitude": 41.384963,
      "name": "BRADNER 4.2 N, OH US",
      "datacoverage": 0.998,
      "id": "GHCND:US1OHWD0008",
      "elevationUnit": "METERS",
      "longitude": -83.438156
    },
    {
      "elevation": 188.4,
      "mindate": "2009-07-01",
      "maxdate": "2016-12-10",
      "latitude": 41.58776,
      "name": "WALBRIDGE 0.2 NNW, OH US",
      "datacoverage": 0.3946,
      "id": "GHCND:US1OHWD0009",
      "elevationUnit": "METERS",
      "longitude": -83.4911
    },
    {
      "elevation": 196.6,
      "mindate": "2010-03-01",
      "maxdate": "2014-02-13",
      "latitude": 41.49251,
      "name": "PERRYSBURG 6.0 SE, OH US",
      "datacoverage": 1,
      "id": "GHCND:US1OHWD0010",
      "elevationUnit": "METERS",
      "longitude": -83.540645
    },
    {
      "elevation": 205.7,
      "mindate": "2011-01-01",
      "maxdate": "2025-03-07",
      "latitude": 41.408239,
      "name": "BOWLING GREEN 2.7 NW, OH US",
      "datacoverage": 0.9993,
      "id": "GHCND:US1OHWD0012",
      "elevationUnit": "METERS",
      "longitude": -83.671614
    },
    {
      "elevation": 194.2,
      "mindate": "2013-04-01",
      "maxdate": "2025-03-07",
      "latitude": 41.54114,
      "name": "PERRYSBURG 1.6 WSW, OH US",
      "datacoverage": 0.9998,
      "id": "GHCND:US1OHWD0014",
      "elevationUnit": "METERS",
      "longitude": -83.64973
    },
    {
      "elevation": 208.2,
      "mindate": "2014-03-01",
      "maxdate": "2014-09-11",
      "latitude": 41.3722479343414,
      "name": "BOWLING GREEN 1.5 W, OH US",
      "datacoverage": 1,
      "id": "GHCND:US1OHWD0015",
      "elevationUnit": "METERS",
      "longitude": -83.6776947230101
    },
    {
      "elevation": 189,
      "mindate": "2014-04-14",
      "maxdate": "2024-10-13",
      "latitude": 41.581751,
      "name": "PERRYSBURG 5.2 ENE, OH US",
      "datacoverage": 0.9819,
      "id": "GHCND:US1OHWD0016",
      "elevationUnit": "METERS",
      "longitude": -83.530708
    }
  ]
}
