{
  "metadata": {
    "resultset": {
      "offset": 127100,
      "count": 154115,
      "limit": 100
    }
  },
  "results": [
    {
      "elevation": 132.6,
      "mindate": "1893-01-01",
      "maxdate": "1900-04-30",
      "latitude": 32.533333,
      "name": "REYNOLDS, GA US",
      "datacoverage": 0.6674,
      "id": "GHCND:USC00097455",
      "elevationUnit": "METERS",
      "longitude": -84.1
    },
    {
      "elevation": 234.7,
      "mindate": "1952-08-01",
      "maxdate": "2010-12-31",
      "latitude": 34.90028,
      "name": "RINGGOLD, GA US",
      "datacoverage": 1,
      "id": "GHCND:USC00097489",
      "elevationUnit": "METERS",
      "longitude": -85.06667
    },
    {
      "elevation": 249.9,
      "mindate": "1949-01-01",
      "maxdate": "1962-03-31",
      "latitude": 34.75,
      "name": "RISING FAWN, GA US",
      "datacoverage": 1,
      "id": "GHCND:USC00097499",
      "elevationUnit": "METERS",
      "longitude": -85.53333
    },
    {
      "elevation": 438.9,
      "mindate": "1978-06-01",
      "maxdate": "1978-10-31",
      "latitude": 34.71667,
      "name": "ROBERTSTOWN, GA US",
      "datacoverage": 1,
      "id": "GHCND:USC00097522",
      "elevationUnit": "METERS",
      "longitude": -83.75
    },
    {
      "elevation": 48.8,
      "mindate": "1999-11-01",
      "maxdate": "2025-03-07",
      "latitude": 32.63193,
      "name": "ROCKY FORD 4 SE, GA US",
      "datacoverage": 1,
      "id": "GHCND:USC00097528",
      "elevationUnit": "METERS",
      "longitude": -81.7721
    },
    {
      "elevation": 208.8,
      "mindate": "1893-01-01",
      "maxdate": "2025-03-07",
      "latitude": 34.2413,
      "name": "ROME, GA US",
      "datacoverage": 1,
      "id": "GHCND:USC00097600",
      "elevationUnit": "METERS",
      "longitude": -85.1584
    },
    {
      "elevation": 213.4,
      "mindate": "1948-08-01",
      "maxdate": "1951-09-30",
      "latitude": 34.165,
      "name": "ROME 8 SW, GA US",
      "datacoverage": 0.8952,
      "id": "GHCND:USC00097605",
      "elevationUnit": "METERS",
      "longitude": -85.2583
    },
    {
      "elevation": 23.8,
      "mindate": "1905-11-01",
      "maxdate": "1929-05-31",
      "latitude": 30.516667,
      "name": "SAINT GEORGE, GA US",
      "datacoverage": 0.9436,
      "id": "GHCND:USC00097720",
      "elevationUnit": "METERS",
      "longitude": -82.033333
    },
    {
      "elevation": 6.1,
      "mindate": "1902-01-01",
      "maxdate": "1913-03-31",
      "latitude": 30.716667,
      "name": "SAINT MARYS, FL ",
      "datacoverage": 0.941,
      "id": "GHCND:USC00097740",
      "elevationUnit": "METERS",
      "longitude": -81.55
    },
    {
      "elevation": 137.5,
      "mindate": "1914-06-01",
      "maxdate": "2025-03-02",
      "latitude": 32.9745,
      "name": "SANDERSVILLE, GA US",
      "datacoverage": 1,
      "id": "GHCND:USC00097777",
      "elevationUnit": "METERS",
      "longitude": -82.8045
    },
    {
      "elevation": 3,
      "mindate": "1957-01-01",
      "maxdate": "2025-02-13",
      "latitude": 31.39806,
      "name": "SAPELO ISLAND, GA US",
      "datacoverage": 1,
      "id": "GHCND:USC00097808",
      "elevationUnit": "METERS",
      "longitude": -81.28077
    },
    {
      "elevation": 484.9,
      "mindate": "1999-01-01",
      "maxdate": "2025-03-07",
      "latitude": 34.6646,
      "name": "SAUTEE 3 W, GA US",
      "datacoverage": 1,
      "id": "GHCND:USC00097827",
      "elevationUnit": "METERS",
      "longitude": -83.7342
    },
    {
      "elevation": 6.1,
      "mindate": "1928-03-01",
      "maxdate": "1977-03-31",
      "latitude": 32,
      "name": "SAVANNAH USDA PLANT, GA US",
      "datacoverage": 0.9406,
      "id": "GHCND:USC00097842",
      "elevationUnit": "METERS",
      "longitude": -81.26667
    },
    {
      "elevation": 3,
      "mindate": "1938-09-01",
      "maxdate": "1977-03-31",
      "latitude": 32,
      "name": "SAVANNAH BEACH, GA US",
      "datacoverage": 0.8834,
      "id": "GHCND:USC00097860",
      "elevationUnit": "METERS",
      "longitude": -80.85
    },
    {
      "elevation": 37.8,
      "mindate": "1905-07-01",
      "maxdate": "1908-07-14",
      "latitude": 31.483333,
      "name": "SCREVEN, GA US",
      "datacoverage": 0.9993,
      "id": "GHCND:USC00097915",
      "elevationUnit": "METERS",
      "longitude": -82.016667
    },
    {
      "elevation": 211.8,
      "mindate": "1960-09-01",
      "maxdate": "2016-10-31",
      "latitude": 33.5635,
      "name": "SILOAM 3 N, GA US",
      "datacoverage": 1,
      "id": "GHCND:USC00098064",
      "elevationUnit": "METERS",
      "longitude": -83.0768
    },
    {
      "elevation": 173.7,
      "mindate": "1897-01-01",
      "maxdate": "2010-12-31",
      "latitude": 33.2725,
      "name": "SPARTA, GA US",
      "datacoverage": 1,
      "id": "GHCND:USC00098223",
      "elevationUnit": "METERS",
      "longitude": -82.96694
    },
    {
      "elevation": 167.6,
      "mindate": "1948-08-01",
      "maxdate": "1951-05-31",
      "latitude": 33.28333,
      "name": "SPARTA NUMBER 2, GA US",
      "datacoverage": 1,
      "id": "GHCND:USC00098228",
      "elevationUnit": "METERS",
      "longitude": -82.98333
    },
    {
      "elevation": 25.6,
      "mindate": "1999-06-01",
      "maxdate": "2017-07-11",
      "latitude": 32.35879,
      "name": "SPRINGFIELD, GA US",
      "datacoverage": 1,
      "id": "GHCND:USC00098241",
      "elevationUnit": "METERS",
      "longitude": -81.31181
    },
    {
      "elevation": 702,
      "mindate": "1948-08-01",
      "maxdate": "1962-03-31",
      "latitude": 34.78333,
      "name": "STANLEY GAP, GA US",
      "datacoverage": 1,
      "id": "GHCND:USC00098269",
      "elevationUnit": "METERS",
      "longitude": -84.3
    },
    {
      "elevation": 42.7,
      "mindate": "2000-03-01",
      "maxdate": "2000-12-31",
      "latitude": 30.76444,
      "name": "STATENVILLE 6 NE, GA US",
      "datacoverage": 1,
      "id": "GHCND:USC00098271",
      "elevationUnit": "METERS",
      "longitude": -82.9
    },
    {
      "elevation": 70.1,
      "mindate": "1892-05-01",
      "maxdate": "1907-12-31",
      "latitude": 32.45,
      "name": "STATESBORO, GA US",
      "datacoverage": 0.5107,
      "id": "GHCND:USC00098284",
      "elevationUnit": "METERS",
      "longitude": -81.783333
    },
    {
      "elevation": 79.2,
      "mindate": "1901-04-01",
      "maxdate": "2010-12-31",
      "latitude": 32.44139,
      "name": "STILLMORE, GA US",
      "datacoverage": 1,
      "id": "GHCND:USC00098351",
      "elevationUnit": "METERS",
      "longitude": -82.21806
    },
    {
      "mindate": "1948-08-01",
      "maxdate": "1962-03-31",
      "latitude": 34.68333,
      "name": "SUCHES, GA US",
      "datacoverage": 0.9993,
      "id": "GHCND:USC00098414",
      "longitude": -84.01667
    },
    {
      "elevation": 627.9,
      "mindate": "2009-04-01",
      "maxdate": "2024-10-22",
      "latitude": 34.7592,
      "name": "SUCHES 7 NW, GA US",
      "datacoverage": 0.988,
      "id": "GHCND:USC00098418",
      "elevationUnit": "METERS",
      "longitude": -84.1078
    },
    {
      "elevation": 194.8,
      "mindate": "1937-06-01",
      "maxdate": "2025-02-27",
      "latitude": 34.4546,
      "name": "SUMMERVILLE, GA US",
      "datacoverage": 1,
      "id": "GHCND:USC00098436",
      "elevationUnit": "METERS",
      "longitude": -85.39
    },
    {
      "elevation": 284.1,
      "mindate": "1969-04-01",
      "maxdate": "1976-11-30",
      "latitude": 33.33333,
      "name": "SUNNYSIDE, GA US",
      "datacoverage": 0.978,
      "id": "GHCND:USC00098460",
      "elevationUnit": "METERS",
      "longitude": -84.28333
    },
    {
      "elevation": 61,
      "mindate": "1956-01-01",
      "maxdate": "2010-12-31",
      "latitude": 31.70778,
      "name": "SURRENCY, GA US",
      "datacoverage": 1,
      "id": "GHCND:USC00098476",
      "elevationUnit": "METERS",
      "longitude": -82.19694
    },
    {
      "elevation": 334.1,
      "mindate": "1999-01-01",
      "maxdate": "2003-05-31",
      "latitude": 34.08639,
      "name": "SUWANEE 5 E, GA US",
      "datacoverage": 1,
      "id": "GHCND:USC00098492",
      "elevationUnit": "METERS",
      "longitude": -83.98333
    },
    {
      "elevation": 97.5,
      "mindate": "1905-02-01",
      "maxdate": "2010-12-31",
      "latitude": 32.58056,
      "name": "SWAINSBORO, GA US",
      "datacoverage": 1,
      "id": "GHCND:USC00098496",
      "elevationUnit": "METERS",
      "longitude": -82.38222
    },
    {
      "elevation": 548.9,
      "mindate": "1948-08-01",
      "maxdate": "1962-03-31",
      "latitude": 34.96667,
      "name": "SWEET GUM, GA US",
      "datacoverage": 1,
      "id": "GHCND:USC00098504",
      "elevationUnit": "METERS",
      "longitude": -84.21667
    },
    {
      "elevation": 76.2,
      "mindate": "1948-08-01",
      "maxdate": "2008-06-30",
      "latitude": 32.7322,
      "name": "SYLVANIA 2 SSE, GA US",
      "datacoverage": 0.3102,
      "id": "GHCND:USC00098517",
      "elevationUnit": "METERS",
      "longitude": -81.6178
    },
    {
      "elevation": 189,
      "mindate": "1893-02-01",
      "maxdate": "2024-06-30",
      "latitude": 32.6864,
      "name": "TALBOTTON, GA US",
      "datacoverage": 1,
      "id": "GHCND:USC00098535",
      "elevationUnit": "METERS",
      "longitude": -84.5207
    },
    {
      "elevation": 299,
      "mindate": "1896-11-01",
      "maxdate": "1974-12-31",
      "latitude": 33.76667,
      "name": "TALLAPOOSA 2 N, GA US",
      "datacoverage": 0.8401,
      "id": "GHCND:USC00098547",
      "elevationUnit": "METERS",
      "longitude": -85.3
    },
    {
      "elevation": 403.9,
      "mindate": "1917-03-01",
      "maxdate": "1920-05-31",
      "latitude": 34.416667,
      "name": "TATE, GA US",
      "datacoverage": 0.8198,
      "id": "GHCND:USC00098575",
      "elevationUnit": "METERS",
      "longitude": -84.383333
    },
    {
      "elevation": 219.8,
      "mindate": "1937-06-01",
      "maxdate": "2023-01-31",
      "latitude": 34.086,
      "name": "TAYLORSVILLE, GA US",
      "datacoverage": 1,
      "id": "GHCND:USC00098600",
      "elevationUnit": "METERS",
      "longitude": -84.9827
    },
    {
      "elevation": 250.2,
      "mindate": "1940-06-01",
      "maxdate": "2021-01-31",
      "latitude": 32.96416,
      "name": "THE ROCK RANCH, GA US",
      "datacoverage": 0.1301,
      "id": "GHCND:USC00098657",
      "elevationUnit": "METERS",
      "longitude": -84.23027
    },
    {
      "elevation": 189,
      "mindate": "1955-01-01",
      "maxdate": "2025-01-02",
      "latitude": 32.867,
      "name": "THOMASTON 4 SE, GA US",
      "datacoverage": 1,
      "id": "GHCND:USC00098661",
      "elevationUnit": "METERS",
      "longitude": -84.2654
    },
    {
      "elevation": 73.2,
      "mindate": "1892-10-01",
      "maxdate": "2015-09-27",
      "latitude": 30.91389,
      "name": "THOMASVILLE 7 NE, GA US",
      "datacoverage": 1,
      "id": "GHCND:USC00098666",
      "elevationUnit": "METERS",
      "longitude": -83.86111
    },
    {
      "elevation": 165.2,
      "mindate": "2017-06-01",
      "maxdate": "2025-03-05",
      "latitude": 33.45055,
      "name": "THOMSON 1.5SE, GA US",
      "datacoverage": 0.882,
      "id": "GHCND:USC00098677",
      "elevationUnit": "METERS",
      "longitude": -82.48219
    },
    {
      "elevation": 115.8,
      "mindate": "1911-02-01",
      "maxdate": "2025-03-01",
      "latitude": 31.4461,
      "name": "TIFTON, GA US",
      "datacoverage": 1,
      "id": "GHCND:USC00098703",
      "elevationUnit": "METERS",
      "longitude": -83.4767
    },
    {
      "elevation": 665.1,
      "mindate": "1949-01-01",
      "maxdate": "1962-03-31",
      "latitude": 34.95,
      "name": "TITUS, GA US",
      "datacoverage": 0.994,
      "id": "GHCND:USC00098732",
      "elevationUnit": "METERS",
      "longitude": -83.63333
    },
    {
      "elevation": 308.5,
      "mindate": "1891-10-01",
      "maxdate": "2025-03-07",
      "latitude": 34.5786,
      "name": "TOCCOA, GA US",
      "datacoverage": 1,
      "id": "GHCND:USC00098740",
      "elevationUnit": "METERS",
      "longitude": -83.3319
    },
    {
      "elevation": 1189.9,
      "mindate": "1948-08-01",
      "maxdate": "1962-03-31",
      "latitude": 34.8,
      "name": "TRAY MOUNTAIN, GA US",
      "datacoverage": 1,
      "id": "GHCND:USC00098806",
      "elevationUnit": "METERS",
      "longitude": -83.7
    },
    {
      "elevation": 234.7,
      "mindate": "2010-05-01",
      "maxdate": "2025-03-07",
      "latitude": 34.71276,
      "name": "TUGALO DAM, GA US",
      "datacoverage": 1,
      "id": "GHCND:USC00098842",
      "elevationUnit": "METERS",
      "longitude": -83.35198
    },
    {
      "elevation": 267.9,
      "mindate": "1949-01-01",
      "maxdate": "1962-03-31",
      "latitude": 34.86667,
      "name": "TUNNEL HILL, GA US",
      "datacoverage": 0.994,
      "id": "GHCND:USC00098854",
      "elevationUnit": "METERS",
      "longitude": -85.03333
    },
    {
      "elevation": 2.4,
      "mindate": "1994-08-01",
      "maxdate": "1998-01-31",
      "latitude": 32.01667,
      "name": "TYBEE ISLAND, GA US",
      "datacoverage": 0.6183,
      "id": "GHCND:USC00098931",
      "elevationUnit": "METERS",
      "longitude": -80.85
    },
    {
      "elevation": 485.9,
      "mindate": "1978-11-01",
      "maxdate": "2020-09-17",
      "latitude": 34.7206,
      "name": "UNICOI STATE PARK, GA US",
      "datacoverage": 0.392,
      "id": "GHCND:USC00098935",
      "elevationUnit": "METERS",
      "longitude": -83.7219
    },
    {
      "elevation": 201.2,
      "mindate": "1891-11-01",
      "maxdate": "1901-11-19",
      "latitude": 33.616667,
      "name": "UNION POINT, GA US",
      "datacoverage": 0.248,
      "id": "GHCND:USC00098942",
      "elevationUnit": "METERS",
      "longitude": -83.083333
    },
    {
      "elevation": 256,
      "mindate": "1971-06-01",
      "maxdate": "2014-01-01",
      "latitude": 33.8722,
      "name": "U OF GA PLANT SCIENCE FARM, GA US",
      "datacoverage": 1,
      "id": "GHCND:USC00098950",
      "elevationUnit": "METERS",
      "longitude": -83.5358
    },
    {
      "elevation": 70.1,
      "mindate": "1948-07-01",
      "maxdate": "1951-09-30",
      "latitude": 30.83333,
      "name": "VALDOSTA, GA US",
      "datacoverage": 1,
      "id": "GHCND:USC00098964",
      "elevationUnit": "METERS",
      "longitude": -83.3
    },
    {
      "elevation": 76.2,
      "mindate": "1972-12-01",
      "maxdate": "1991-08-31",
      "latitude": 30.85,
      "name": "VALDOSTA 3 E, GA US",
      "datacoverage": 0.9601,
      "id": "GHCND:USC00098972",
      "elevationUnit": "METERS",
      "longitude": -83.23333
    },
    {
      "elevation": 80.8,
      "mindate": "1905-02-01",
      "maxdate": "2017-02-28",
      "latitude": 30.8055,
      "name": "VALDOSTA, GA US",
      "datacoverage": 1,
      "id": "GHCND:USC00098974",
      "elevationUnit": "METERS",
      "longitude": -83.2736
    },
    {
      "elevation": 3,
      "mindate": "1897-05-01",
      "maxdate": "1913-08-31",
      "latitude": 31.483333,
      "name": "VALONA, GA US",
      "datacoverage": 0.9847,
      "id": "GHCND:USC00098985",
      "elevationUnit": "METERS",
      "longitude": -81.35
    },
    {
      "elevation": 85.3,
      "mindate": "1900-12-01",
      "maxdate": "1906-07-31",
      "latitude": 32.216667,
      "name": "VIDALIA, GA US",
      "datacoverage": 0.7944,
      "id": "GHCND:USC00099020",
      "elevationUnit": "METERS",
      "longitude": -82.416667
    },
    {
      "elevation": 103,
      "mindate": "2001-01-01",
      "maxdate": "2010-12-31",
      "latitude": 32.10833,
      "name": "VIENNA, GA US",
      "datacoverage": 1,
      "id": "GHCND:USC00099027",
      "elevationUnit": "METERS",
      "longitude": -83.82889
    },
    {
      "elevation": 364.5,
      "mindate": "1947-03-01",
      "maxdate": "2010-12-31",
      "latitude": 34.31083,
      "name": "WALESKA, GA US",
      "datacoverage": 1,
      "id": "GHCND:USC00099077",
      "elevationUnit": "METERS",
      "longitude": -84.5375
    },
    {
      "elevation": 128,
      "mindate": "1997-01-01",
      "maxdate": "2025-03-05",
      "latitude": 32.6094,
      "name": "WARNER ROBINS, GA US",
      "datacoverage": 1,
      "id": "GHCND:USC00099124",
      "elevationUnit": "METERS",
      "longitude": -83.6163
    },
    {
      "elevation": 149.4,
      "mindate": "1914-04-01",
      "maxdate": "2017-06-30",
      "latitude": 33.4029,
      "name": "WARRENTON, GA US",
      "datacoverage": 1,
      "id": "GHCND:USC00099141",
      "elevationUnit": "METERS",
      "longitude": -82.6222
    },
    {
      "elevation": 189,
      "mindate": "1892-04-01",
      "maxdate": "2020-12-31",
      "latitude": 33.7264,
      "name": "WASHINGTON 2 ESE, GA US",
      "datacoverage": 1,
      "id": "GHCND:USC00099157",
      "elevationUnit": "METERS",
      "longitude": -82.7059
    },
    {
      "elevation": 228.6,
      "mindate": "1948-08-01",
      "maxdate": "2005-07-01",
      "latitude": 33.8731,
      "name": "WATKINSVILLE ARS, GA US",
      "datacoverage": 1,
      "id": "GHCND:USC00099169",
      "elevationUnit": "METERS",
      "longitude": -83.4361
    },
    {
      "elevation": 6.1,
      "mindate": "1901-06-01",
      "maxdate": "1905-12-31",
      "latitude": 31.1,
      "name": "WAVERLY, GA US",
      "datacoverage": 0.9994,
      "id": "GHCND:USC00099177",
      "elevationUnit": "METERS",
      "longitude": -81.733333
    },
    {
      "elevation": 44.2,
      "mindate": "1892-04-01",
      "maxdate": "2014-07-31",
      "latitude": 31.2514,
      "name": "WAYCROSS 4 NE, GA US",
      "datacoverage": 1,
      "id": "GHCND:USC00099186",
      "elevationUnit": "METERS",
      "longitude": -82.3128
    },
    {
      "elevation": 84.4,
      "mindate": "1891-11-01",
      "maxdate": "2025-03-06",
      "latitude": 33.07129,
      "name": "WAYNESBORO 2 S, GA US",
      "datacoverage": 1,
      "id": "GHCND:USC00099194",
      "elevationUnit": "METERS",
      "longitude": -82.00728
    },
    {
      "elevation": 175.3,
      "mindate": "1891-10-01",
      "maxdate": "2023-06-26",
      "latitude": 32.8861,
      "name": "WEST POINT, GA US",
      "datacoverage": 1,
      "id": "GHCND:USC00099291",
      "elevationUnit": "METERS",
      "longitude": -85.1838
    },
    {
      "elevation": 259.1,
      "mindate": "1893-01-01",
      "maxdate": "1898-04-30",
      "latitude": 33.5,
      "name": "WHITESBURG, GA US",
      "datacoverage": 0.7996,
      "id": "GHCND:USC00099368",
      "elevationUnit": "METERS",
      "longitude": -84.916667
    },
    {
      "elevation": 61,
      "mindate": "2000-01-01",
      "maxdate": "2008-09-30",
      "latitude": 31.355,
      "name": "WILLACOOCHEE 5 ENE, GA US",
      "datacoverage": 0.9997,
      "id": "GHCND:USC00099451",
      "elevationUnit": "METERS",
      "longitude": -82.9339
    },
    {
      "elevation": 271,
      "mindate": "1940-10-01",
      "maxdate": "2010-12-31",
      "latitude": 33.9275,
      "name": "WINDER 4 S, GA US",
      "datacoverage": 1,
      "id": "GHCND:USC00099466",
      "elevationUnit": "METERS",
      "longitude": -83.72611
    },
    {
      "elevation": 271.3,
      "mindate": "1997-01-01",
      "maxdate": "2023-12-26",
      "latitude": 33.967,
      "name": "WINTERVILLE, GA US",
      "datacoverage": 1,
      "id": "GHCND:USC00099486",
      "elevationUnit": "METERS",
      "longitude": -83.2887
    },
    {
      "elevation": 4.9,
      "mindate": "1998-01-01",
      "maxdate": "2025-03-07",
      "latitude": 30.9591,
      "name": "WOODBINE, GA US",
      "datacoverage": 1,
      "id": "GHCND:USC00099502",
      "elevationUnit": "METERS",
      "longitude": -81.7071
    },
    {
      "elevation": 222.5,
      "mindate": "1900-08-01",
      "maxdate": "2020-12-31",
      "latitude": 32.9783,
      "name": "WOODBURY, GA US",
      "datacoverage": 1,
      "id": "GHCND:USC00099506",
      "elevationUnit": "METERS",
      "longitude": -84.5982
    },
    {
      "elevation": 70.1,
      "mindate": "1953-01-01",
      "maxdate": "1956-03-31",
      "latitude": 30.71667,
      "name": "WOODRUFF DAM, GA ",
      "datacoverage": 0.8982,
      "id": "GHCND:USC00099519",
      "elevationUnit": "METERS",
      "longitude": -84.86667
    },
    {
      "elevation": 320.6,
      "mindate": "1937-06-01",
      "maxdate": "2010-12-31",
      "latitude": 34.10972,
      "name": "WOODSTOCK, GA US",
      "datacoverage": 1,
      "id": "GHCND:USC00099524",
      "elevationUnit": "METERS",
      "longitude": -84.515
    },
    {
      "elevation": 586.1,
      "mindate": "1949-01-01",
      "maxdate": "1962-03-31",
      "latitude": 34.93333,
      "name": "YOUNG HARRIS, GA US",
      "datacoverage": 1,
      "id": "GHCND:USC00099805",
      "elevationUnit": "METERS",
      "longitude": -83.85
    },
    {
      "elevation": 1342.6,
      "mindate": "1914-04-01",
      "maxdate": "2025-01-31",
      "latitude": 42.9536,
      "name": "ABERDEEN EXPERIMENT STATION, ID US",
      "datacoverage": 1,
      "id": "GHCND:USC00100010",
      "elevationUnit": "METERS",
      "longitude": -112.8253
    },
    {
      "elevation": 1449,
      "mindate": "1899-11-01",
      "maxdate": "1953-07-31",
      "latitude": 42.41667,
      "name": "ALBION, ID US",
      "datacoverage": 0.4605,
      "id": "GHCND:USC00100149",
      "elevationUnit": "METERS",
      "longitude": -113.58333
    },
    {
      "elevation": 1685.5,
      "mindate": "1908-01-01",
      "maxdate": "1915-08-31",
      "latitude": 42.116667,
      "name": "ALMO, ID US",
      "datacoverage": 0.8455,
      "id": "GHCND:USC00100185",
      "elevationUnit": "METERS",
      "longitude": -113.65
    },
    {
      "elevation": 1457.9,
      "mindate": "1911-02-01",
      "maxdate": "1953-11-18",
      "latitude": 44.4,
      "name": "ALPHA 1 NE, ID US",
      "datacoverage": 0.7374,
      "id": "GHCND:USC00100199",
      "elevationUnit": "METERS",
      "longitude": -115.98333
    },
    {
      "elevation": 1344.2,
      "mindate": "2008-08-01",
      "maxdate": "2025-02-11",
      "latitude": 42.79866,
      "name": "AMERICAN FALLS, ID US",
      "datacoverage": 0.9993,
      "id": "GHCND:USC00100218",
      "elevationUnit": "METERS",
      "longitude": -112.80359
    },
    {
      "elevation": 1345.7,
      "mindate": "1892-12-01",
      "maxdate": "2010-12-31",
      "latitude": 42.8571,
      "name": "AMERICAN FALLS 3 NW, ID US",
      "datacoverage": 1,
      "id": "GHCND:USC00100227",
      "elevationUnit": "METERS",
      "longitude": -112.8801
    },
    {
      "elevation": 1183.2,
      "mindate": "1942-01-01",
      "maxdate": "2016-03-01",
      "latitude": 43.3572,
      "name": "ANDERSON DAM, ID US",
      "datacoverage": 1,
      "id": "GHCND:USC00100282",
      "elevationUnit": "METERS",
      "longitude": -115.4523
    },
    {
      "elevation": 1588,
      "mindate": "1962-01-01",
      "maxdate": "2010-12-31",
      "latitude": 42.50306,
      "name": "ARBON, ID US",
      "datacoverage": 1,
      "id": "GHCND:USC00100347",
      "elevationUnit": "METERS",
      "longitude": -112.57583
    },
    {
      "elevation": 1623.1,
      "mindate": "1914-03-01",
      "maxdate": "2025-01-31",
      "latitude": 43.6356,
      "name": "ARCO, ID US",
      "datacoverage": 1,
      "id": "GHCND:USC00100375",
      "elevationUnit": "METERS",
      "longitude": -113.29978
    },
    {
      "elevation": 2133.6,
      "mindate": "1922-01-01",
      "maxdate": "1925-02-28",
      "latitude": 44.416667,
      "name": "ARGORA, ID US",
      "datacoverage": 0.9657,
      "id": "GHCND:USC00100400",
      "elevationUnit": "METERS",
      "longitude": -112.65
    },
    {
      "elevation": 986,
      "mindate": "1911-11-01",
      "maxdate": "2016-03-01",
      "latitude": 43.5936,
      "name": "ARROWROCK DAM, ID US",
      "datacoverage": 1,
      "id": "GHCND:USC00100448",
      "elevationUnit": "METERS",
      "longitude": -115.9237
    },
    {
      "elevation": 1588.6,
      "mindate": "1897-02-01",
      "maxdate": "2025-02-18",
      "latitude": 44.0707,
      "name": "ASHTON 1 N, ID US",
      "datacoverage": 1,
      "id": "GHCND:USC00100470",
      "elevationUnit": "METERS",
      "longitude": -111.4565
    },
    {
      "elevation": 1677.9,
      "mindate": "1955-01-01",
      "maxdate": "1975-04-30",
      "latitude": 43.8,
      "name": "ATLANTA, ID US",
      "datacoverage": 0.6821,
      "id": "GHCND:USC00100491",
      "elevationUnit": "METERS",
      "longitude": -115.13333
    },
    {
      "elevation": 1830,
      "mindate": "1894-01-01",
      "maxdate": "1955-05-17",
      "latitude": 43.8,
      "name": "ATLANTA 1 E, ID US",
      "datacoverage": 0.6459,
      "id": "GHCND:USC00100493",
      "elevationUnit": "METERS",
      "longitude": -115.11667
    },
    {
      "elevation": 1705.1,
      "mindate": "1956-01-01",
      "maxdate": "1959-04-30",
      "latitude": 43.8,
      "name": "ATLANTA, ID US",
      "datacoverage": 0.9993,
      "id": "GHCND:USC00100494",
      "elevationUnit": "METERS",
      "longitude": -115.11667
    },
    {
      "elevation": 759,
      "mindate": "1913-12-01",
      "maxdate": "1968-10-31",
      "latitude": 47.25,
      "name": "AVERY RANGER STATION, ID US",
      "datacoverage": 0.9893,
      "id": "GHCND:USC00100525",
      "elevationUnit": "METERS",
      "longitude": -115.8
    },
    {
      "elevation": 729.7,
      "mindate": "1968-11-01",
      "maxdate": "2015-04-01",
      "latitude": 47.2532,
      "name": "AVERY RANGER STATION NUMBER 2, ID US",
      "datacoverage": 1,
      "id": "GHCND:USC00100528",
      "elevationUnit": "METERS",
      "longitude": -115.9204
    },
    {
      "elevation": 1830,
      "mindate": "1931-01-01",
      "maxdate": "1938-02-28",
      "latitude": 44.05,
      "name": "BAKERS RANCH, ID US",
      "datacoverage": 1,
      "id": "GHCND:USC00100536",
      "elevationUnit": "METERS",
      "longitude": -114.46667
    },
    {
      "elevation": 1613,
      "mindate": "1950-08-01",
      "maxdate": "1951-08-29",
      "latitude": 42.71667,
      "name": "BANCROFT, ID US",
      "datacoverage": 0.9992,
      "id": "GHCND:USC00100563",
      "elevationUnit": "METERS",
      "longitude": -111.9
    },
    {
      "mindate": "1933-11-01",
      "maxdate": "1947-12-31",
      "latitude": 44.05,
      "name": "BARTON FLAT, ID US",
      "datacoverage": 0.7824,
      "id": "GHCND:USC00100621",
      "longitude": -113.8
    },
    {
      "elevation": 636.1,
      "mindate": "1947-04-01",
      "maxdate": "2025-03-06",
      "latitude": 47.9804,
      "name": "BAYVIEW MODEL BASIN, ID US",
      "datacoverage": 1,
      "id": "GHCND:USC00100667",
      "elevationUnit": "METERS",
      "longitude": -116.5594
    },
    {
      "elevation": 1582.5,
      "mindate": "2014-01-01",
      "maxdate": "2025-03-04",
      "latitude": 43.4669,
      "name": "BELLEVUE, ID US",
      "datacoverage": 0.9996,
      "id": "GHCND:USC00100774",
      "elevationUnit": "METERS",
      "longitude": -114.2577
    },
    {
      "elevation": 805,
      "mindate": "1950-02-01",
      "maxdate": "1951-09-30",
      "latitude": 48.35,
      "name": "BENTON DAM, ID US",
      "datacoverage": 1,
      "id": "GHCND:USC00100789",
      "elevationUnit": "METERS",
      "longitude": -116.8
    },
    {
      "elevation": 1817.8,
      "mindate": "1992-01-01",
      "maxdate": "2025-03-06",
      "latitude": 42.33532,
      "name": "BERN, ID US",
      "datacoverage": 1,
      "id": "GHCND:USC00100803",
      "elevationUnit": "METERS",
      "longitude": -111.38544
    },
    {
      "elevation": 1731.9,
      "mindate": "1908-05-01",
      "maxdate": "1970-07-31",
      "latitude": 45.13333,
      "name": "BIG CREEK, ID US",
      "datacoverage": 0.6769,
      "id": "GHCND:USC00100835",
      "elevationUnit": "METERS",
      "longitude": -115.31667
    },
    {
      "elevation": 1676.4,
      "mindate": "1916-06-01",
      "maxdate": "1936-08-31",
      "latitude": 43.616667,
      "name": "BIG SMOKY RANGER STATION, ID US",
      "datacoverage": 0.3374,
      "id": "GHCND:USC00100857",
      "elevationUnit": "METERS",
      "longitude": -114.883333
    }
  ]
}
