{
  "metadata": {
    "resultset": {
      "offset": 6300,
      "count": 154115,
      "limit": 100
    }
  },
  "results": [
    {
      "elevation": 304.8,
      "mindate": "1977-07-01",
      "maxdate": "2001-11-01",
      "latitude": 37.75,
      "name": "EASTERN KENTUCKY U, KY US",
      "datacoverage": 0.9965,
      "id": "COOP:152409",
      "elevationUnit": "METERS",
      "longitude": -84.33333
    },
    {
      "elevation": 159.4,
      "mindate": "2001-05-01",
      "maxdate": "2015-11-01",
      "latitude": 37.0486,
      "name": "EDDYVILLE 5 S, KY US",
      "datacoverage": 0.9999,
      "id": "COOP:152442",
      "elevationUnit": "METERS",
      "longitude": -88.0727
    },
    {
      "elevation": 128,
      "mindate": "1940-04-01",
      "maxdate": "1964-07-01",
      "latitude": 37.05,
      "name": "EDDYVILLE LOCK F, KY US",
      "datacoverage": 0.9349,
      "id": "COOP:152445",
      "elevationUnit": "METERS",
      "longitude": -88.08333
    },
    {
      "elevation": 237.7,
      "mindate": "1940-05-01",
      "maxdate": "1977-09-01",
      "latitude": 36.98333,
      "name": "EDMONTON 3 W, KY US",
      "datacoverage": 0.9709,
      "id": "COOP:152469",
      "elevationUnit": "METERS",
      "longitude": -85.65
    },
    {
      "elevation": 237.7,
      "mindate": "1982-12-01",
      "maxdate": "2015-11-01",
      "latitude": 37.7116,
      "name": "ELIZABETHTOWN KSP P4, KY US",
      "datacoverage": 0.9798,
      "id": "COOP:152500",
      "elevationUnit": "METERS",
      "longitude": -85.8305
    },
    {
      "elevation": 225.9,
      "mindate": "1948-12-01",
      "maxdate": "1964-06-01",
      "latitude": 37.68333,
      "name": "ELIZABETHTOWN, KY US",
      "datacoverage": 0.5883,
      "id": "COOP:152510",
      "elevationUnit": "METERS",
      "longitude": -85.86667
    },
    {
      "elevation": 210.3,
      "mindate": "1989-04-01",
      "maxdate": "2014-12-01",
      "latitude": 37.6798,
      "name": "ELIZABETHTOWN, KY US",
      "datacoverage": 0.9902,
      "id": "COOP:152512",
      "elevationUnit": "METERS",
      "longitude": -85.8761
    },
    {
      "elevation": 274.3,
      "mindate": "1951-09-01",
      "maxdate": "1990-03-01",
      "latitude": 37.3,
      "name": "ELKHORN CITY, KY US",
      "datacoverage": 0.7862,
      "id": "COOP:152528",
      "elevationUnit": "METERS",
      "longitude": -82.35
    },
    {
      "elevation": 188.7,
      "mindate": "1957-11-01",
      "maxdate": "2015-11-01",
      "latitude": 36.8077,
      "name": "ELKTON, KY US",
      "datacoverage": 0.8709,
      "id": "COOP:152548",
      "elevationUnit": "METERS",
      "longitude": -87.153
    },
    {
      "elevation": 243.8,
      "mindate": "2008-02-01",
      "maxdate": "2015-11-01",
      "latitude": 36.8276,
      "name": "ETOILE, KY US",
      "datacoverage": 0.7662,
      "id": "COOP:152575",
      "elevationUnit": "METERS",
      "longitude": -85.8975
    },
    {
      "elevation": 360,
      "mindate": "1931-01-01",
      "maxdate": "1942-05-01",
      "latitude": 37.26667,
      "name": "EUBANK, KY US",
      "datacoverage": 0.9126,
      "id": "COOP:152698",
      "elevationUnit": "METERS",
      "longitude": -84.65
    },
    {
      "elevation": 195.1,
      "mindate": "1982-11-01",
      "maxdate": "1984-05-01",
      "latitude": 38.18333,
      "name": "FALLSBURG 5 NW, KY US",
      "datacoverage": 1,
      "id": "COOP:152740",
      "elevationUnit": "METERS",
      "longitude": -82.75
    },
    {
      "elevation": 170.7,
      "mindate": "1962-01-01",
      "maxdate": "1964-03-01",
      "latitude": 37.6177,
      "name": "ROUGH RIVER LAKE, KY US",
      "datacoverage": 1,
      "id": "COOP:152770",
      "elevationUnit": "METERS",
      "longitude": -86.5044
    },
    {
      "elevation": 249.6,
      "mindate": "1931-01-01",
      "maxdate": "2006-07-01",
      "latitude": 38.6873,
      "name": "FALMOUTH, KY US",
      "datacoverage": 0.9714,
      "id": "COOP:152775",
      "elevationUnit": "METERS",
      "longitude": -84.3585
    },
    {
      "elevation": 239.6,
      "mindate": "2015-01-01",
      "maxdate": "2015-11-01",
      "latitude": 38.6018,
      "name": "FALMOUTH 5 SSE, KY US",
      "datacoverage": 1,
      "id": "COOP:152776",
      "elevationUnit": "METERS",
      "longitude": -84.3006
    },
    {
      "elevation": 256,
      "mindate": "1931-01-01",
      "maxdate": "2015-11-01",
      "latitude": 38.1227,
      "name": "CAVE RUN LAKE, KY US",
      "datacoverage": 0.9863,
      "id": "COOP:152791",
      "elevationUnit": "METERS",
      "longitude": -83.5327
    },
    {
      "elevation": 259.1,
      "mindate": "1978-05-01",
      "maxdate": "2010-12-01",
      "latitude": 37.39209,
      "name": "FEDSCREEK 1 SE, KY US",
      "datacoverage": 0.9896,
      "id": "COOP:152812",
      "elevationUnit": "METERS",
      "longitude": -82.25825
    },
    {
      "elevation": 218.8,
      "mindate": "1969-07-01",
      "maxdate": "2014-12-01",
      "latitude": 37.4333,
      "name": "FISHTRAP LAKE, KY US",
      "datacoverage": 0.9249,
      "id": "COOP:152825",
      "elevationUnit": "METERS",
      "longitude": -82.4167
    },
    {
      "elevation": 286.5,
      "mindate": "1931-01-01",
      "maxdate": "2015-11-01",
      "latitude": 38.4502,
      "name": "FLEMINGSBURG 2 N, KY US",
      "datacoverage": 0.8636,
      "id": "COOP:152903",
      "elevationUnit": "METERS",
      "longitude": -83.7355
    },
    {
      "elevation": 267.9,
      "mindate": "1948-08-01",
      "maxdate": "1984-03-01",
      "latitude": 38.41667,
      "name": "FLEMINGSBURG 1 SW, KY US",
      "datacoverage": 0.779,
      "id": "COOP:152908",
      "elevationUnit": "METERS",
      "longitude": -83.75
    },
    {
      "elevation": 169.8,
      "mindate": "1931-01-01",
      "maxdate": "1981-06-01",
      "latitude": 37.8952,
      "name": "FORD LOCK 1O, KY US",
      "datacoverage": 1,
      "id": "COOP:152953",
      "elevationUnit": "METERS",
      "longitude": -84.263
    },
    {
      "elevation": 110,
      "mindate": "1931-01-01",
      "maxdate": "1984-03-01",
      "latitude": 37.46667,
      "name": "FORDS FERRY DAM 5O, KY US",
      "datacoverage": 1,
      "id": "COOP:152961",
      "elevationUnit": "METERS",
      "longitude": -88.1
    },
    {
      "elevation": 137.2,
      "mindate": "1971-01-01",
      "maxdate": "2014-01-01",
      "latitude": 37.63635,
      "name": "FORDSVILLE, KY US",
      "datacoverage": 0.0306,
      "id": "COOP:152979",
      "elevationUnit": "METERS",
      "longitude": -86.72426
    },
    {
      "elevation": 306.3,
      "mindate": "1962-02-01",
      "maxdate": "2002-02-01",
      "latitude": 36.78333,
      "name": "FOURMILE KY UTIL PARK, KY US",
      "datacoverage": 0.7215,
      "id": "COOP:153006",
      "elevationUnit": "METERS",
      "longitude": -83.75
    },
    {
      "elevation": 233.2,
      "mindate": "2015-10-01",
      "maxdate": "2015-11-01",
      "latitude": 38.2196,
      "name": "FRANKFORT 3 NE, KY US",
      "datacoverage": 0.998,
      "id": "COOP:153025",
      "elevationUnit": "METERS",
      "longitude": -84.8336
    },
    {
      "elevation": 140.8,
      "mindate": "1931-01-01",
      "maxdate": "2002-08-01",
      "latitude": 38.20222,
      "name": "FRANKFORT LOCK 4, KY US",
      "datacoverage": 0.9884,
      "id": "COOP:153028",
      "elevationUnit": "METERS",
      "longitude": -84.8825
    },
    {
      "elevation": 230.1,
      "mindate": "1985-03-01",
      "maxdate": "2015-11-01",
      "latitude": 38.1793,
      "name": "FRANKFORT ST POLICE, KY US",
      "datacoverage": 0.9485,
      "id": "COOP:153030",
      "elevationUnit": "METERS",
      "longitude": -84.8993
    },
    {
      "elevation": 207.3,
      "mindate": "1931-01-01",
      "maxdate": "2012-12-01",
      "latitude": 36.6877,
      "name": "FRANKLIN 1 E, KY US",
      "datacoverage": 0.9014,
      "id": "COOP:153036",
      "elevationUnit": "METERS",
      "longitude": -86.5061
    },
    {
      "elevation": 223.1,
      "mindate": "1951-09-01",
      "maxdate": "1989-01-01",
      "latitude": 37.55,
      "name": "FREEBURN 2 SW, KY US",
      "datacoverage": 0.8952,
      "id": "COOP:153046",
      "elevationUnit": "METERS",
      "longitude": -82.16667
    },
    {
      "elevation": 280.4,
      "mindate": "1945-08-01",
      "maxdate": "2005-02-01",
      "latitude": 37.95,
      "name": "FRENCHBURG 2 W, KY US",
      "datacoverage": 0.8993,
      "id": "COOP:153052",
      "elevationUnit": "METERS",
      "longitude": -83.66667
    },
    {
      "elevation": 246.9,
      "mindate": "1956-07-01",
      "maxdate": "2001-12-01",
      "latitude": 36.63333,
      "name": "GAMALIEL, KY US",
      "datacoverage": 0.8863,
      "id": "COOP:153112",
      "elevationUnit": "METERS",
      "longitude": -85.8
    },
    {
      "elevation": 245.4,
      "mindate": "1941-12-01",
      "maxdate": "2015-11-01",
      "latitude": 38.2094,
      "name": "GEORGETOWN WATER WKS, KY US",
      "datacoverage": 0.9144,
      "id": "COOP:153194",
      "elevationUnit": "METERS",
      "longitude": -84.5621
    },
    {
      "elevation": 149.4,
      "mindate": "1931-01-01",
      "maxdate": "2002-12-01",
      "latitude": 38.41694,
      "name": "GEST LOCK 3, KY US",
      "datacoverage": 0.9872,
      "id": "COOP:153203",
      "elevationUnit": "METERS",
      "longitude": -84.88194
    },
    {
      "elevation": 109.7,
      "mindate": "1967-05-01",
      "maxdate": "2012-12-01",
      "latitude": 37.0147,
      "name": "GILBERTSVILLE KY DAM, KY US",
      "datacoverage": 0.894,
      "id": "COOP:153223",
      "elevationUnit": "METERS",
      "longitude": -88.2677
    },
    {
      "elevation": 341.4,
      "mindate": "2006-03-01",
      "maxdate": "2015-11-01",
      "latitude": 38.2186,
      "name": "GIMLET 9 N, KY US",
      "datacoverage": 0.9998,
      "id": "COOP:153230",
      "elevationUnit": "METERS",
      "longitude": -83.143
    },
    {
      "elevation": 207.3,
      "mindate": "1933-06-01",
      "maxdate": "1981-12-01",
      "latitude": 36.98333,
      "name": "GLASGOW, KY US",
      "datacoverage": 0.8713,
      "id": "COOP:153241",
      "elevationUnit": "METERS",
      "longitude": -85.9
    },
    {
      "elevation": 234.7,
      "mindate": "1953-04-01",
      "maxdate": "2009-10-01",
      "latitude": 37.0013,
      "name": "GLASGOW, KY US",
      "datacoverage": 0.9558,
      "id": "COOP:153246",
      "elevationUnit": "METERS",
      "longitude": -85.9072
    },
    {
      "elevation": 149.4,
      "mindate": "2015-01-01",
      "maxdate": "2015-11-01",
      "latitude": 38.78,
      "name": "GLENCOE 6 NW, KY US",
      "datacoverage": 1,
      "id": "COOP:153250",
      "elevationUnit": "METERS",
      "longitude": -84.895
    },
    {
      "elevation": 216.4,
      "mindate": "1951-12-01",
      "maxdate": "2011-12-01",
      "latitude": 37.6011,
      "name": "GLENDALE, KY US",
      "datacoverage": 0.9667,
      "id": "COOP:153252",
      "elevationUnit": "METERS",
      "longitude": -85.9066
    },
    {
      "elevation": 239,
      "mindate": "1948-08-01",
      "maxdate": "1949-08-28",
      "latitude": 37.9,
      "name": "FORT KNOX GODMAN ARMY AIR FIELD, KY US",
      "datacoverage": 0.4612,
      "id": "COOP:153280",
      "elevationUnit": "METERS",
      "longitude": -85.96667
    },
    {
      "elevation": 121.9,
      "mindate": "1953-04-01",
      "maxdate": "2000-07-01",
      "latitude": 36.89639,
      "name": "GOLDEN POND 8 N, KY US",
      "datacoverage": 0.9788,
      "id": "COOP:153295",
      "elevationUnit": "METERS",
      "longitude": -88.01389
    },
    {
      "elevation": 153,
      "mindate": "1931-01-01",
      "maxdate": "1962-12-01",
      "latitude": 38.98333,
      "name": "GRANT DAM 38, KY US",
      "datacoverage": 0.974,
      "id": "COOP:153358",
      "elevationUnit": "METERS",
      "longitude": -84.83333
    },
    {
      "elevation": 381,
      "mindate": "1972-09-01",
      "maxdate": "1999-09-01",
      "latitude": 37.4,
      "name": "GRAY HAWK, KY US",
      "datacoverage": 0.994,
      "id": "COOP:153382",
      "elevationUnit": "METERS",
      "longitude": -83.95
    },
    {
      "elevation": 176.8,
      "mindate": "1984-01-01",
      "maxdate": "2013-12-01",
      "latitude": 38.3354,
      "name": "GRAYSON 2 E, KY US",
      "datacoverage": 0.6861,
      "id": "COOP:153389",
      "elevationUnit": "METERS",
      "longitude": -82.9075
    },
    {
      "elevation": 213.4,
      "mindate": "1931-01-01",
      "maxdate": "2001-09-01",
      "latitude": 38.29222,
      "name": "GRAYSON 3 SW, KY US",
      "datacoverage": 0.7197,
      "id": "COOP:153391",
      "elevationUnit": "METERS",
      "longitude": -82.97472
    },
    {
      "elevation": 274.9,
      "mindate": "1959-06-01",
      "maxdate": "1968-12-01",
      "latitude": 38.3,
      "name": "GRAYSON 3 SE, KY US",
      "datacoverage": 0.9995,
      "id": "COOP:153392",
      "elevationUnit": "METERS",
      "longitude": -82.93333
    },
    {
      "elevation": 217.9,
      "mindate": "1969-07-01",
      "maxdate": "2011-12-01",
      "latitude": 38.2515,
      "name": "GRAYSON LAKE, KY US",
      "datacoverage": 0.9882,
      "id": "COOP:153398",
      "elevationUnit": "METERS",
      "longitude": -82.9885
    },
    {
      "elevation": 178.3,
      "mindate": "1931-01-01",
      "maxdate": "2015-11-01",
      "latitude": 37.2571,
      "name": "GREENSBURG, KY US",
      "datacoverage": 0.9873,
      "id": "COOP:153430",
      "elevationUnit": "METERS",
      "longitude": -85.5012
    },
    {
      "elevation": 213.4,
      "mindate": "1947-03-01",
      "maxdate": "1998-09-01",
      "latitude": 37.23333,
      "name": "GREENSBURG, KY US",
      "datacoverage": 0.9692,
      "id": "COOP:153435",
      "elevationUnit": "METERS",
      "longitude": -85.55
    },
    {
      "elevation": 160.9,
      "mindate": "1931-01-01",
      "maxdate": "1961-07-01",
      "latitude": 38.64812,
      "name": "GREENUP LOCKS AND DAM, KY US",
      "datacoverage": 0.981,
      "id": "COOP:153443",
      "elevationUnit": "METERS",
      "longitude": -82.86115
    },
    {
      "elevation": 167.6,
      "mindate": "1931-01-01",
      "maxdate": "1985-07-01",
      "latitude": 37.18333,
      "name": "GREENVILLE 2 W, KY US",
      "datacoverage": 0.9252,
      "id": "COOP:153451",
      "elevationUnit": "METERS",
      "longitude": -87.21667
    },
    {
      "elevation": 232,
      "mindate": "1965-02-01",
      "maxdate": "1973-01-29",
      "latitude": 37.08333,
      "name": "CROFTON 8 ENE, KY US",
      "datacoverage": 0.0443,
      "id": "COOP:153455",
      "elevationUnit": "METERS",
      "longitude": -87.35
    },
    {
      "elevation": 225.9,
      "mindate": "1948-08-01",
      "maxdate": "1964-03-01",
      "latitude": 37.05,
      "name": "HALEYS MILL, KY US",
      "datacoverage": 0.9216,
      "id": "COOP:153539",
      "elevationUnit": "METERS",
      "longitude": -87.33333
    },
    {
      "elevation": 217.9,
      "mindate": "1974-04-01",
      "maxdate": "2009-09-01",
      "latitude": 37.7822,
      "name": "HARDINSBURG, KY US",
      "datacoverage": 0.9131,
      "id": "COOP:153604",
      "elevationUnit": "METERS",
      "longitude": -86.4622
    },
    {
      "elevation": 366.1,
      "mindate": "1931-01-01",
      "maxdate": "1952-01-01",
      "latitude": 36.83333,
      "name": "HARLAN, KY US",
      "datacoverage": 0.336,
      "id": "COOP:153622",
      "elevationUnit": "METERS",
      "longitude": -83.31667
    },
    {
      "elevation": 365.8,
      "mindate": "1982-11-01",
      "maxdate": "2008-11-01",
      "latitude": 36.81444,
      "name": "HARLAN KSP POST 10, KY US",
      "datacoverage": 0.8466,
      "id": "COOP:153629",
      "elevationUnit": "METERS",
      "longitude": -83.31444
    },
    {
      "elevation": 131.1,
      "mindate": "1938-09-01",
      "maxdate": "1988-10-01",
      "latitude": 37.53333,
      "name": "HARTFORD 6 NW, KY US",
      "datacoverage": 0.9784,
      "id": "COOP:153652",
      "elevationUnit": "METERS",
      "longitude": -86.9
    },
    {
      "elevation": 264.9,
      "mindate": "1931-01-01",
      "maxdate": "1985-04-01",
      "latitude": 37.25,
      "name": "HAZARD, KY US",
      "datacoverage": 0.976,
      "id": "COOP:153709",
      "elevationUnit": "METERS",
      "longitude": -83.2
    },
    {
      "elevation": 404.8,
      "mindate": "1981-05-01",
      "maxdate": "2008-11-01",
      "latitude": 37.298405,
      "name": "HAZARD STATE POLICE, KY US",
      "datacoverage": 0.9515,
      "id": "COOP:153712",
      "elevationUnit": "METERS",
      "longitude": -83.215822
    },
    {
      "elevation": 310.9,
      "mindate": "2011-01-01",
      "maxdate": "2012-12-01",
      "latitude": 37.2511,
      "name": "HAZARD NUMBER 3, KY US",
      "datacoverage": 0.9993,
      "id": "COOP:153713",
      "elevationUnit": "METERS",
      "longitude": -83.1883
    },
    {
      "elevation": 268.2,
      "mindate": "1950-02-01",
      "maxdate": "2015-11-01",
      "latitude": 37.2471,
      "name": "HAZARD WATER WKS, KY US",
      "datacoverage": 0.9899,
      "id": "COOP:153714",
      "elevationUnit": "METERS",
      "longitude": -83.1817
    },
    {
      "elevation": 307.8,
      "mindate": "1984-09-01",
      "maxdate": "2002-10-01",
      "latitude": 37.78333,
      "name": "HAZEL GREEN 2 SW, KY US",
      "datacoverage": 0.8808,
      "id": "COOP:153716",
      "elevationUnit": "METERS",
      "longitude": -83.45
    },
    {
      "elevation": 262.1,
      "mindate": "1941-05-01",
      "maxdate": "1950-05-01",
      "latitude": 38.4,
      "name": "HEADQUARTERS, KY US",
      "datacoverage": 0.8898,
      "id": "COOP:153722",
      "elevationUnit": "METERS",
      "longitude": -84.11667
    },
    {
      "elevation": 202.7,
      "mindate": "1931-01-01",
      "maxdate": "2007-12-01",
      "latitude": 37.55,
      "name": "HEIDELBERG, KY US",
      "datacoverage": 0.9588,
      "id": "COOP:153741",
      "elevationUnit": "METERS",
      "longitude": -83.76667
    },
    {
      "elevation": 350.5,
      "mindate": "2007-11-01",
      "maxdate": "2011-08-01",
      "latitude": 37.5787,
      "name": "HEIDELBERG 2 N, KY US",
      "datacoverage": 0.9997,
      "id": "COOP:153744",
      "elevationUnit": "METERS",
      "longitude": -83.7659
    },
    {
      "elevation": 136.9,
      "mindate": "1931-04-01",
      "maxdate": "2015-11-01",
      "latitude": 37.7558,
      "name": "HENDERSON 8 SSW, KY US",
      "datacoverage": 0.9725,
      "id": "COOP:153762",
      "elevationUnit": "METERS",
      "longitude": -87.6455
    },
    {
      "elevation": 128,
      "mindate": "1981-05-01",
      "maxdate": "2015-11-01",
      "latitude": 37.7922,
      "name": "HENDERSON STATE POLICE, KY US",
      "datacoverage": 0.9614,
      "id": "COOP:153768",
      "elevationUnit": "METERS",
      "longitude": -87.5708
    },
    {
      "elevation": 170.7,
      "mindate": "1948-08-01",
      "maxdate": "2015-11-01",
      "latitude": 36.6702,
      "name": "HERNDON 5 S, KY US",
      "datacoverage": 0.2999,
      "id": "COOP:153798",
      "elevationUnit": "METERS",
      "longitude": -87.5588
    },
    {
      "elevation": 116.1,
      "mindate": "1950-08-01",
      "maxdate": "1981-01-01",
      "latitude": 36.56667,
      "name": "HICKMAN 1 E, KY US",
      "datacoverage": 0.9835,
      "id": "COOP:153816",
      "elevationUnit": "METERS",
      "longitude": -89.16667
    },
    {
      "elevation": 134.1,
      "mindate": "1949-01-01",
      "maxdate": "1962-03-01",
      "latitude": 36.8,
      "name": "HICKSVILLE, KY US",
      "datacoverage": 0.994,
      "id": "COOP:153821",
      "elevationUnit": "METERS",
      "longitude": -88.5
    },
    {
      "elevation": 164.6,
      "mindate": "1931-01-01",
      "maxdate": "1996-01-01",
      "latitude": 37.81667,
      "name": "HIGH BRIDGE LOCK 7, KY US",
      "datacoverage": 0.9398,
      "id": "COOP:153837",
      "elevationUnit": "METERS",
      "longitude": -84.71667
    },
    {
      "elevation": 243.8,
      "mindate": "2008-01-01",
      "maxdate": "2015-11-01",
      "latitude": 38.3217,
      "name": "HILLSBORO, KY US",
      "datacoverage": 0.9686,
      "id": "COOP:153840",
      "elevationUnit": "METERS",
      "longitude": -83.6641
    },
    {
      "elevation": 281,
      "mindate": "1966-02-01",
      "maxdate": "1975-06-01",
      "latitude": 37.45,
      "name": "HINDMAN 11 NNE, KY US",
      "datacoverage": 0.983,
      "id": "COOP:153896",
      "elevationUnit": "METERS",
      "longitude": -82.88333
    },
    {
      "elevation": 363,
      "mindate": "1948-01-01",
      "maxdate": "1962-01-01",
      "latitude": 37.33333,
      "name": "HINDMAN, KY US",
      "datacoverage": 0.9229,
      "id": "COOP:153899",
      "elevationUnit": "METERS",
      "longitude": -82.98333
    },
    {
      "elevation": 240.2,
      "mindate": "1948-08-01",
      "maxdate": "2015-11-01",
      "latitude": 37.5316,
      "name": "HODGENVILLE LINCOLN P, KY US",
      "datacoverage": 0.7389,
      "id": "COOP:153929",
      "elevationUnit": "METERS",
      "longitude": -85.735
    },
    {
      "elevation": 158.5,
      "mindate": "1931-01-01",
      "maxdate": "2015-11-01",
      "latitude": 36.84888,
      "name": "HOPKINSVILLE, KY US",
      "datacoverage": 0.951,
      "id": "COOP:153994",
      "elevationUnit": "METERS",
      "longitude": -87.52083
    },
    {
      "elevation": 295.7,
      "mindate": "1940-05-01",
      "maxdate": "2013-12-01",
      "latitude": 37.15,
      "name": "HYDEN, KY US",
      "datacoverage": 0.6086,
      "id": "COOP:154093",
      "elevationUnit": "METERS",
      "longitude": -83.36
    },
    {
      "elevation": 275.8,
      "mindate": "2007-10-01",
      "maxdate": "2008-06-01",
      "latitude": 37.18528,
      "name": "HYDEN 4 NW, KY US",
      "datacoverage": 0.7776,
      "id": "COOP:154095",
      "elevationUnit": "METERS",
      "longitude": -83.43417
    },
    {
      "elevation": 359.7,
      "mindate": "1978-05-01",
      "maxdate": "1990-10-01",
      "latitude": 37.13333,
      "name": "HYDEN 4 E, KY US",
      "datacoverage": 0.9997,
      "id": "COOP:154097",
      "elevationUnit": "METERS",
      "longitude": -83.33333
    },
    {
      "elevation": 195.1,
      "mindate": "1951-02-01",
      "maxdate": "1962-12-01",
      "latitude": 37.86667,
      "name": "INEZ, KY US",
      "datacoverage": 0.9512,
      "id": "COOP:154134",
      "elevationUnit": "METERS",
      "longitude": -82.53333
    },
    {
      "elevation": 216.4,
      "mindate": "1990-07-01",
      "maxdate": "2015-11-01",
      "latitude": 37.8725,
      "name": "INEZ 2 E, KY US",
      "datacoverage": 0.3278,
      "id": "COOP:154138",
      "elevationUnit": "METERS",
      "longitude": -82.5195
    },
    {
      "elevation": 180.1,
      "mindate": "1931-01-01",
      "maxdate": "1973-12-01",
      "latitude": 37.88333,
      "name": "IRVINGTON, KY US",
      "datacoverage": 0.9942,
      "id": "COOP:154165",
      "elevationUnit": "METERS",
      "longitude": -86.28333
    },
    {
      "elevation": 204.2,
      "mindate": "1977-11-01",
      "maxdate": "2011-12-01",
      "latitude": 37.57528,
      "name": "IVEL, KY US",
      "datacoverage": 0.9537,
      "id": "COOP:154180",
      "elevationUnit": "METERS",
      "longitude": -82.66278
    },
    {
      "elevation": 227.1,
      "mindate": "1935-01-01",
      "maxdate": "1984-04-01",
      "latitude": 37.55,
      "name": "JACKSON, KY US",
      "datacoverage": 0.9629,
      "id": "COOP:154196",
      "elevationUnit": "METERS",
      "longitude": -83.38333
    },
    {
      "elevation": 413,
      "mindate": "1981-01-01",
      "maxdate": "2015-11-01",
      "latitude": 37.591335,
      "name": "JACKSON JULIAN CARROLL AIRPORT, KY US",
      "datacoverage": 1,
      "id": "COOP:154202",
      "elevationUnit": "METERS",
      "longitude": -83.313696
    },
    {
      "elevation": 271.3,
      "mindate": "1971-04-01",
      "maxdate": "2015-11-01",
      "latitude": 37.0055,
      "name": "JAMESTOWN WWTP, KY US",
      "datacoverage": 0.9291,
      "id": "COOP:154208",
      "elevationUnit": "METERS",
      "longitude": -85.0616
    },
    {
      "mindate": "1931-01-01",
      "maxdate": "1951-10-01",
      "latitude": 37.2,
      "name": "JENKINS, KY US",
      "datacoverage": 0.7797,
      "id": "COOP:154236",
      "longitude": -82.6
    },
    {
      "elevation": 488,
      "mindate": "1948-08-01",
      "maxdate": "1950-09-01",
      "latitude": 37.16667,
      "name": "JENKINS WATER WORKS, KY US",
      "datacoverage": 0.6926,
      "id": "COOP:154241",
      "elevationUnit": "METERS",
      "longitude": -82.63333
    },
    {
      "elevation": 335.3,
      "mindate": "1940-05-01",
      "maxdate": "2014-12-01",
      "latitude": 37.1614,
      "name": "JEREMIAH 1 S, KY US",
      "datacoverage": 0.9017,
      "id": "COOP:154255",
      "elevationUnit": "METERS",
      "longitude": -82.9364
    },
    {
      "elevation": 287.1,
      "mindate": "1978-05-01",
      "maxdate": "1984-09-01",
      "latitude": 38.65,
      "name": "JONESVILLE 1 S, KY US",
      "datacoverage": 0.9994,
      "id": "COOP:154309",
      "elevationUnit": "METERS",
      "longitude": -84.78333
    },
    {
      "elevation": 265.2,
      "mindate": "1941-05-01",
      "maxdate": "2010-12-01",
      "latitude": 37.93972,
      "name": "KEENE 1 WSW, KY US",
      "datacoverage": 0.9832,
      "id": "COOP:154369",
      "elevationUnit": "METERS",
      "longitude": -84.65972
    },
    {
      "elevation": 147.5,
      "mindate": "2005-05-01",
      "maxdate": "2015-11-01",
      "latitude": 36.76,
      "name": "KENLAKE RESORT, KY US",
      "datacoverage": 0.9999,
      "id": "COOP:154375",
      "elevationUnit": "METERS",
      "longitude": -88.1386
    },
    {
      "elevation": 298.4,
      "mindate": "2002-09-01",
      "maxdate": "2008-06-01",
      "latitude": 36.69389,
      "name": "KETTLE, KY US",
      "datacoverage": 0.9003,
      "id": "COOP:154376",
      "elevationUnit": "METERS",
      "longitude": -85.41944
    },
    {
      "elevation": 109.7,
      "mindate": "1938-07-01",
      "maxdate": "1962-03-01",
      "latitude": 37.0147,
      "name": "GILBERTSVILLE KY DAM, KY US",
      "datacoverage": 1,
      "id": "COOP:154414",
      "elevationUnit": "METERS",
      "longitude": -88.2677
    },
    {
      "elevation": 396.2,
      "mindate": "2001-11-01",
      "maxdate": "2002-07-01",
      "latitude": 37.3975,
      "name": "KINGS MOUNTAIN 2 NE, KY US",
      "datacoverage": 1,
      "id": "COOP:154433",
      "elevationUnit": "METERS",
      "longitude": -84.65306
    },
    {
      "elevation": 310.9,
      "mindate": "2009-11-01",
      "maxdate": "2015-11-01",
      "latitude": 37.0245,
      "name": "KNOB LICK 4 S, KY US",
      "datacoverage": 1,
      "id": "COOP:154449",
      "elevationUnit": "METERS",
      "longitude": -85.6987
    },
    {
      "elevation": 140.2,
      "mindate": "1982-11-01",
      "maxdate": "1985-12-01",
      "latitude": 37.06667,
      "name": "KUTTAWA 2 NE, KY US",
      "datacoverage": 0.9997,
      "id": "COOP:154453",
      "elevationUnit": "METERS",
      "longitude": -88.16667
    },
    {
      "elevation": 114,
      "mindate": "2006-10-01",
      "maxdate": "2007-04-01",
      "latitude": 37.1075,
      "name": "LA CENTER 2 N, KY US",
      "datacoverage": 0.8614,
      "id": "COOP:154580",
      "elevationUnit": "METERS",
      "longitude": -88.97861
    },
    {
      "elevation": 137.8,
      "mindate": "2006-08-01",
      "maxdate": "2008-11-01",
      "latitude": 37.02583,
      "name": "LA CENTER 7 SSE, KY US",
      "datacoverage": 0.9991,
      "id": "COOP:154593",
      "elevationUnit": "METERS",
      "longitude": -88.93333
    },
    {
      "elevation": 238,
      "mindate": "1939-04-01",
      "maxdate": "1985-06-01",
      "latitude": 38.43333,
      "name": "LA GRANGE, KY US",
      "datacoverage": 0.7459,
      "id": "COOP:154595",
      "elevationUnit": "METERS",
      "longitude": -85.36667
    }
  ]
}
