{
  "metadata": {
    "resultset": {
      "offset": 1000,
      "count": 154115,
      "limit": 100
    }
  },
  "results": [
    {
      "elevation": 50.6,
      "mindate": "1931-01-01",
      "maxdate": "2015-11-01",
      "latitude": 33.88519,
      "name": "DUMAS, AR US",
      "datacoverage": 0.9941,
      "id": "COOP:032148",
      "elevationUnit": "METERS",
      "longitude": -91.53156
    },
    {
      "elevation": 52.1,
      "mindate": "1948-05-03",
      "maxdate": "1961-01-26",
      "latitude": 33.88333,
      "name": "DUMAS, AR US",
      "datacoverage": 0.7846,
      "id": "COOP:032150",
      "elevationUnit": "METERS",
      "longitude": -91.5
    },
    {
      "elevation": 378,
      "mindate": "1940-07-01",
      "maxdate": "1956-09-01",
      "latitude": 35.95,
      "name": "DURHAM, AR US",
      "datacoverage": 0.8274,
      "id": "COOP:032176",
      "elevationUnit": "METERS",
      "longitude": -93.98333
    },
    {
      "elevation": 484.9,
      "mindate": "1931-01-01",
      "maxdate": "1937-06-01",
      "latitude": 35.8,
      "name": "DUTTON, AR US",
      "datacoverage": 0.8979,
      "id": "COOP:032188",
      "elevationUnit": "METERS",
      "longitude": -93.7
    },
    {
      "elevation": 351.1,
      "mindate": "1940-06-01",
      "maxdate": "1956-02-01",
      "latitude": 34.71667,
      "name": "EAGLE GAP, AR US",
      "datacoverage": 0.9525,
      "id": "COOP:032204",
      "elevationUnit": "METERS",
      "longitude": -94.31667
    },
    {
      "elevation": 78,
      "mindate": "1931-01-01",
      "maxdate": "2015-11-01",
      "latitude": 33.22072,
      "name": "EL DORADO GOODWIN FIELD, AR US",
      "datacoverage": 0.9676,
      "id": "COOP:032300",
      "elevationUnit": "METERS",
      "longitude": -92.81404
    },
    {
      "elevation": 152.4,
      "mindate": "1939-07-01",
      "maxdate": "1948-02-01",
      "latitude": 36.35,
      "name": "ELEVENPOINT, AR US",
      "datacoverage": 0.8845,
      "id": "COOP:032308",
      "elevationUnit": "METERS",
      "longitude": -91.1
    },
    {
      "elevation": 70.1,
      "mindate": "1931-01-01",
      "maxdate": "1945-04-01",
      "latitude": 34.53333,
      "name": "ENGLAND, AR US",
      "datacoverage": 0.9653,
      "id": "COOP:032336",
      "elevationUnit": "METERS",
      "longitude": -91.96667
    },
    {
      "elevation": 41.1,
      "mindate": "1962-03-01",
      "maxdate": "2015-11-01",
      "latitude": 33.1144,
      "name": "EUDORA, AR US",
      "datacoverage": 0.9891,
      "id": "COOP:032355",
      "elevationUnit": "METERS",
      "longitude": -91.2627
    },
    {
      "elevation": 432.8,
      "mindate": "1902-05-01",
      "maxdate": "2012-09-01",
      "latitude": 36.4163,
      "name": "EUREKA SPRINGS 3 WNW, AR US",
      "datacoverage": 0.981,
      "id": "COOP:032356",
      "elevationUnit": "METERS",
      "longitude": -93.7916
    },
    {
      "elevation": 155.1,
      "mindate": "1939-07-01",
      "maxdate": "2015-11-01",
      "latitude": 36.08085,
      "name": "EVENING SHADE 1 NNE, AR US",
      "datacoverage": 0.9803,
      "id": "COOP:032366",
      "elevationUnit": "METERS",
      "longitude": -91.61323
    },
    {
      "elevation": 670.9,
      "mindate": "2014-01-01",
      "maxdate": "2015-11-01",
      "latitude": 35.7875,
      "name": "FALLSVILLE 1 NNE, AR US",
      "datacoverage": 1,
      "id": "COOP:032400",
      "elevationUnit": "METERS",
      "longitude": -93.4602
    },
    {
      "elevation": 377.1,
      "mindate": "2010-05-01",
      "maxdate": "2015-11-01",
      "latitude": 36.01027,
      "name": "FAYETTEVILLE DRAKE FIELD, AR US",
      "datacoverage": 0.9997,
      "id": "COOP:032420",
      "elevationUnit": "METERS",
      "longitude": -94.16824
    },
    {
      "elevation": 417.9,
      "mindate": "1937-12-01",
      "maxdate": "1960-12-01",
      "latitude": 36.08333,
      "name": "FAYETTEVILLE, AR US",
      "datacoverage": 0.9782,
      "id": "COOP:032442",
      "elevationUnit": "METERS",
      "longitude": -94.16667
    },
    {
      "elevation": 377.1,
      "mindate": "1949-08-01",
      "maxdate": "1982-01-01",
      "latitude": 36.01027,
      "name": "FAYETTEVILLE DRAKE FIELD, AR US",
      "datacoverage": 0.9999,
      "id": "COOP:032443",
      "elevationUnit": "METERS",
      "longitude": -94.16824
    },
    {
      "elevation": 387.1,
      "mindate": "1891-01-01",
      "maxdate": "2015-11-01",
      "latitude": 36.10104,
      "name": "FAYETTEVILLE EXPERIMENTAL STATION, AR US",
      "datacoverage": 0.9453,
      "id": "COOP:032444",
      "elevationUnit": "METERS",
      "longitude": -94.17365
    },
    {
      "elevation": 18.3,
      "mindate": "1998-06-01",
      "maxdate": "2015-11-01",
      "latitude": 33.0597,
      "name": "FELSENTHAL LOCK AND DAM, AR US",
      "datacoverage": 0.9952,
      "id": "COOP:032475",
      "elevationUnit": "METERS",
      "longitude": -92.1236
    },
    {
      "elevation": 150,
      "mindate": "1981-05-01",
      "maxdate": "2014-01-01",
      "latitude": 34.7592,
      "name": "FERNDALE 6 E, AR US",
      "datacoverage": 0.0306,
      "id": "COOP:032489",
      "elevationUnit": "METERS",
      "longitude": -92.45602
    },
    {
      "elevation": 219.2,
      "mindate": "1951-07-01",
      "maxdate": "1961-08-01",
      "latitude": 36.29083,
      "name": "FLIPPIN MARION CO REGIONAL AIRPORT, AR US",
      "datacoverage": 0.9996,
      "id": "COOP:032528",
      "elevationUnit": "METERS",
      "longitude": -92.59
    },
    {
      "elevation": 68.9,
      "mindate": "1936-11-01",
      "maxdate": "2015-11-01",
      "latitude": 33.82276,
      "name": "FORDYCE, AR US",
      "datacoverage": 0.921,
      "id": "COOP:032540",
      "elevationUnit": "METERS",
      "longitude": -92.39906
    },
    {
      "elevation": 128.9,
      "mindate": "1948-05-01",
      "maxdate": "2015-11-01",
      "latitude": 33.7222,
      "name": "FOREMAN, AR US",
      "datacoverage": 0.5012,
      "id": "COOP:032544",
      "elevationUnit": "METERS",
      "longitude": -94.3975
    },
    {
      "elevation": 200.9,
      "mindate": "1941-01-01",
      "maxdate": "1956-03-01",
      "latitude": 34.78333,
      "name": "FORESTER, AR US",
      "datacoverage": 0.9182,
      "id": "COOP:032556",
      "elevationUnit": "METERS",
      "longitude": -93.88333
    },
    {
      "elevation": 228.9,
      "mindate": "1949-08-01",
      "maxdate": "1949-08-01",
      "latitude": 35.46667,
      "name": "FORMOSA, AR US",
      "datacoverage": 0.9819,
      "id": "COOP:032560",
      "elevationUnit": "METERS",
      "longitude": -92.5
    },
    {
      "elevation": 75.9,
      "mindate": "1948-05-03",
      "maxdate": "1979-07-01",
      "latitude": 35.03333,
      "name": "FORREST CITY, AR US",
      "datacoverage": 0.5523,
      "id": "COOP:032564",
      "elevationUnit": "METERS",
      "longitude": -90.8
    },
    {
      "elevation": 136.7,
      "mindate": "1947-01-01",
      "maxdate": "2015-11-01",
      "latitude": 35.33346,
      "name": "FORT SMITH REGIONAL AIRPORT, AR US",
      "datacoverage": 0.9831,
      "id": "COOP:032574",
      "elevationUnit": "METERS",
      "longitude": -94.36526
    },
    {
      "elevation": 241.7,
      "mindate": "1938-09-01",
      "maxdate": "1985-08-01",
      "latitude": 35.6494,
      "name": "MOUNTAINBURG 2 NE, AR US",
      "datacoverage": 0.9893,
      "id": "COOP:032578",
      "elevationUnit": "METERS",
      "longitude": -94.1541
    },
    {
      "elevation": 54.9,
      "mindate": "1947-09-01",
      "maxdate": "1956-03-01",
      "latitude": 33.35,
      "name": "FOUNTAIN HILL, AR US",
      "datacoverage": 0.7476,
      "id": "COOP:032598",
      "elevationUnit": "METERS",
      "longitude": -91.83333
    },
    {
      "elevation": 139.9,
      "mindate": "1967-02-01",
      "maxdate": "1967-03-01",
      "latitude": 34.95,
      "name": "FOURCHE JUNCTION, AR US",
      "datacoverage": 1,
      "id": "COOP:032609",
      "elevationUnit": "METERS",
      "longitude": -93.15
    },
    {
      "elevation": 79.2,
      "mindate": "1931-01-01",
      "maxdate": "2004-05-01",
      "latitude": 33.6128,
      "name": "FULTON, AR US",
      "datacoverage": 0.7231,
      "id": "COOP:032670",
      "elevationUnit": "METERS",
      "longitude": -93.8136
    },
    {
      "elevation": 196.6,
      "mindate": "2003-02-01",
      "maxdate": "2015-11-01",
      "latitude": 36.4812,
      "name": "GAMALIEL 2 NW, AR US",
      "datacoverage": 0.8444,
      "id": "COOP:032700",
      "elevationUnit": "METERS",
      "longitude": -92.2441
    },
    {
      "elevation": 70.1,
      "mindate": "1944-03-01",
      "maxdate": "1950-10-01",
      "latitude": 33.35,
      "name": "GARLAND, AR US",
      "datacoverage": 0.7497,
      "id": "COOP:032710",
      "elevationUnit": "METERS",
      "longitude": -93.7
    },
    {
      "elevation": 121.9,
      "mindate": "2001-07-01",
      "maxdate": "2002-04-01",
      "latitude": 33.37361,
      "name": "GENOA, AR US",
      "datacoverage": 1,
      "id": "COOP:032746",
      "elevationUnit": "METERS",
      "longitude": -93.90694
    },
    {
      "elevation": 61.9,
      "mindate": "1931-01-01",
      "maxdate": "2015-11-01",
      "latitude": 35.12433,
      "name": "GEORGETOWN, AR US",
      "datacoverage": 0.9902,
      "id": "COOP:032760",
      "elevationUnit": "METERS",
      "longitude": -91.45089
    },
    {
      "elevation": 184.7,
      "mindate": "1931-01-01",
      "maxdate": "2015-11-01",
      "latitude": 35.9885,
      "name": "GILBERT, AR US",
      "datacoverage": 0.9804,
      "id": "COOP:032794",
      "elevationUnit": "METERS",
      "longitude": -92.7161
    },
    {
      "elevation": 158.5,
      "mindate": "1966-06-01",
      "maxdate": "2002-03-01",
      "latitude": 34.20556,
      "name": "GILLHAM DAM, AR US",
      "datacoverage": 0.7668,
      "id": "COOP:032810",
      "elevationUnit": "METERS",
      "longitude": -94.24639
    },
    {
      "elevation": 179.8,
      "mindate": "1935-11-01",
      "maxdate": "2015-11-01",
      "latitude": 34.38563,
      "name": "GLENWOOD 4 NNE, AR US",
      "datacoverage": 0.9605,
      "id": "COOP:032842",
      "elevationUnit": "METERS",
      "longitude": -93.51097
    },
    {
      "elevation": 281,
      "mindate": "1931-01-01",
      "maxdate": "1957-04-01",
      "latitude": 34.25,
      "name": "GRANNIS, AR US",
      "datacoverage": 0.9685,
      "id": "COOP:032908",
      "elevationUnit": "METERS",
      "longitude": -94.33333
    },
    {
      "elevation": 143,
      "mindate": "1940-05-01",
      "maxdate": "2015-11-01",
      "latitude": 34.8869,
      "name": "GRAVELLY, AR US",
      "datacoverage": 0.9824,
      "id": "COOP:032922",
      "elevationUnit": "METERS",
      "longitude": -93.6847
    },
    {
      "elevation": 384,
      "mindate": "1916-10-01",
      "maxdate": "2015-11-01",
      "latitude": 36.4261,
      "name": "GRAVETTE, AR US",
      "datacoverage": 0.9841,
      "id": "COOP:032930",
      "elevationUnit": "METERS",
      "longitude": -94.448
    },
    {
      "elevation": 200.9,
      "mindate": "1978-09-01",
      "maxdate": "1978-11-01",
      "latitude": 35.26667,
      "name": "GREENBIER 3 N, AR US",
      "datacoverage": 1,
      "id": "COOP:032940",
      "elevationUnit": "METERS",
      "longitude": -92.38333
    },
    {
      "elevation": 414.5,
      "mindate": "1941-11-01",
      "maxdate": "2006-10-01",
      "latitude": 36.33917,
      "name": "GREEN FOREST, AR US",
      "datacoverage": 0.9692,
      "id": "COOP:032946",
      "elevationUnit": "METERS",
      "longitude": -93.42778
    },
    {
      "elevation": 335.9,
      "mindate": "1937-07-01",
      "maxdate": "1956-02-01",
      "latitude": 36.03333,
      "name": "GREEN MOUNTAIN, AR US",
      "datacoverage": 0.9107,
      "id": "COOP:032952",
      "elevationUnit": "METERS",
      "longitude": -92.2
    },
    {
      "elevation": 103,
      "mindate": "1947-04-01",
      "maxdate": "2004-05-01",
      "latitude": 35.24139,
      "name": "GREENBRIER, AR US",
      "datacoverage": 0.844,
      "id": "COOP:032962",
      "elevationUnit": "METERS",
      "longitude": -92.36361
    },
    {
      "elevation": 157.9,
      "mindate": "1939-10-01",
      "maxdate": "2013-12-01",
      "latitude": 35.2169,
      "name": "GREENWOOD, AR US",
      "datacoverage": 0.9539,
      "id": "COOP:032976",
      "elevationUnit": "METERS",
      "longitude": -94.2597
    },
    {
      "elevation": 160.6,
      "mindate": "1960-10-01",
      "maxdate": "2015-11-01",
      "latitude": 35.5206,
      "name": "GREERS FERRY DAM, AR US",
      "datacoverage": 0.9985,
      "id": "COOP:032978",
      "elevationUnit": "METERS",
      "longitude": -91.9997
    },
    {
      "elevation": 73.2,
      "mindate": "1998-03-01",
      "maxdate": "2014-12-01",
      "latitude": 35.7379,
      "name": "GRUBBS 9 NW, AR US",
      "datacoverage": 0.9205,
      "id": "COOP:033019",
      "elevationUnit": "METERS",
      "longitude": -91.20073
    },
    {
      "elevation": 67.1,
      "mindate": "1948-07-01",
      "maxdate": "1986-07-01",
      "latitude": 33.91667,
      "name": "GURDON, AR US",
      "datacoverage": 0.9694,
      "id": "COOP:033074",
      "elevationUnit": "METERS",
      "longitude": -93.13333
    },
    {
      "elevation": 43.3,
      "mindate": "1985-05-01",
      "maxdate": "1986-09-01",
      "latitude": 33.5,
      "name": "HALLEY, AR US",
      "datacoverage": 0.8226,
      "id": "COOP:033085",
      "elevationUnit": "METERS",
      "longitude": -91.28333
    },
    {
      "elevation": 54.9,
      "mindate": "1956-12-01",
      "maxdate": "2004-01-01",
      "latitude": 33.22778,
      "name": "HAMBURG, AR US",
      "datacoverage": 0.9417,
      "id": "COOP:033088",
      "elevationUnit": "METERS",
      "longitude": -91.79389
    },
    {
      "elevation": 61,
      "mindate": "1947-04-01",
      "maxdate": "1958-12-01",
      "latitude": 33.53333,
      "name": "HAMPTON, AR US",
      "datacoverage": 0.6948,
      "id": "COOP:033098",
      "elevationUnit": "METERS",
      "longitude": -92.46667
    },
    {
      "elevation": 39.6,
      "mindate": "2010-12-01",
      "maxdate": "2012-12-01",
      "latitude": 33.4975,
      "name": "HAMPTON 8 WSW, AR US",
      "datacoverage": 0.9986,
      "id": "COOP:033099",
      "elevationUnit": "METERS",
      "longitude": -92.60361
    },
    {
      "elevation": 61.3,
      "mindate": "1998-09-01",
      "maxdate": "2009-06-01",
      "latitude": 33.53715,
      "name": "HAMPTON, AR US",
      "datacoverage": 0.9541,
      "id": "COOP:033101",
      "elevationUnit": "METERS",
      "longitude": -92.47247
    },
    {
      "elevation": 121.9,
      "mindate": "1948-05-03",
      "maxdate": "2015-11-01",
      "latitude": 36.2747,
      "name": "HARDY, AR US",
      "datacoverage": 0.2917,
      "id": "COOP:033132",
      "elevationUnit": "METERS",
      "longitude": -91.5056
    },
    {
      "elevation": 85,
      "mindate": "1940-03-01",
      "maxdate": "1950-05-01",
      "latitude": 35.56667,
      "name": "HARRISBURG, AR US",
      "datacoverage": 0.9006,
      "id": "COOP:033160",
      "elevationUnit": "METERS",
      "longitude": -90.73333
    },
    {
      "elevation": 345,
      "mindate": "1931-01-01",
      "maxdate": "2015-11-01",
      "latitude": 36.1955,
      "name": "HARRISON, AR US",
      "datacoverage": 0.6703,
      "id": "COOP:033164",
      "elevationUnit": "METERS",
      "longitude": -93.1061
    },
    {
      "elevation": 418,
      "mindate": "1961-09-01",
      "maxdate": "2015-11-01",
      "latitude": 36.26727,
      "name": "HARRISON BOONE CO AIRPORT, AR US",
      "datacoverage": 0.9878,
      "id": "COOP:033165",
      "elevationUnit": "METERS",
      "longitude": -93.15657
    },
    {
      "elevation": 418,
      "mindate": "1948-07-01",
      "maxdate": "1950-09-26",
      "latitude": 36.26727,
      "name": "HARRISON BOONE CO AIRPORT, AR US",
      "datacoverage": 0.9217,
      "id": "COOP:033166",
      "elevationUnit": "METERS",
      "longitude": -93.15657
    },
    {
      "elevation": 103.6,
      "mindate": "1995-07-01",
      "maxdate": "2015-11-01",
      "latitude": 35.33846,
      "name": "HATTIEVILLE 5 NW, AR US",
      "datacoverage": 0.8285,
      "id": "COOP:033200",
      "elevationUnit": "METERS",
      "longitude": -92.84907
    },
    {
      "elevation": 160.6,
      "mindate": "1935-12-01",
      "maxdate": "1960-09-01",
      "latitude": 35.5206,
      "name": "GREERS FERRY DAM, AR US",
      "datacoverage": 0.557,
      "id": "COOP:033228",
      "elevationUnit": "METERS",
      "longitude": -91.9997
    },
    {
      "elevation": 94.5,
      "mindate": "2014-01-01",
      "maxdate": "2015-11-01",
      "latitude": 35.51316,
      "name": "HEBER SPRINGS 2 NE, AR US",
      "datacoverage": 1,
      "id": "COOP:033229",
      "elevationUnit": "METERS",
      "longitude": -91.99552
    },
    {
      "elevation": 267.9,
      "mindate": "1948-05-01",
      "maxdate": "1965-03-01",
      "latitude": 35.46667,
      "name": "HEBER SPRINGS 3 SSW, AR US",
      "datacoverage": 0.7503,
      "id": "COOP:033230",
      "elevationUnit": "METERS",
      "longitude": -92.05
    },
    {
      "elevation": 166.4,
      "mindate": "1948-03-01",
      "maxdate": "1990-02-01",
      "latitude": 35.44194,
      "name": "HECTOR 4 SE, AR US",
      "datacoverage": 0.9334,
      "id": "COOP:033235",
      "elevationUnit": "METERS",
      "longitude": -92.90083
    },
    {
      "elevation": 66.4,
      "mindate": "1931-01-01",
      "maxdate": "2015-11-01",
      "latitude": 34.52093,
      "name": "HELENA, AR US",
      "datacoverage": 0.9755,
      "id": "COOP:033242",
      "elevationUnit": "METERS",
      "longitude": -90.59037
    },
    {
      "elevation": 177.1,
      "mindate": "1941-10-01",
      "maxdate": "1960-07-01",
      "latitude": 36.36667,
      "name": "HENDERSON 2 W, AR US",
      "datacoverage": 0.9469,
      "id": "COOP:033258",
      "elevationUnit": "METERS",
      "longitude": -92.26667
    },
    {
      "elevation": 136.9,
      "mindate": "1931-01-01",
      "maxdate": "1941-07-01",
      "latitude": 35.56667,
      "name": "HIGDEN, AR US",
      "datacoverage": 1,
      "id": "COOP:033326",
      "elevationUnit": "METERS",
      "longitude": -92.2
    },
    {
      "elevation": 182.9,
      "mindate": "1931-01-01",
      "maxdate": "1944-02-01",
      "latitude": 34.03333,
      "name": "HIGHLAND, AR US",
      "datacoverage": 0.9876,
      "id": "COOP:033340",
      "elevationUnit": "METERS",
      "longitude": -93.76667
    },
    {
      "elevation": 70.1,
      "mindate": "1947-01-01",
      "maxdate": "1947-10-01",
      "latitude": 35.13333,
      "name": "HILLEMAN, AR US",
      "datacoverage": 0.801,
      "id": "COOP:033354",
      "elevationUnit": "METERS",
      "longitude": -91.08333
    },
    {
      "elevation": 456.3,
      "mindate": "2006-05-01",
      "maxdate": "2009-01-01",
      "latitude": 36.18528,
      "name": "HINDSVILLE 10 E, AR US",
      "datacoverage": 0.9975,
      "id": "COOP:033360",
      "elevationUnit": "METERS",
      "longitude": -93.68667
    },
    {
      "elevation": 435.9,
      "mindate": "2006-05-01",
      "maxdate": "2015-11-01",
      "latitude": 36.2769,
      "name": "HINDSVILLE 10 NNE, AR US",
      "datacoverage": 0.9303,
      "id": "COOP:033361",
      "elevationUnit": "METERS",
      "longitude": -93.8213
    },
    {
      "elevation": 114.3,
      "mindate": "1931-01-01",
      "maxdate": "2015-11-01",
      "latitude": 33.7092,
      "name": "HOPE 3 NE, AR US",
      "datacoverage": 0.9961,
      "id": "COOP:033428",
      "elevationUnit": "METERS",
      "longitude": -93.5563
    },
    {
      "elevation": 219.5,
      "mindate": "1948-07-01",
      "maxdate": "2015-11-01",
      "latitude": 34.3608,
      "name": "HOPPER, AR US",
      "datacoverage": 0.9592,
      "id": "COOP:033438",
      "elevationUnit": "METERS",
      "longitude": -93.6816
    },
    {
      "elevation": 102.7,
      "mindate": "1946-03-01",
      "maxdate": "2013-12-01",
      "latitude": 33.9354,
      "name": "HORATIO, AR US",
      "datacoverage": 0.9655,
      "id": "COOP:033442",
      "elevationUnit": "METERS",
      "longitude": -94.3598
    },
    {
      "elevation": 190.8,
      "mindate": "1931-01-01",
      "maxdate": "2015-11-01",
      "latitude": 34.5129,
      "name": "HOT SPRINGS 1 NNE, AR US",
      "datacoverage": 0.9873,
      "id": "COOP:033466",
      "elevationUnit": "METERS",
      "longitude": -93.0487
    },
    {
      "elevation": 154,
      "mindate": "2009-11-01",
      "maxdate": "2015-11-01",
      "latitude": 34.47551,
      "name": "HOT SPRINGS ASOS, AR US",
      "datacoverage": 1,
      "id": "COOP:033470",
      "elevationUnit": "METERS",
      "longitude": -93.10413
    },
    {
      "mindate": "1947-08-01",
      "maxdate": "1948-05-01",
      "latitude": 35,
      "name": "HOUSTON, AR US",
      "datacoverage": 0.998,
      "id": "COOP:033472",
      "longitude": -92.73333
    },
    {
      "elevation": 442,
      "mindate": "1940-01-01",
      "maxdate": "1984-03-01",
      "latitude": 36.08333,
      "name": "HUNTSVILLE, AR US",
      "datacoverage": 0.7564,
      "id": "COOP:033540",
      "elevationUnit": "METERS",
      "longitude": -93.73333
    },
    {
      "elevation": 543.5,
      "mindate": "1983-05-01",
      "maxdate": "2012-10-01",
      "latitude": 36.07,
      "name": "HUNTSVILLE 1 SSW, AR US",
      "datacoverage": 0.994,
      "id": "COOP:033544",
      "elevationUnit": "METERS",
      "longitude": -93.7522
    },
    {
      "elevation": 18,
      "mindate": "1941-01-01",
      "maxdate": "1977-06-01",
      "latitude": 33.03333,
      "name": "HUTTIG LOCK AND DAM, AR US",
      "datacoverage": 0.951,
      "id": "COOP:033556",
      "elevationUnit": "METERS",
      "longitude": -92.08333
    },
    {
      "elevation": 415.1,
      "mindate": "1947-09-01",
      "maxdate": "1949-11-01",
      "latitude": 35.86667,
      "name": "ICELEDO, AR US",
      "datacoverage": 0.4814,
      "id": "COOP:033570",
      "elevationUnit": "METERS",
      "longitude": -92.98333
    },
    {
      "elevation": 92,
      "mindate": "1931-01-01",
      "maxdate": "1968-10-01",
      "latitude": 33.58333,
      "name": "INDEX, AR US",
      "datacoverage": 0.9713,
      "id": "COOP:033584",
      "elevationUnit": "METERS",
      "longitude": -94.05
    },
    {
      "elevation": 269.7,
      "mindate": "1947-07-01",
      "maxdate": "2015-11-01",
      "latitude": 36.00559,
      "name": "JASPER, AR US",
      "datacoverage": 0.9768,
      "id": "COOP:033600",
      "elevationUnit": "METERS",
      "longitude": -93.18775
    },
    {
      "elevation": 246,
      "mindate": "1931-01-01",
      "maxdate": "2015-11-01",
      "latitude": 34.672,
      "name": "JESSIEVILLE, AR US",
      "datacoverage": 0.9088,
      "id": "COOP:033704",
      "elevationUnit": "METERS",
      "longitude": -93.0748
    },
    {
      "elevation": 78.6,
      "mindate": "1931-01-01",
      "maxdate": "2015-11-01",
      "latitude": 35.82436,
      "name": "JONESBORO 3 SSE, AR US",
      "datacoverage": 0.9873,
      "id": "COOP:033734",
      "elevationUnit": "METERS",
      "longitude": -90.65499
    },
    {
      "elevation": 165.2,
      "mindate": "2014-01-01",
      "maxdate": "2015-11-01",
      "latitude": 36.2705,
      "name": "JORDAN 3 NNW, AR US",
      "datacoverage": 1,
      "id": "COOP:033740",
      "elevationUnit": "METERS",
      "longitude": -92.1921
    },
    {
      "elevation": 65.5,
      "mindate": "1973-09-01",
      "maxdate": "1985-04-01",
      "latitude": 35.6,
      "name": "JUDD HILL, AR US",
      "datacoverage": 0.8574,
      "id": "COOP:033761",
      "elevationUnit": "METERS",
      "longitude": -90.51667
    },
    {
      "elevation": 68,
      "mindate": "1959-05-01",
      "maxdate": "2015-11-01",
      "latitude": 35.67432,
      "name": "KEISER, AR US",
      "datacoverage": 0.997,
      "id": "COOP:033821",
      "elevationUnit": "METERS",
      "longitude": -90.08416
    },
    {
      "elevation": 44.2,
      "mindate": "1985-05-01",
      "maxdate": "2015-11-01",
      "latitude": 33.7701,
      "name": "KELSO, AR US",
      "datacoverage": 0.9727,
      "id": "COOP:033831",
      "elevationUnit": "METERS",
      "longitude": -91.27295
    },
    {
      "elevation": 70.4,
      "mindate": "1947-08-01",
      "maxdate": "2015-11-01",
      "latitude": 34.6033,
      "name": "KEO, AR US",
      "datacoverage": 0.9915,
      "id": "COOP:033862",
      "elevationUnit": "METERS",
      "longitude": -91.9927
    },
    {
      "elevation": 88.1,
      "mindate": "1948-05-03",
      "maxdate": "1973-10-01",
      "latitude": 33.83333,
      "name": "KINGSLAND 3 SSE, AR US",
      "datacoverage": 0.7334,
      "id": "COOP:033904",
      "elevationUnit": "METERS",
      "longitude": -92.26667
    },
    {
      "elevation": 653.8,
      "mindate": "2006-05-01",
      "maxdate": "2015-11-01",
      "latitude": 36.0086,
      "name": "KINGSTON 2 S, AR US",
      "datacoverage": 0.9911,
      "id": "COOP:033909",
      "elevationUnit": "METERS",
      "longitude": -93.5205
    },
    {
      "elevation": 408.4,
      "mindate": "2006-04-01",
      "maxdate": "2015-11-01",
      "latitude": 36.1197,
      "name": "KINGSTON 5 NW, AR US",
      "datacoverage": 0.9051,
      "id": "COOP:033910",
      "elevationUnit": "METERS",
      "longitude": -93.5772
    },
    {
      "elevation": 86.9,
      "mindate": "2007-02-01",
      "maxdate": "2008-02-01",
      "latitude": 36.3425,
      "name": "KNOBEL 5 NE, AR US",
      "datacoverage": 1,
      "id": "COOP:033930",
      "elevationUnit": "METERS",
      "longitude": -90.51861
    },
    {
      "elevation": 70.1,
      "mindate": "1940-03-01",
      "maxdate": "1997-02-01",
      "latitude": 35.8,
      "name": "LAKE CITY, AR US",
      "datacoverage": 0.8962,
      "id": "COOP:033998",
      "elevationUnit": "METERS",
      "longitude": -90.45
    },
    {
      "elevation": 335.9,
      "mindate": "1948-05-01",
      "maxdate": "1949-08-01",
      "latitude": 36.45,
      "name": "LAKE LEATHERWOOD, AR US",
      "datacoverage": 0.0027,
      "id": "COOP:034006",
      "elevationUnit": "METERS",
      "longitude": -93.76667
    },
    {
      "elevation": 93,
      "mindate": "1957-01-01",
      "maxdate": "2015-11-01",
      "latitude": 34.8511,
      "name": "LAKE MAUMELLE, AR US",
      "datacoverage": 0.9336,
      "id": "COOP:034010",
      "elevationUnit": "METERS",
      "longitude": -92.4889
    },
    {
      "elevation": 51.8,
      "mindate": "2001-11-01",
      "maxdate": "2005-02-01",
      "latitude": 34.41639,
      "name": "LAKE VIEW, AR US",
      "datacoverage": 0.9512,
      "id": "COOP:034015",
      "elevationUnit": "METERS",
      "longitude": -90.79861
    },
    {
      "elevation": 167.9,
      "mindate": "1953-11-01",
      "maxdate": "1961-11-22",
      "latitude": 35.43333,
      "name": "LAMAR, AR US",
      "datacoverage": 0.0491,
      "id": "COOP:034019",
      "elevationUnit": "METERS",
      "longitude": -93.41667
    },
    {
      "elevation": 231.6,
      "mindate": "1947-09-01",
      "maxdate": "2015-11-01",
      "latitude": 34.31187,
      "name": "LANGLEY, AR US",
      "datacoverage": 0.9072,
      "id": "COOP:034060",
      "elevationUnit": "METERS",
      "longitude": -93.84397
    },
    {
      "elevation": 253,
      "mindate": "1931-01-01",
      "maxdate": "2015-11-01",
      "latitude": 36.4194,
      "name": "LEAD HILL, AR US",
      "datacoverage": 0.9843,
      "id": "COOP:034106",
      "elevationUnit": "METERS",
      "longitude": -92.9158
    },
    {
      "elevation": 305.1,
      "mindate": "1946-08-01",
      "maxdate": "1962-12-01",
      "latitude": 35.7,
      "name": "LEE CREEK GUARD STATION, AR US",
      "datacoverage": 0.9034,
      "id": "COOP:034116",
      "elevationUnit": "METERS",
      "longitude": -94.31667
    }
  ]
}
