{
  "metadata": {
    "resultset": {
      "offset": 43200,
      "count": 154115,
      "limit": 100
    }
  },
  "results": [
    {
      "elevation": 480,
      "mindate": "1946-07-01",
      "maxdate": "1969-10-30",
      "latitude": -23.05,
      "name": "CHACARA SAO PEDRO0E4 057, BR",
      "datacoverage": 0.7606,
      "id": "GHCND:BR00E4-0570",
      "elevationUnit": "METERS",
      "longitude": -47.82
    },
    {
      "elevation": 680,
      "mindate": "1946-06-01",
      "maxdate": "1997-12-31",
      "latitude": -23.93,
      "name": "JUQUITIBA, BR",
      "datacoverage": 0.9579,
      "id": "GHCND:BR00E4-0590",
      "elevationUnit": "METERS",
      "longitude": -47.07
    },
    {
      "elevation": 820,
      "mindate": "1956-01-01",
      "maxdate": "1968-12-31",
      "latitude": -23.72,
      "name": "PIEDADE 0E4 060, BR",
      "datacoverage": 0.9231,
      "id": "GHCND:BR00E4-0600",
      "elevationUnit": "METERS",
      "longitude": -47.42
    },
    {
      "elevation": 550,
      "mindate": "1949-09-01",
      "maxdate": "1964-12-30",
      "latitude": -23.27,
      "name": "ITU0E4 061, BR",
      "datacoverage": 0.9673,
      "id": "GHCND:BR00E4-0610",
      "elevationUnit": "METERS",
      "longitude": -47.28
    },
    {
      "elevation": 690,
      "mindate": "1963-05-01",
      "maxdate": "1997-12-31",
      "latitude": -23.08,
      "name": "FAZENDA BURITI, BR",
      "datacoverage": 0.9806,
      "id": "GHCND:BR00E4-0620",
      "elevationUnit": "METERS",
      "longitude": -47.05
    },
    {
      "elevation": 550,
      "mindate": "1966-01-01",
      "maxdate": "1973-05-31",
      "latitude": -23.27,
      "name": "ITU EFS E4 064, BR",
      "datacoverage": 0.9441,
      "id": "GHCND:BR00E4-0640",
      "elevationUnit": "METERS",
      "longitude": -47.3
    },
    {
      "elevation": 920,
      "mindate": "1966-06-01",
      "maxdate": "1996-04-30",
      "latitude": -23.55,
      "name": "MAILASKI, BR",
      "datacoverage": 1,
      "id": "GHCND:BR00E4-0990",
      "elevationUnit": "METERS",
      "longitude": -47.08
    },
    {
      "elevation": 600,
      "mindate": "1966-06-01",
      "maxdate": "1997-10-31",
      "latitude": -23.45,
      "name": "GEORGE OETTERER, BR",
      "datacoverage": 0.9993,
      "id": "GHCND:BR00E4-1010",
      "elevationUnit": "METERS",
      "longitude": -47.57
    },
    {
      "elevation": 660,
      "mindate": "1969-09-01",
      "maxdate": "1997-12-31",
      "latitude": -23.95,
      "name": "CACHOEIRA DO FRANCA, BR",
      "datacoverage": 0.9993,
      "id": "GHCND:BR00E4-1160",
      "elevationUnit": "METERS",
      "longitude": -47.22
    },
    {
      "elevation": 580,
      "mindate": "1970-06-01",
      "maxdate": "1995-12-31",
      "latitude": -23.55,
      "name": "PORTO, BR",
      "datacoverage": 0.9993,
      "id": "GHCND:BR00E4-1170",
      "elevationUnit": "METERS",
      "longitude": -47.77
    },
    {
      "elevation": 540,
      "mindate": "1970-05-01",
      "maxdate": "1997-12-31",
      "latitude": -23.2,
      "name": "PORTO FELIZ, BR",
      "datacoverage": 0.9999,
      "id": "GHCND:BR00E4-1180",
      "elevationUnit": "METERS",
      "longitude": -47.52
    },
    {
      "elevation": 660,
      "mindate": "1970-06-01",
      "maxdate": "1997-12-31",
      "latitude": -23.1,
      "name": "SAMAMBAIA, BR",
      "datacoverage": 1,
      "id": "GHCND:BR00E4-1190",
      "elevationUnit": "METERS",
      "longitude": -47.42
    },
    {
      "elevation": 520,
      "mindate": "1970-06-01",
      "maxdate": "1997-12-31",
      "latitude": -23.23,
      "name": "USINA SANTA ROSA IAA, BR",
      "datacoverage": 0.9999,
      "id": "GHCND:BR00E4-1210",
      "elevationUnit": "METERS",
      "longitude": -47.62
    },
    {
      "elevation": 600,
      "mindate": "1970-06-01",
      "maxdate": "1997-12-31",
      "latitude": -23.3,
      "name": "BAIRRO BANANAL, BR",
      "datacoverage": 0.9969,
      "id": "GHCND:BR00E4-1220",
      "elevationUnit": "METERS",
      "longitude": -47.53
    },
    {
      "elevation": 661,
      "mindate": "1951-01-20",
      "maxdate": "2025-03-06",
      "latitude": -23,
      "name": "CAMPINAS AEROPORTO, BR",
      "datacoverage": 0.9993,
      "id": "GHCND:BR00E4-1230",
      "elevationUnit": "METERS",
      "longitude": -47.133
    },
    {
      "elevation": 900,
      "mindate": "1970-08-01",
      "maxdate": "1997-12-31",
      "latitude": -23.58,
      "name": "CARAFA, BR",
      "datacoverage": 0.9786,
      "id": "GHCND:BR00E4-1250",
      "elevationUnit": "METERS",
      "longitude": -47.32
    },
    {
      "elevation": 620,
      "mindate": "1970-10-01",
      "maxdate": "1997-12-31",
      "latitude": -23.53,
      "name": "COLONIA, BR",
      "datacoverage": 0.9999,
      "id": "GHCND:BR00E4-1260",
      "elevationUnit": "METERS",
      "longitude": -47.65
    },
    {
      "elevation": 500,
      "mindate": "1971-06-01",
      "maxdate": "1997-12-31",
      "latitude": -23.2,
      "name": "SALTO, BR",
      "datacoverage": 0.9842,
      "id": "GHCND:BR00E4-1270",
      "elevationUnit": "METERS",
      "longitude": -47.3
    },
    {
      "elevation": 700,
      "mindate": "1971-06-01",
      "maxdate": "1997-12-31",
      "latitude": -23.43,
      "name": "ARACARIGUAMA 0E4 129, BR",
      "datacoverage": 0.9936,
      "id": "GHCND:BR00E4-1290",
      "elevationUnit": "METERS",
      "longitude": -47.07
    },
    {
      "elevation": 960,
      "mindate": "1971-06-01",
      "maxdate": "1997-12-31",
      "latitude": -23.75,
      "name": "SITIO FRUTOLANDIA, BR",
      "datacoverage": 0.9999,
      "id": "GHCND:BR00E4-1300",
      "elevationUnit": "METERS",
      "longitude": -47.48
    },
    {
      "elevation": 950,
      "mindate": "1972-11-01",
      "maxdate": "1997-12-31",
      "latitude": -23.72,
      "name": "MATO DO GADO, BR",
      "datacoverage": 0.9967,
      "id": "GHCND:BR00E4-1310",
      "elevationUnit": "METERS",
      "longitude": -47.12
    },
    {
      "elevation": 920,
      "mindate": "1972-08-01",
      "maxdate": "1997-12-31",
      "latitude": -23.85,
      "name": "BAIRRO RIBEIRAO BONITO, BR",
      "datacoverage": 0.9999,
      "id": "GHCND:BR00E4-1320",
      "elevationUnit": "METERS",
      "longitude": -47.45
    },
    {
      "elevation": 890,
      "mindate": "1972-09-01",
      "maxdate": "1997-12-31",
      "latitude": -23.93,
      "name": "FAZENDA MOQUEM, BR",
      "datacoverage": 1,
      "id": "GHCND:BR00E4-1330",
      "elevationUnit": "METERS",
      "longitude": -47.72
    },
    {
      "elevation": 730,
      "mindate": "1972-08-01",
      "maxdate": "1997-12-31",
      "latitude": -23.73,
      "name": "SANTA CRUZ DOS MOTAS, BR",
      "datacoverage": 0.9999,
      "id": "GHCND:BR00E4-1340",
      "elevationUnit": "METERS",
      "longitude": -47.93
    },
    {
      "elevation": 680,
      "mindate": "1972-09-01",
      "maxdate": "1997-12-31",
      "latitude": -23.48,
      "name": "MORRO DO ALTO, BR",
      "datacoverage": 1,
      "id": "GHCND:BR00E4-1350",
      "elevationUnit": "METERS",
      "longitude": -47.95
    },
    {
      "elevation": 620,
      "mindate": "1973-01-01",
      "maxdate": "1997-12-31",
      "latitude": -23.7,
      "name": "COCAIS, BR",
      "datacoverage": 1,
      "id": "GHCND:BR00E4-1370",
      "elevationUnit": "METERS",
      "longitude": -47.73
    },
    {
      "elevation": 850,
      "mindate": "1972-08-01",
      "maxdate": "1997-12-31",
      "latitude": -23.75,
      "name": "PIAI, BR",
      "datacoverage": 0.9639,
      "id": "GHCND:BR00E4-1380",
      "elevationUnit": "METERS",
      "longitude": -47.22
    },
    {
      "elevation": 690,
      "mindate": "1981-11-01",
      "maxdate": "1997-12-31",
      "latitude": -23.98,
      "name": "ROSAS, BR",
      "datacoverage": 0.9948,
      "id": "GHCND:BR00E4-1390",
      "elevationUnit": "METERS",
      "longitude": -47
    },
    {
      "elevation": 500,
      "mindate": "1956-12-01",
      "maxdate": "1997-12-31",
      "latitude": -23,
      "name": "CONCHAS, BR",
      "datacoverage": 1,
      "id": "GHCND:BR00E5-0010",
      "elevationUnit": "METERS",
      "longitude": -48.02
    },
    {
      "elevation": 620,
      "mindate": "1954-10-01",
      "maxdate": "1965-09-30",
      "latitude": -23.88,
      "name": "BAIRRO TURVO DOS HILARIOS DER, BR",
      "datacoverage": 0.9993,
      "id": "GHCND:BR00E5-0020",
      "elevationUnit": "METERS",
      "longitude": -48.15
    },
    {
      "elevation": 700,
      "mindate": "1936-11-01",
      "maxdate": "1969-05-30",
      "latitude": -24,
      "name": "CAPAO BONITO E5 003, BR",
      "datacoverage": 0.8927,
      "id": "GHCND:BR00E5-0030",
      "elevationUnit": "METERS",
      "longitude": -48.35
    },
    {
      "elevation": 660,
      "mindate": "1936-11-01",
      "maxdate": "1970-02-28",
      "latitude": -23.85,
      "name": "RONDINHA EFS E5 004, BR",
      "datacoverage": 0.9727,
      "id": "GHCND:BR00E5-0040",
      "elevationUnit": "METERS",
      "longitude": -48.7
    },
    {
      "elevation": 530,
      "mindate": "1941-07-01",
      "maxdate": "1950-11-30",
      "latitude": -23.17,
      "name": "PORANGABA PREFEITURA, BR",
      "datacoverage": 0.991,
      "id": "GHCND:BR00E5-0060",
      "elevationUnit": "METERS",
      "longitude": -48.12
    },
    {
      "elevation": 670,
      "mindate": "1954-09-01",
      "maxdate": "1997-01-31",
      "latitude": -23.55,
      "name": "BOM RETIRO, BR",
      "datacoverage": 0.9993,
      "id": "GHCND:BR00E5-0070",
      "elevationUnit": "METERS",
      "longitude": -48.3
    },
    {
      "elevation": 780,
      "mindate": "1936-01-01",
      "maxdate": "1959-04-30",
      "latitude": -23.05,
      "name": "AVARE IRM, BR",
      "datacoverage": 0.9502,
      "id": "GHCND:BR00E5-0080",
      "elevationUnit": "METERS",
      "longitude": -48.9
    },
    {
      "elevation": 655,
      "mindate": "1936-01-01",
      "maxdate": "1961-08-31",
      "latitude": -23.97,
      "name": "ITAPEVA 277, BR",
      "datacoverage": 0.9675,
      "id": "GHCND:BR00E5-0090",
      "elevationUnit": "METERS",
      "longitude": -48.87
    },
    {
      "elevation": 0,
      "mindate": "1957-05-01",
      "maxdate": "1966-12-31",
      "latitude": -23.47,
      "name": "SITIO DA SAUDADE E5 011, BR",
      "datacoverage": 0.9393,
      "id": "GHCND:BR00E5-0110",
      "elevationUnit": "METERS",
      "longitude": -48
    },
    {
      "elevation": 760,
      "mindate": "1939-10-01",
      "maxdate": "1972-05-31",
      "latitude": -23.1,
      "name": "ITATINGA E5 013, BR",
      "datacoverage": 0.9642,
      "id": "GHCND:BR00E5-0130",
      "elevationUnit": "METERS",
      "longitude": -48.62
    },
    {
      "elevation": 793,
      "mindate": "1939-07-01",
      "maxdate": "2000-08-28",
      "latitude": -23.1,
      "name": "AVARE, BR",
      "datacoverage": 0.9971,
      "id": "GHCND:BR00E5-0140",
      "elevationUnit": "METERS",
      "longitude": -48.917
    },
    {
      "elevation": 650,
      "mindate": "1939-08-01",
      "maxdate": "1997-12-31",
      "latitude": -23.58,
      "name": "ITAPETININGA, BR",
      "datacoverage": 0.9914,
      "id": "GHCND:BR00E5-0150",
      "elevationUnit": "METERS",
      "longitude": -48.05
    },
    {
      "elevation": 580,
      "mindate": "1958-01-01",
      "maxdate": "1997-12-31",
      "latitude": -23.1,
      "name": "BOFETE, BR",
      "datacoverage": 0.8896,
      "id": "GHCND:BR00E5-0160",
      "elevationUnit": "METERS",
      "longitude": -48.25
    },
    {
      "elevation": 630,
      "mindate": "1939-09-01",
      "maxdate": "1997-12-31",
      "latitude": -23.48,
      "name": "ANGATUBA, BR",
      "datacoverage": 0.9728,
      "id": "GHCND:BR00E5-0170",
      "elevationUnit": "METERS",
      "longitude": -48.42
    },
    {
      "elevation": 590,
      "mindate": "1939-10-01",
      "maxdate": "1997-12-31",
      "latitude": -23.6,
      "name": "ENGENHEIRO HERMILO, BR",
      "datacoverage": 0.9184,
      "id": "GHCND:BR00E5-0180",
      "elevationUnit": "METERS",
      "longitude": -48.45
    },
    {
      "elevation": 580,
      "mindate": "1939-10-01",
      "maxdate": "1997-12-31",
      "latitude": -23.45,
      "name": "FAZENDA ATERRADINHO, BR",
      "datacoverage": 0.9985,
      "id": "GHCND:BR00E5-0190",
      "elevationUnit": "METERS",
      "longitude": -48.58
    },
    {
      "elevation": 720,
      "mindate": "1941-04-01",
      "maxdate": "1947-12-31",
      "latitude": -23.6,
      "name": "FAZENDA CRUZEIRO DO SUL E5 020, BR",
      "datacoverage": 0.9384,
      "id": "GHCND:BR00E5-0200",
      "elevationUnit": "METERS",
      "longitude": -48.83
    },
    {
      "elevation": 0,
      "mindate": "1941-02-01",
      "maxdate": "1953-09-30",
      "latitude": -23.38,
      "name": "PARANAPANEMA PREF., BR",
      "datacoverage": 0.9411,
      "id": "GHCND:BR00E5-0210",
      "elevationUnit": "METERS",
      "longitude": -48.7
    },
    {
      "elevation": 600,
      "mindate": "1939-11-01",
      "maxdate": "1971-08-31",
      "latitude": -23.72,
      "name": "ARACACU EFS E5 022, BR",
      "datacoverage": 0.8796,
      "id": "GHCND:BR00E5-0220",
      "elevationUnit": "METERS",
      "longitude": -48.48
    },
    {
      "elevation": 620,
      "mindate": "1939-12-01",
      "maxdate": "1997-12-31",
      "latitude": -23.3,
      "name": "QUADRA, BR",
      "datacoverage": 0.934,
      "id": "GHCND:BR00E5-0230",
      "elevationUnit": "METERS",
      "longitude": -48.05
    },
    {
      "elevation": 596,
      "mindate": "1937-01-01",
      "maxdate": "1954-09-30",
      "latitude": -23,
      "name": "AVARE ACCO E5 026, BR",
      "datacoverage": 0.8176,
      "id": "GHCND:BR00E5-0260",
      "elevationUnit": "METERS",
      "longitude": -48
    },
    {
      "elevation": 660,
      "mindate": "1958-08-01",
      "maxdate": "1997-12-31",
      "latitude": -23.52,
      "name": "FAZENDA BEM VINDA, BR",
      "datacoverage": 0.9978,
      "id": "GHCND:BR00E5-0300",
      "elevationUnit": "METERS",
      "longitude": -48.55
    },
    {
      "elevation": 680,
      "mindate": "1947-01-01",
      "maxdate": "1997-12-31",
      "latitude": -23.77,
      "name": "GRAMADINHO, BR",
      "datacoverage": 0.8072,
      "id": "GHCND:BR00E5-0340",
      "elevationUnit": "METERS",
      "longitude": -48.13
    },
    {
      "elevation": 610,
      "mindate": "1966-09-01",
      "maxdate": "1997-12-31",
      "latitude": -23.6,
      "name": "RECHA, BR",
      "datacoverage": 0.9893,
      "id": "GHCND:BR00E5-0350",
      "elevationUnit": "METERS",
      "longitude": -48.32
    },
    {
      "elevation": 647,
      "mindate": "1945-01-01",
      "maxdate": "1970-04-30",
      "latitude": -23.95,
      "name": "ITAPEVA, BR",
      "datacoverage": 0.833,
      "id": "GHCND:BR00E5-0400",
      "elevationUnit": "METERS",
      "longitude": -48.883
    },
    {
      "elevation": 780,
      "mindate": "1966-11-01",
      "maxdate": "1973-05-31",
      "latitude": -23.08,
      "name": "ITATINGA E5 041, BR",
      "datacoverage": 0.9369,
      "id": "GHCND:BR00E5-0410",
      "elevationUnit": "METERS",
      "longitude": -48.63
    },
    {
      "elevation": 750,
      "mindate": "1946-01-01",
      "maxdate": "1970-08-30",
      "latitude": -23.12,
      "name": "AVARE EFS E5 044, BR",
      "datacoverage": 0.9561,
      "id": "GHCND:BR00E5-0440",
      "elevationUnit": "METERS",
      "longitude": -48.93
    },
    {
      "elevation": 620,
      "mindate": "1946-12-01",
      "maxdate": "1997-12-31",
      "latitude": -23.97,
      "name": "ITAPEVA, BR",
      "datacoverage": 0.9934,
      "id": "GHCND:BR00E5-0450",
      "elevationUnit": "METERS",
      "longitude": -48.95
    },
    {
      "elevation": 660,
      "mindate": "1947-01-01",
      "maxdate": "1996-10-10",
      "latitude": -23.92,
      "name": "TAQUARI VAI, BR",
      "datacoverage": 0.9916,
      "id": "GHCND:BR00E5-0460",
      "elevationUnit": "METERS",
      "longitude": -48.7
    },
    {
      "elevation": 620,
      "mindate": "1947-08-01",
      "maxdate": "1997-07-31",
      "latitude": -23.95,
      "name": "FERREIRA DAS ALMAS, BR",
      "datacoverage": 0.98,
      "id": "GHCND:BR00E5-0470",
      "elevationUnit": "METERS",
      "longitude": -48.22
    },
    {
      "elevation": 610,
      "mindate": "1947-11-01",
      "maxdate": "1971-10-30",
      "latitude": -23.63,
      "name": "PORTO VELHO E5 048, BR",
      "datacoverage": 0.9722,
      "id": "GHCND:BR00E5-0480",
      "elevationUnit": "METERS",
      "longitude": -48.12
    },
    {
      "elevation": 580,
      "mindate": "1951-09-01",
      "maxdate": "1997-12-31",
      "latitude": -23.8,
      "name": "BURI, BR",
      "datacoverage": 0.9982,
      "id": "GHCND:BR00E5-0510",
      "elevationUnit": "METERS",
      "longitude": -48.58
    },
    {
      "elevation": 720,
      "mindate": "1950-01-01",
      "maxdate": "1972-10-30",
      "latitude": -24,
      "name": "CAPAO BONITO IA E5 052, BR",
      "datacoverage": 1,
      "id": "GHCND:BR00E5-0520",
      "elevationUnit": "METERS",
      "longitude": -48.37
    },
    {
      "elevation": 640,
      "mindate": "1970-07-01",
      "maxdate": "1997-12-31",
      "latitude": -23.4,
      "name": "BAIRRO DO CAPIM, BR",
      "datacoverage": 0.9998,
      "id": "GHCND:BR00E5-0580",
      "elevationUnit": "METERS",
      "longitude": -48.48
    },
    {
      "elevation": 880,
      "mindate": "1970-05-01",
      "maxdate": "1997-12-31",
      "latitude": -23.08,
      "name": "PARDINHO, BR",
      "datacoverage": 0.9968,
      "id": "GHCND:BR00E5-0600",
      "elevationUnit": "METERS",
      "longitude": -48.38
    },
    {
      "elevation": 620,
      "mindate": "1970-06-01",
      "maxdate": "1997-12-31",
      "latitude": -23.38,
      "name": "PARANAPANEMA, BR",
      "datacoverage": 0.9999,
      "id": "GHCND:BR00E5-0610",
      "elevationUnit": "METERS",
      "longitude": -48.73
    },
    {
      "elevation": 640,
      "mindate": "1970-09-01",
      "maxdate": "1997-12-31",
      "latitude": -23.38,
      "name": "CAMPO DO PAIOL, BR",
      "datacoverage": 0.9999,
      "id": "GHCND:BR00E5-0620",
      "elevationUnit": "METERS",
      "longitude": -48.03
    },
    {
      "elevation": 520,
      "mindate": "1970-08-01",
      "maxdate": "1997-12-31",
      "latitude": -23.18,
      "name": "PORANGABA, BR",
      "datacoverage": 0.9877,
      "id": "GHCND:BR00E5-0630",
      "elevationUnit": "METERS",
      "longitude": -48.12
    },
    {
      "elevation": 610,
      "mindate": "1971-03-01",
      "maxdate": "1995-03-31",
      "latitude": -23.43,
      "name": "HOLAMBRA, BR",
      "datacoverage": 0.993,
      "id": "GHCND:BR00E5-0650",
      "elevationUnit": "METERS",
      "longitude": -48.88
    },
    {
      "elevation": 610,
      "mindate": "1970-05-01",
      "maxdate": "1997-12-31",
      "latitude": -23.78,
      "name": "FAZENDA SAO JOSE DO BOM RETIRO, BR",
      "datacoverage": 0.9968,
      "id": "GHCND:BR00E5-0660",
      "elevationUnit": "METERS",
      "longitude": -48.35
    },
    {
      "elevation": 740,
      "mindate": "1970-07-01",
      "maxdate": "1997-12-31",
      "latitude": -23.63,
      "name": "CRUZEIRINHO E5 067, BR",
      "datacoverage": 0.9998,
      "id": "GHCND:BR00E5-0670",
      "elevationUnit": "METERS",
      "longitude": -48.83
    },
    {
      "elevation": 580,
      "mindate": "1971-05-01",
      "maxdate": "1997-11-30",
      "latitude": -23.3,
      "name": "SERRINHA, BR",
      "datacoverage": 0.9999,
      "id": "GHCND:BR00E5-0680",
      "elevationUnit": "METERS",
      "longitude": -48.88
    },
    {
      "elevation": 690,
      "mindate": "1945-02-01",
      "maxdate": "1997-12-31",
      "latitude": -23.47,
      "name": "SERVICO SOCIAL DE MENORES, BR",
      "datacoverage": 0.9969,
      "id": "GHCND:BR00E5-0690",
      "elevationUnit": "METERS",
      "longitude": -48.05
    },
    {
      "elevation": 680,
      "mindate": "1972-09-01",
      "maxdate": "1997-12-31",
      "latitude": -23.27,
      "name": "FAZENDA ENTRE RIOS, BR",
      "datacoverage": 0.9901,
      "id": "GHCND:BR00E5-0700",
      "elevationUnit": "METERS",
      "longitude": -48.43
    },
    {
      "elevation": 720,
      "mindate": "1972-11-01",
      "maxdate": "1997-12-31",
      "latitude": -23.95,
      "name": "FAZENDA BOA ESPERANCA, BR",
      "datacoverage": 1,
      "id": "GHCND:BR00E5-0710",
      "elevationUnit": "METERS",
      "longitude": -48.42
    },
    {
      "elevation": 600,
      "mindate": "1972-12-01",
      "maxdate": "1997-11-30",
      "latitude": -23.2,
      "name": "JACUTINGA FAZENDA ANDREA, BR",
      "datacoverage": 0.97,
      "id": "GHCND:BR00E5-0720",
      "elevationUnit": "METERS",
      "longitude": -48.82
    },
    {
      "elevation": 620,
      "mindate": "1982-10-01",
      "maxdate": "1997-12-31",
      "latitude": -23.72,
      "name": "ARACACU, BR",
      "datacoverage": 0.9999,
      "id": "GHCND:BR00E5-0740",
      "elevationUnit": "METERS",
      "longitude": -48.48
    },
    {
      "elevation": 540,
      "mindate": "1937-05-01",
      "maxdate": "1971-11-30",
      "latitude": -23.18,
      "name": "PIRAJU US.CFLSC E6 001, BR",
      "datacoverage": 0.9831,
      "id": "GHCND:BR00E6-0010",
      "elevationUnit": "METERS",
      "longitude": -49.38
    },
    {
      "elevation": 630,
      "mindate": "1938-05-01",
      "maxdate": "1997-12-31",
      "latitude": -23.23,
      "name": "SARUTAIA US.BOA VISTA CLFSC, BR",
      "datacoverage": 0.9874,
      "id": "GHCND:BR00E6-0020",
      "elevationUnit": "METERS",
      "longitude": -49.47
    },
    {
      "elevation": 480,
      "mindate": "1955-06-01",
      "maxdate": "1997-12-31",
      "latitude": -23.05,
      "name": "FAZENDA MARCONDINHA, BR",
      "datacoverage": 0.9999,
      "id": "GHCND:BR00E6-0030",
      "elevationUnit": "METERS",
      "longitude": -49.77
    },
    {
      "elevation": 570,
      "mindate": "1937-07-01",
      "maxdate": "1947-07-30",
      "latitude": -23.05,
      "name": "IPAUCU USINA CLFSC E6 004, BR",
      "datacoverage": 0.9994,
      "id": "GHCND:BR00E6-0040",
      "elevationUnit": "METERS",
      "longitude": -49.63
    },
    {
      "elevation": 670,
      "mindate": "1937-05-01",
      "maxdate": "1942-12-31",
      "latitude": -23,
      "name": "BATISTA BOTELHO E6 005, BR",
      "datacoverage": 0.9995,
      "id": "GHCND:BR00E6-0050",
      "elevationUnit": "METERS",
      "longitude": -49.4
    },
    {
      "elevation": 571,
      "mindate": "1960-05-01",
      "maxdate": "1997-12-31",
      "latitude": -23.22,
      "name": "USINA JURUMIRIM CESP, BR",
      "datacoverage": 1,
      "id": "GHCND:BR00E6-0060",
      "elevationUnit": "METERS",
      "longitude": -49.23
    },
    {
      "elevation": 560,
      "mindate": "1959-08-01",
      "maxdate": "1997-12-31",
      "latitude": -23.7,
      "name": "MOSTEIRO ITAPORANGA, BR",
      "datacoverage": 0.9934,
      "id": "GHCND:BR00E6-0080",
      "elevationUnit": "METERS",
      "longitude": -49.48
    },
    {
      "elevation": 720,
      "mindate": "1937-02-01",
      "maxdate": "1944-06-30",
      "latitude": -23.02,
      "name": "CERQUEIRA CESAR ACCO, BR",
      "datacoverage": 0.9986,
      "id": "GHCND:BR00E6-008A",
      "elevationUnit": "METERS",
      "longitude": -49.17
    },
    {
      "elevation": 610,
      "mindate": "1937-09-01",
      "maxdate": "1997-12-31",
      "latitude": -23.63,
      "name": "BARAO DE ANTONINA, BR",
      "datacoverage": 0.9475,
      "id": "GHCND:BR00E6-0100",
      "elevationUnit": "METERS",
      "longitude": -49.55
    },
    {
      "elevation": 580,
      "mindate": "1939-05-01",
      "maxdate": "1997-11-30",
      "latitude": -23.83,
      "name": "RIVERSUL, BR",
      "datacoverage": 0.9871,
      "id": "GHCND:BR00E6-0110",
      "elevationUnit": "METERS",
      "longitude": -49.43
    },
    {
      "elevation": 600,
      "mindate": "1939-06-01",
      "maxdate": "1997-12-31",
      "latitude": -23.63,
      "name": "CORONEL MACEDO, BR",
      "datacoverage": 0.9245,
      "id": "GHCND:BR00E6-0120",
      "elevationUnit": "METERS",
      "longitude": -49.32
    },
    {
      "elevation": 600,
      "mindate": "1939-06-01",
      "maxdate": "1997-12-31",
      "latitude": -23.53,
      "name": "TAQUARITUBA, BR",
      "datacoverage": 0.8724,
      "id": "GHCND:BR00E6-0130",
      "elevationUnit": "METERS",
      "longitude": -49.23
    },
    {
      "elevation": 600,
      "mindate": "1939-10-01",
      "maxdate": "1953-12-30",
      "latitude": -23.42,
      "name": "ITAI E6 014, BR",
      "datacoverage": 0.9588,
      "id": "GHCND:BR00E6-0140",
      "elevationUnit": "METERS",
      "longitude": -49.08
    },
    {
      "elevation": 780,
      "mindate": "1939-10-01",
      "maxdate": "1997-12-31",
      "latitude": -23.33,
      "name": "TEJUPA, BR",
      "datacoverage": 0.9713,
      "id": "GHCND:BR00E6-0150",
      "elevationUnit": "METERS",
      "longitude": -49.37
    },
    {
      "elevation": 570,
      "mindate": "1939-10-01",
      "maxdate": "1997-12-31",
      "latitude": -23.45,
      "name": "TAGUAI RIBEIROPOLIS, BR",
      "datacoverage": 0.9327,
      "id": "GHCND:BR00E6-0160",
      "elevationUnit": "METERS",
      "longitude": -49.42
    },
    {
      "elevation": 520,
      "mindate": "1939-10-01",
      "maxdate": "1997-12-31",
      "latitude": -23.38,
      "name": "FARTURA, BR",
      "datacoverage": 0.9284,
      "id": "GHCND:BR00E6-0170",
      "elevationUnit": "METERS",
      "longitude": -49.52
    },
    {
      "elevation": 750,
      "mindate": "1939-10-01",
      "maxdate": "1958-10-30",
      "latitude": -23.28,
      "name": "SARUTAIA E6 018, BR",
      "datacoverage": 0.7292,
      "id": "GHCND:BR00E6-0180",
      "elevationUnit": "METERS",
      "longitude": -49.48
    },
    {
      "elevation": 720,
      "mindate": "1939-10-01",
      "maxdate": "1997-12-31",
      "latitude": -23.2,
      "name": "TIMBURI, BR",
      "datacoverage": 0.7668,
      "id": "GHCND:BR00E6-0190",
      "elevationUnit": "METERS",
      "longitude": -49.62
    },
    {
      "elevation": 620,
      "mindate": "1939-10-01",
      "maxdate": "1997-12-31",
      "latitude": -23.87,
      "name": "ITABERA, BR",
      "datacoverage": 0.9899,
      "id": "GHCND:BR00E6-0200",
      "elevationUnit": "METERS",
      "longitude": -49.13
    },
    {
      "elevation": 560,
      "mindate": "1943-02-01",
      "maxdate": "1997-12-31",
      "latitude": -23.05,
      "name": "FAZENDA SAO LUIZ, BR",
      "datacoverage": 0.953,
      "id": "GHCND:BR00E6-0210",
      "elevationUnit": "METERS",
      "longitude": -49.62
    },
    {
      "elevation": 630,
      "mindate": "1954-11-01",
      "maxdate": "1997-12-31",
      "latitude": -23.42,
      "name": "ITAI, BR",
      "datacoverage": 0.9993,
      "id": "GHCND:BR00E6-0220",
      "elevationUnit": "METERS",
      "longitude": -49.1
    },
    {
      "elevation": 460,
      "mindate": "1960-06-01",
      "maxdate": "1981-06-30",
      "latitude": -23.1,
      "name": "FAZENDA SAO LUCAS E6 023, BR",
      "datacoverage": 1,
      "id": "GHCND:BR00E6-0230",
      "elevationUnit": "METERS",
      "longitude": -49.72
    },
    {
      "elevation": 580,
      "mindate": "1954-09-01",
      "maxdate": "1970-04-30",
      "latitude": -23.23,
      "name": "FAZENDA COQUEIROS DER E6 025, BR",
      "datacoverage": 0.8885,
      "id": "GHCND:BR00E6-0250",
      "elevationUnit": "METERS",
      "longitude": -49.33
    },
    {
      "elevation": 760,
      "mindate": "1951-05-01",
      "maxdate": "1997-12-31",
      "latitude": -23.03,
      "name": "CERQUEIRA CESAR, BR",
      "datacoverage": 0.9785,
      "id": "GHCND:BR00E6-0300",
      "elevationUnit": "METERS",
      "longitude": -49.17
    },
    {
      "elevation": 520,
      "mindate": "1970-05-01",
      "maxdate": "1997-12-31",
      "latitude": -23.75,
      "name": "TORIBA DO SUL, BR",
      "datacoverage": 1,
      "id": "GHCND:BR00E6-0310",
      "elevationUnit": "METERS",
      "longitude": -49.27
    }
  ]
}
