{
  "metadata": {
    "resultset": {
      "offset": 87200,
      "count": 154115,
      "limit": 100
    }
  },
  "results": [
    {
      "elevation": 271.9,
      "mindate": "2008-07-01",
      "maxdate": "2017-11-25",
      "latitude": 33.327167,
      "name": "SUNNY SIDE 1.6 SW, GA US",
      "datacoverage": 0.9999,
      "id": "GHCND:US1GASP0002",
      "elevationUnit": "METERS",
      "longitude": -84.311577
    },
    {
      "elevation": 290.2,
      "mindate": "2008-11-01",
      "maxdate": "2025-03-07",
      "latitude": 33.239043,
      "name": "GRIFFIN 0.5 ESE, GA US",
      "datacoverage": 0.8542,
      "id": "GHCND:US1GASP0003",
      "elevationUnit": "METERS",
      "longitude": -84.264056
    },
    {
      "elevation": 264,
      "mindate": "2009-02-01",
      "maxdate": "2012-10-03",
      "latitude": 33.28608,
      "name": "GRIFFIN 4.3 NW, GA US",
      "datacoverage": 1,
      "id": "GHCND:US1GASP0004",
      "elevationUnit": "METERS",
      "longitude": -84.32376
    },
    {
      "elevation": 251.8,
      "mindate": "2011-11-01",
      "maxdate": "2014-10-14",
      "latitude": 33.199167,
      "name": "GRIFFIN 2.9 S, GA US",
      "datacoverage": 0.9165,
      "id": "GHCND:US1GASP0005",
      "elevationUnit": "METERS",
      "longitude": -84.270833
    },
    {
      "elevation": 256.3,
      "mindate": "2012-04-01",
      "maxdate": "2014-09-15",
      "latitude": 33.245525,
      "name": "GRIFFIN 5.5 E, GA US",
      "datacoverage": 0.998,
      "id": "GHCND:US1GASP0006",
      "elevationUnit": "METERS",
      "longitude": -84.178609
    },
    {
      "elevation": 249.6,
      "mindate": "2021-07-13",
      "maxdate": "2025-03-06",
      "latitude": 33.284167,
      "name": "GRIFFIN 5.8 WNW, GA US",
      "datacoverage": 0.9819,
      "id": "GHCND:US1GASP0009",
      "elevationUnit": "METERS",
      "longitude": -84.359444
    },
    {
      "elevation": 138.7,
      "mindate": "2008-05-01",
      "maxdate": "2008-12-18",
      "latitude": 32.067461,
      "name": "AMERICUS 0.4 SE, GA US",
      "datacoverage": 0.998,
      "id": "GHCND:US1GASR0001",
      "elevationUnit": "METERS",
      "longitude": -84.22252
    },
    {
      "elevation": 114,
      "mindate": "2012-03-26",
      "maxdate": "2018-05-24",
      "latitude": 31.982678,
      "name": "AMERICUS 7.4 SW, GA US",
      "datacoverage": 1,
      "id": "GHCND:US1GASR0005",
      "elevationUnit": "METERS",
      "longitude": -84.297424
    },
    {
      "elevation": 135.3,
      "mindate": "2024-04-23",
      "maxdate": "2025-03-07",
      "latitude": 32.0357757,
      "name": "AMERICUS 3.0 SSW, GA US",
      "datacoverage": 0.9011,
      "id": "GHCND:US1GASR0006",
      "elevationUnit": "METERS",
      "longitude": -84.2544778
    },
    {
      "elevation": 286.5,
      "mindate": "2008-10-01",
      "maxdate": "2015-12-03",
      "latitude": 34.52203,
      "name": "TOCCOA 4.8 SW, GA US",
      "datacoverage": 0.871,
      "id": "GHCND:US1GAST0001",
      "elevationUnit": "METERS",
      "longitude": -83.37295
    },
    {
      "elevation": 375.8,
      "mindate": "2009-08-01",
      "maxdate": "2010-08-21",
      "latitude": 34.61484,
      "name": "TOCCOA 3.1 NW, GA US",
      "datacoverage": 0.9992,
      "id": "GHCND:US1GAST0003",
      "elevationUnit": "METERS",
      "longitude": -83.35782
    },
    {
      "elevation": 282.2,
      "mindate": "2012-07-18",
      "maxdate": "2020-02-07",
      "latitude": 34.5270346105099,
      "name": "TOCCOA 3.7 S, GA US",
      "datacoverage": 0.0482,
      "id": "GHCND:US1GAST0004",
      "elevationUnit": "METERS",
      "longitude": -83.3205579221249
    },
    {
      "elevation": 240.5,
      "mindate": "2017-07-08",
      "maxdate": "2019-08-08",
      "latitude": 34.607171,
      "name": "TOCCOA 6.4 ENE, GA US",
      "datacoverage": 1,
      "id": "GHCND:US1GAST0006",
      "elevationUnit": "METERS",
      "longitude": -83.217295
    },
    {
      "elevation": 300.5,
      "mindate": "2020-10-16",
      "maxdate": "2025-01-09",
      "latitude": 34.521803,
      "name": "EASTANOLLEE 1.8 W, GA US",
      "datacoverage": 0.596,
      "id": "GHCND:US1GAST0007",
      "elevationUnit": "METERS",
      "longitude": -83.286203
    },
    {
      "elevation": 241.7,
      "mindate": "2021-11-01",
      "maxdate": "2024-11-07",
      "latitude": 34.49907,
      "name": "TOCCOA 6.3 SSW, GA US",
      "datacoverage": 0.9136,
      "id": "GHCND:US1GAST0008",
      "elevationUnit": "METERS",
      "longitude": -83.373992
    },
    {
      "elevation": 269.4,
      "mindate": "2023-04-21",
      "maxdate": "2025-03-05",
      "latitude": 34.478855,
      "name": "MARTIN 0.7 SE, GA US",
      "datacoverage": 0.5299,
      "id": "GHCND:US1GAST0009",
      "elevationUnit": "METERS",
      "longitude": -83.177616
    },
    {
      "elevation": 76.8,
      "mindate": "2008-04-01",
      "maxdate": "2025-03-07",
      "latitude": 32.718715,
      "name": "SYLVANIA 4.2 WSW, GA US",
      "datacoverage": 0.5743,
      "id": "GHCND:US1GASV0001",
      "elevationUnit": "METERS",
      "longitude": -81.69955
    },
    {
      "elevation": 53,
      "mindate": "2008-04-01",
      "maxdate": "2013-01-03",
      "latitude": 32.73253632,
      "name": "SYLVANIA 6.3 ESE, GA US",
      "datacoverage": 0.2412,
      "id": "GHCND:US1GASV0002",
      "elevationUnit": "METERS",
      "longitude": -81.53233337
    },
    {
      "elevation": 73.2,
      "mindate": "2009-05-01",
      "maxdate": "2025-03-07",
      "latitude": 32.749399,
      "name": "SYLVANIA 0.8 W, GA US",
      "datacoverage": 0.9997,
      "id": "GHCND:US1GASV0003",
      "elevationUnit": "METERS",
      "longitude": -81.652275
    },
    {
      "elevation": 42.7,
      "mindate": "2012-09-01",
      "maxdate": "2025-03-07",
      "latitude": 32.58226667,
      "name": "NEWINGTON 0.5 SSE, GA US",
      "datacoverage": 1,
      "id": "GHCND:US1GASV0005",
      "elevationUnit": "METERS",
      "longitude": -81.50316667
    },
    {
      "elevation": 31.4,
      "mindate": "2020-02-25",
      "maxdate": "2025-03-03",
      "latitude": 32.77053,
      "name": "SYLVANIA 5.5 ENE, GA US",
      "datacoverage": 1,
      "id": "GHCND:US1GASV0007",
      "elevationUnit": "METERS",
      "longitude": -81.54556
    },
    {
      "elevation": 64,
      "mindate": "2020-03-08",
      "maxdate": "2025-03-07",
      "latitude": 32.7237,
      "name": "ROCKY FORD 4.2 N, GA US",
      "datacoverage": 1,
      "id": "GHCND:US1GASV0008",
      "elevationUnit": "METERS",
      "longitude": -81.8255
    },
    {
      "elevation": 172.2,
      "mindate": "2008-01-01",
      "maxdate": "2009-03-17",
      "latitude": 32.344814,
      "name": "BUENA VISTA 8.8 ENE, GA US",
      "datacoverage": 0.9925,
      "id": "GHCND:US1GASY0001",
      "elevationUnit": "METERS",
      "longitude": -84.369268
    },
    {
      "elevation": 156.1,
      "mindate": "2013-11-01",
      "maxdate": "2025-03-06",
      "latitude": 32.25444444,
      "name": "ELLAVILLE 4.5 ENE, GA US",
      "datacoverage": 1,
      "id": "GHCND:US1GASY0003",
      "elevationUnit": "METERS",
      "longitude": -84.23472222
    },
    {
      "elevation": 65.2,
      "mindate": "2016-10-18",
      "maxdate": "2025-03-06",
      "latitude": 31.996184,
      "name": "MCRAE 6.6 SE, GA US",
      "datacoverage": 0.9996,
      "id": "GHCND:US1GATE0004",
      "elevationUnit": "METERS",
      "longitude": -82.819866
    },
    {
      "elevation": 95.1,
      "mindate": "2008-07-01",
      "maxdate": "2009-12-13",
      "latitude": 31.54517,
      "name": "TIFTON 5.6 N, GA US",
      "datacoverage": 0.9992,
      "id": "GHCND:US1GATF0002",
      "elevationUnit": "METERS",
      "longitude": -83.4989
    },
    {
      "elevation": 102.4,
      "mindate": "2008-05-01",
      "maxdate": "2025-03-07",
      "latitude": 31.4744,
      "name": "TIFTON 1.4 ENE, GA US",
      "datacoverage": 0.9683,
      "id": "GHCND:US1GATF0003",
      "elevationUnit": "METERS",
      "longitude": -83.4893
    },
    {
      "elevation": 92,
      "mindate": "2008-06-01",
      "maxdate": "2012-05-29",
      "latitude": 31.412183,
      "name": "TIFTON 5.6 SW, GA US",
      "datacoverage": 0.7708,
      "id": "GHCND:US1GATF0005",
      "elevationUnit": "METERS",
      "longitude": -83.578167
    },
    {
      "elevation": 100,
      "mindate": "2008-09-01",
      "maxdate": "2017-12-01",
      "latitude": 31.46149,
      "name": "TIFTON 5.5 E, GA US",
      "datacoverage": 1,
      "id": "GHCND:US1GATF0006",
      "elevationUnit": "METERS",
      "longitude": -83.41777
    },
    {
      "elevation": 110,
      "mindate": "2008-10-01",
      "maxdate": "2025-01-11",
      "latitude": 31.477076,
      "name": "TIFTON 2.0 ENE, GA US",
      "datacoverage": 0.9335,
      "id": "GHCND:US1GATF0007",
      "elevationUnit": "METERS",
      "longitude": -83.479063
    },
    {
      "elevation": 143,
      "mindate": "2008-04-01",
      "maxdate": "2024-12-14",
      "latitude": 32.601631,
      "name": "DANVILLE 3.3 W, GA US",
      "datacoverage": 1,
      "id": "GHCND:US1GATG0001",
      "elevationUnit": "METERS",
      "longitude": -83.303154
    },
    {
      "elevation": 65.8,
      "mindate": "2008-05-01",
      "maxdate": "2014-02-06",
      "latitude": 30.967443,
      "name": "COOLIDGE 3.2 SSW, GA US",
      "datacoverage": 1,
      "id": "GHCND:US1GATH0001",
      "elevationUnit": "METERS",
      "longitude": -83.887466
    },
    {
      "elevation": 64.3,
      "mindate": "2008-05-01",
      "maxdate": "2025-03-06",
      "latitude": 30.837615,
      "name": "THOMASVILLE 2.8 E, GA US",
      "datacoverage": 1,
      "id": "GHCND:US1GATH0002",
      "elevationUnit": "METERS",
      "longitude": -83.931252
    },
    {
      "elevation": 84.1,
      "mindate": "2009-01-01",
      "maxdate": "2025-03-06",
      "latitude": 30.8176,
      "name": "THOMASVILLE 5.1 ESE, GA US",
      "datacoverage": 1,
      "id": "GHCND:US1GATH0004",
      "elevationUnit": "METERS",
      "longitude": -83.8965
    },
    {
      "elevation": 59.7,
      "mindate": "2009-01-01",
      "maxdate": "2017-06-17",
      "latitude": 30.84025,
      "name": "BOSTON 3.4 NNW, GA US",
      "datacoverage": 1,
      "id": "GHCND:US1GATH0005",
      "elevationUnit": "METERS",
      "longitude": -83.80328
    },
    {
      "elevation": 74.7,
      "mindate": "2012-04-01",
      "maxdate": "2019-02-03",
      "latitude": 30.8638877868652,
      "name": "THOMASVILLE 5.5 ENE, GA US",
      "datacoverage": 1,
      "id": "GHCND:US1GATH0008",
      "elevationUnit": "METERS",
      "longitude": -83.8911819458008
    },
    {
      "elevation": 94.2,
      "mindate": "2013-09-01",
      "maxdate": "2023-07-04",
      "latitude": 31.717928,
      "name": "SASSER 0.2 WSW, GA US",
      "datacoverage": 1,
      "id": "GHCND:US1GATL0001",
      "elevationUnit": "METERS",
      "longitude": -84.3506009
    },
    {
      "elevation": 71,
      "mindate": "2017-04-08",
      "maxdate": "2017-12-29",
      "latitude": 32.20073,
      "name": "VIDALIA 2.0 WSW, GA US",
      "datacoverage": 0.9819,
      "id": "GHCND:US1GATM0004",
      "elevationUnit": "METERS",
      "longitude": -82.43439
    },
    {
      "elevation": 64,
      "mindate": "2019-01-27",
      "maxdate": "2025-03-06",
      "latitude": 32.26889,
      "name": "COLLINS 7.3 NNE, GA US",
      "datacoverage": 0.9892,
      "id": "GHCND:US1GATN0004",
      "elevationUnit": "METERS",
      "longitude": -82.04428
    },
    {
      "elevation": 240.8,
      "mindate": "2008-05-01",
      "maxdate": "2025-03-05",
      "latitude": 32.973461,
      "name": "LA GRANGE 10.6 ESE, GA US",
      "datacoverage": 0.9998,
      "id": "GHCND:US1GATP0001",
      "elevationUnit": "METERS",
      "longitude": -84.8698
    },
    {
      "elevation": 242.9,
      "mindate": "2009-01-01",
      "maxdate": "2018-08-03",
      "latitude": 32.95416,
      "name": "LA GRANGE 6.4 SSE, GA US",
      "datacoverage": 1,
      "id": "GHCND:US1GATP0002",
      "elevationUnit": "METERS",
      "longitude": -84.997573
    },
    {
      "elevation": 225.2,
      "mindate": "2009-03-01",
      "maxdate": "2024-11-07",
      "latitude": 33.057226,
      "name": "LA GRANGE 1.2 NNE, GA US",
      "datacoverage": 0.9997,
      "id": "GHCND:US1GATP0003",
      "elevationUnit": "METERS",
      "longitude": -85.027337
    },
    {
      "elevation": 228,
      "mindate": "2009-03-01",
      "maxdate": "2010-12-01",
      "latitude": 33.065249,
      "name": "LA GRANGE 2.5 NE, GA US",
      "datacoverage": 0.998,
      "id": "GHCND:US1GATP0004",
      "elevationUnit": "METERS",
      "longitude": -85.002807
    },
    {
      "elevation": 210,
      "mindate": "2009-04-01",
      "maxdate": "2011-09-06",
      "latitude": 33.049807,
      "name": "LA GRANGE 5.5 W, GA US",
      "datacoverage": 0.7334,
      "id": "GHCND:US1GATP0005",
      "elevationUnit": "METERS",
      "longitude": -85.129084
    },
    {
      "elevation": 233.2,
      "mindate": "2010-09-01",
      "maxdate": "2014-11-07",
      "latitude": 33.0266,
      "name": "LA GRANGE 2.1 WSW, GA US",
      "datacoverage": 0.9806,
      "id": "GHCND:US1GATP0006",
      "elevationUnit": "METERS",
      "longitude": -85.0664
    },
    {
      "elevation": 245.1,
      "mindate": "2012-05-01",
      "maxdate": "2014-01-12",
      "latitude": 33.12999,
      "name": "LA GRANGE 7.6 NE, GA US",
      "datacoverage": 0.9972,
      "id": "GHCND:US1GATP0007",
      "elevationUnit": "METERS",
      "longitude": -84.95575
    },
    {
      "elevation": 211.8,
      "mindate": "2021-04-14",
      "maxdate": "2021-09-13",
      "latitude": 32.9884,
      "name": "LAGRANGE 4.0 SSE, GA US",
      "datacoverage": 0.9898,
      "id": "GHCND:US1GATP0010",
      "elevationUnit": "METERS",
      "longitude": -85.0078
    },
    {
      "elevation": 223.1,
      "mindate": "2021-10-22",
      "maxdate": "2025-03-06",
      "latitude": 33.0105427,
      "name": "LA GRANGE 3.7 SW, GA US",
      "datacoverage": 0.2752,
      "id": "GHCND:US1GATP0012",
      "elevationUnit": "METERS",
      "longitude": -85.086752
    },
    {
      "elevation": 119.2,
      "mindate": "2017-02-25",
      "maxdate": "2022-03-24",
      "latitude": 31.672667,
      "name": "SYCAMORE 0.4 ENE, GA US",
      "datacoverage": 0.1516,
      "id": "GHCND:US1GATR0001",
      "elevationUnit": "METERS",
      "longitude": -83.629899
    },
    {
      "elevation": 760.5,
      "mindate": "2012-11-01",
      "maxdate": "2025-03-07",
      "latitude": 34.89032,
      "name": "HIAWASSEE 4.8 SSE, GA US",
      "datacoverage": 1,
      "id": "GHCND:US1GATW0001",
      "elevationUnit": "METERS",
      "longitude": -83.708712
    },
    {
      "elevation": 565.7,
      "mindate": "2019-11-30",
      "maxdate": "2023-01-01",
      "latitude": 34.978601,
      "name": "YOUNG HARRIS 3.6 NNW, GA US",
      "datacoverage": 0.8397,
      "id": "GHCND:US1GATW0007",
      "elevationUnit": "METERS",
      "longitude": -83.879006
    },
    {
      "elevation": 203.9,
      "mindate": "2008-09-01",
      "maxdate": "2025-03-06",
      "latitude": 32.661778,
      "name": "BUTLER 8.3 NNW, GA US",
      "datacoverage": 1,
      "id": "GHCND:US1GATY0001",
      "elevationUnit": "METERS",
      "longitude": -84.309082
    },
    {
      "elevation": 125.3,
      "mindate": "2009-01-01",
      "maxdate": "2018-07-31",
      "latitude": 32.45833,
      "name": "BUTLER 6.9 S, GA US",
      "datacoverage": 1,
      "id": "GHCND:US1GATY0002",
      "elevationUnit": "METERS",
      "longitude": -84.223711
    },
    {
      "elevation": 157.6,
      "mindate": "2022-11-29",
      "maxdate": "2024-09-08",
      "latitude": 32.52395,
      "name": "REYNOLDS 2.7 SSW, GA US",
      "datacoverage": 0.5769,
      "id": "GHCND:US1GATY0003",
      "elevationUnit": "METERS",
      "longitude": -84.11727
    },
    {
      "elevation": 644.7,
      "mindate": "2008-03-01",
      "maxdate": "2015-10-04",
      "latitude": 34.869678,
      "name": "BLAIRSVILLE 4.2 E, GA US",
      "datacoverage": 1,
      "id": "GHCND:US1GAUN0001",
      "elevationUnit": "METERS",
      "longitude": -83.876836
    },
    {
      "elevation": 621.2,
      "mindate": "2008-10-01",
      "maxdate": "2010-03-15",
      "latitude": 34.786588,
      "name": "BLAIRSVILLE 6.8 SSE, GA US",
      "datacoverage": 0.8347,
      "id": "GHCND:US1GAUN0002",
      "elevationUnit": "METERS",
      "longitude": -83.895995
    },
    {
      "elevation": 538.3,
      "mindate": "2008-11-01",
      "maxdate": "2010-09-28",
      "latitude": 34.971597,
      "name": "MORGANTON 9.8 NE, GA US",
      "datacoverage": 0.7913,
      "id": "GHCND:US1GAUN0003",
      "elevationUnit": "METERS",
      "longitude": -84.116174
    },
    {
      "elevation": 587,
      "mindate": "2010-05-01",
      "maxdate": "2010-11-01",
      "latitude": 34.9045982,
      "name": "YOUNG HARRIS 2.0 SSW, GA US",
      "datacoverage": 0.9956,
      "id": "GHCND:US1GAUN0005",
      "elevationUnit": "METERS",
      "longitude": -83.8556976
    },
    {
      "elevation": 610.8,
      "mindate": "2012-02-01",
      "maxdate": "2023-10-02",
      "latitude": 34.8362998962402,
      "name": "BLAIRSVILLE 8.5 WSW, GA US",
      "datacoverage": 1,
      "id": "GHCND:US1GAUN0008",
      "elevationUnit": "METERS",
      "longitude": -84.0943145751953
    },
    {
      "elevation": 663.5,
      "mindate": "2013-07-01",
      "maxdate": "2020-12-10",
      "latitude": 34.842788,
      "name": "BLAIRSVILLE 5.3 ESE, GA US",
      "datacoverage": 0.9692,
      "id": "GHCND:US1GAUN0009",
      "elevationUnit": "METERS",
      "longitude": -83.8665134
    },
    {
      "elevation": 551.4,
      "mindate": "2019-08-07",
      "maxdate": "2021-03-26",
      "latitude": 34.84732,
      "name": "BLAIRSVILLE 3.1 SW, GA US",
      "datacoverage": 0.5836,
      "id": "GHCND:US1GAUN0011",
      "elevationUnit": "METERS",
      "longitude": -83.99628
    },
    {
      "elevation": 559,
      "mindate": "2020-08-04",
      "maxdate": "2025-03-07",
      "latitude": 34.877724,
      "name": "BLAIRSVILLE 2.6 W, GA US",
      "datacoverage": 1,
      "id": "GHCND:US1GAUN0012",
      "elevationUnit": "METERS",
      "longitude": -83.997244
    },
    {
      "elevation": 637.3,
      "mindate": "2021-02-11",
      "maxdate": "2025-03-07",
      "latitude": 34.918361,
      "name": "BLAIRSVILLE 3.9 NW, GA US",
      "datacoverage": 1,
      "id": "GHCND:US1GAUN0013",
      "elevationUnit": "METERS",
      "longitude": -83.994478
    },
    {
      "elevation": 235.3,
      "mindate": "2008-07-01",
      "maxdate": "2025-03-05",
      "latitude": 32.977376,
      "name": "THE ROCK 1.0 N, GA US",
      "datacoverage": 0.9999,
      "id": "GHCND:US1GAUP0001",
      "elevationUnit": "METERS",
      "longitude": -84.239078
    },
    {
      "elevation": 230.4,
      "mindate": "2013-05-01",
      "maxdate": "2014-12-29",
      "latitude": 32.860110104084,
      "name": "THOMASTON 9.1 WSW, GA US",
      "datacoverage": 0.998,
      "id": "GHCND:US1GAUP0002",
      "elevationUnit": "METERS",
      "longitude": -84.4794331490994
    },
    {
      "elevation": 182.3,
      "mindate": "2018-09-13",
      "maxdate": "2024-12-27",
      "latitude": 32.867,
      "name": "THOMASTON 4.4 ESE, GA US",
      "datacoverage": 0.2615,
      "id": "GHCND:US1GAUP0005",
      "elevationUnit": "METERS",
      "longitude": -84.2564
    },
    {
      "elevation": 295.4,
      "mindate": "2000-09-01",
      "maxdate": "2011-09-26",
      "latitude": 34.7248,
      "name": "LA FAYETTE 8.0 ESE, GA US",
      "datacoverage": 0.6373,
      "id": "GHCND:US1GAWA0002",
      "elevationUnit": "METERS",
      "longitude": -85.2968
    },
    {
      "elevation": 681.2,
      "mindate": "2010-02-01",
      "maxdate": "2025-03-05",
      "latitude": 34.7123702,
      "name": "LA FAYETTE 11.0 W, GA US",
      "datacoverage": 0.906,
      "id": "GHCND:US1GAWA0003",
      "elevationUnit": "METERS",
      "longitude": -85.4747949
    },
    {
      "elevation": 273.7,
      "mindate": "2011-02-01",
      "maxdate": "2017-06-16",
      "latitude": 34.741093,
      "name": "LA FAYETTE 2.9 NE, GA US",
      "datacoverage": 0.9819,
      "id": "GHCND:US1GAWA0004",
      "elevationUnit": "METERS",
      "longitude": -85.250048
    },
    {
      "elevation": 75,
      "mindate": "1998-07-01",
      "maxdate": "2012-11-03",
      "latitude": 32.146347,
      "name": "HELENA 4.6 N, GA US",
      "datacoverage": 0.5005,
      "id": "GHCND:US1GAWE0001",
      "elevationUnit": "METERS",
      "longitude": -82.90676
    },
    {
      "elevation": 219.2,
      "mindate": "2013-03-01",
      "maxdate": "2025-03-07",
      "latitude": 34.676629,
      "name": "DALTON 7.8 SE, GA US",
      "datacoverage": 0.9993,
      "id": "GHCND:US1GAWF0004",
      "elevationUnit": "METERS",
      "longitude": -84.895532
    },
    {
      "elevation": 117.3,
      "mindate": "2009-01-01",
      "maxdate": "2021-06-20",
      "latitude": 32.8128,
      "name": "HARRISON 2.1 ESE, GA US",
      "datacoverage": 0.6899,
      "id": "GHCND:US1GAWG0001",
      "elevationUnit": "METERS",
      "longitude": -82.6904
    },
    {
      "elevation": 140.2,
      "mindate": "2020-10-06",
      "maxdate": "2025-03-07",
      "latitude": 32.983254,
      "name": "SANDERSVILLE 0.0 ESE, GA US",
      "datacoverage": 0.4182,
      "id": "GHCND:US1GAWG0005",
      "elevationUnit": "METERS",
      "longitude": -82.8125
    },
    {
      "elevation": 131.7,
      "mindate": "2021-02-18",
      "maxdate": "2025-03-07",
      "latitude": 32.812699,
      "name": "HARRISON 2.2 ESE, GA US",
      "datacoverage": 0.9297,
      "id": "GHCND:US1GAWG0006",
      "elevationUnit": "METERS",
      "longitude": -82.690619
    },
    {
      "elevation": 487.7,
      "mindate": "2008-09-01",
      "maxdate": "2025-03-06",
      "latitude": 34.612,
      "name": "CLEVELAND 3.9 WNW, GA US",
      "datacoverage": 1,
      "id": "GHCND:US1GAWH0003",
      "elevationUnit": "METERS",
      "longitude": -83.826
    },
    {
      "elevation": 525.2,
      "mindate": "2014-01-01",
      "maxdate": "2025-03-06",
      "latitude": 34.72966,
      "name": "HELEN 3.7 ENE, GA US",
      "datacoverage": 1,
      "id": "GHCND:US1GAWH0005",
      "elevationUnit": "METERS",
      "longitude": -83.667348
    },
    {
      "elevation": 409,
      "mindate": "2015-01-01",
      "maxdate": "2019-10-16",
      "latitude": 34.6203989,
      "name": "CLEVELAND 6.7 ENE, GA US",
      "datacoverage": 1,
      "id": "GHCND:US1GAWH0006",
      "elevationUnit": "METERS",
      "longitude": -83.649162
    },
    {
      "elevation": 498.3,
      "mindate": "2015-01-01",
      "maxdate": "2025-03-07",
      "latitude": 34.6037,
      "name": "CLEVELAND 0.6 NE, GA US",
      "datacoverage": 1,
      "id": "GHCND:US1GAWH0007",
      "elevationUnit": "METERS",
      "longitude": -83.7566
    },
    {
      "elevation": 446.8,
      "mindate": "2017-04-29",
      "maxdate": "2025-03-07",
      "latitude": 34.6043,
      "name": "CLEVELAND 4.7 W, GA US",
      "datacoverage": 0.8686,
      "id": "GHCND:US1GAWH0009",
      "elevationUnit": "METERS",
      "longitude": -83.8469
    },
    {
      "elevation": 538.9,
      "mindate": "2017-11-01",
      "maxdate": "2021-10-22",
      "latitude": 34.672324,
      "name": "CLEVELAND 7.8 NW, GA US",
      "datacoverage": 0.4938,
      "id": "GHCND:US1GAWH0010",
      "elevationUnit": "METERS",
      "longitude": -83.865731
    },
    {
      "elevation": 535.2,
      "mindate": "2019-08-30",
      "maxdate": "2025-03-06",
      "latitude": 34.7320721,
      "name": "HELEN 3.5 NE, GA US",
      "datacoverage": 1,
      "id": "GHCND:US1GAWH0011",
      "elevationUnit": "METERS",
      "longitude": -83.6734576
    },
    {
      "elevation": 489.8,
      "mindate": "2021-03-28",
      "maxdate": "2022-11-11",
      "latitude": 34.620312,
      "name": "CLEVELAND 2.7 NW, GA US",
      "datacoverage": 0.5968,
      "id": "GHCND:US1GAWH0012",
      "elevationUnit": "METERS",
      "longitude": -83.801998
    },
    {
      "elevation": 425.8,
      "mindate": "2023-09-16",
      "maxdate": "2025-03-07",
      "latitude": 34.50898,
      "name": "CLEVELAND 7.1 SSE, GA US",
      "datacoverage": 1,
      "id": "GHCND:US1GAWH0014",
      "elevationUnit": "METERS",
      "longitude": -83.69938
    },
    {
      "elevation": 285.9,
      "mindate": "2008-03-01",
      "maxdate": "2025-03-07",
      "latitude": 33.79809,
      "name": "LOGANVILLE 4.5 SW, GA US",
      "datacoverage": 0.9998,
      "id": "GHCND:US1GAWL0001",
      "elevationUnit": "METERS",
      "longitude": -83.95831
    },
    {
      "elevation": 242.6,
      "mindate": "2008-10-01",
      "maxdate": "2014-12-22",
      "latitude": 33.74035,
      "name": "MONROE 5.1 SE, GA US",
      "datacoverage": 0.9999,
      "id": "GHCND:US1GAWL0003",
      "elevationUnit": "METERS",
      "longitude": -83.651551
    },
    {
      "elevation": 265.2,
      "mindate": "2001-11-01",
      "maxdate": "2009-07-23",
      "latitude": 33.665848,
      "name": "SOCIAL CIRCLE 0.9 E, GA US",
      "datacoverage": 1,
      "id": "GHCND:US1GAWL0004",
      "elevationUnit": "METERS",
      "longitude": -83.712436
    },
    {
      "elevation": 278.3,
      "mindate": "2007-01-01",
      "maxdate": "2016-09-20",
      "latitude": 33.79168,
      "name": "LOGANVILLE 4.0 SSE, GA US",
      "datacoverage": 1,
      "id": "GHCND:US1GAWL0007",
      "elevationUnit": "METERS",
      "longitude": -83.871906
    },
    {
      "elevation": 271.6,
      "mindate": "2010-01-01",
      "maxdate": "2011-01-20",
      "latitude": 33.824261,
      "name": "LOGANVILLE 1.1 SW, GA US",
      "datacoverage": 0.9992,
      "id": "GHCND:US1GAWL0008",
      "elevationUnit": "METERS",
      "longitude": -83.90734
    },
    {
      "elevation": 259.1,
      "mindate": "2011-03-01",
      "maxdate": "2013-05-07",
      "latitude": 33.8731,
      "name": "MONROE 5.6 NNE, GA US",
      "datacoverage": 0.8506,
      "id": "GHCND:US1GAWL0010",
      "elevationUnit": "METERS",
      "longitude": -83.6927
    },
    {
      "elevation": 275.5,
      "mindate": "2014-06-01",
      "maxdate": "2025-03-07",
      "latitude": 33.83552778,
      "name": "LOGANVILLE 4.0 E, GA US",
      "datacoverage": 0.9994,
      "id": "GHCND:US1GAWL0012",
      "elevationUnit": "METERS",
      "longitude": -83.82547222
    },
    {
      "elevation": 282.5,
      "mindate": "2016-03-05",
      "maxdate": "2022-06-27",
      "latitude": 33.7425842285156,
      "name": "LOGANVILLE 6.7 SSE, GA US",
      "datacoverage": 0.4024,
      "id": "GHCND:US1GAWL0013",
      "elevationUnit": "METERS",
      "longitude": -83.8623199462891
    },
    {
      "elevation": 293.2,
      "mindate": "2018-04-14",
      "maxdate": "2018-12-12",
      "latitude": 33.82713,
      "name": "LOGANVILLE 4.4 E, GA US",
      "datacoverage": 0.9898,
      "id": "GHCND:US1GAWL0015",
      "elevationUnit": "METERS",
      "longitude": -83.81915
    },
    {
      "elevation": 246.6,
      "mindate": "2018-08-01",
      "maxdate": "2025-01-05",
      "latitude": 33.778973,
      "name": "MONROE 4.4 WSW, GA US",
      "datacoverage": 1,
      "id": "GHCND:US1GAWL0018",
      "elevationUnit": "METERS",
      "longitude": -83.786636
    },
    {
      "elevation": 296.9,
      "mindate": "2018-08-01",
      "maxdate": "2019-03-19",
      "latitude": 33.851565,
      "name": "LOGANVILLE 1.1 N, GA US",
      "datacoverage": 0.7922,
      "id": "GHCND:US1GAWL0019",
      "elevationUnit": "METERS",
      "longitude": -83.897273
    },
    {
      "elevation": 236.5,
      "mindate": "2019-10-31",
      "maxdate": "2022-03-31",
      "latitude": 33.810408,
      "name": "NORTH HIGH SHOALS 1.7 SW, GA US",
      "datacoverage": 0.8328,
      "id": "GHCND:US1GAWL0022",
      "elevationUnit": "METERS",
      "longitude": -83.520777
    },
    {
      "elevation": 246.3,
      "mindate": "2021-06-01",
      "maxdate": "2025-03-07",
      "latitude": 33.802422,
      "name": "MONROE 1.8 ENE, GA US",
      "datacoverage": 0.9643,
      "id": "GHCND:US1GAWL0024",
      "elevationUnit": "METERS",
      "longitude": -83.682141
    },
    {
      "elevation": 146.6,
      "mindate": "2020-04-05",
      "maxdate": "2025-03-07",
      "latitude": 33.412098,
      "name": "WARRENTON 0.7 WNW, GA US",
      "datacoverage": 0.8337,
      "id": "GHCND:US1GAWN0001",
      "elevationUnit": "METERS",
      "longitude": -82.6758
    },
    {
      "elevation": 42.4,
      "mindate": "2008-04-01",
      "maxdate": "2024-11-15",
      "latitude": 31.166154,
      "name": "WAYCROSS 6.3 ESE, GA US",
      "datacoverage": 0.9271,
      "id": "GHCND:US1GAWR0001",
      "elevationUnit": "METERS",
      "longitude": -82.266161
    },
    {
      "elevation": 38.4,
      "mindate": "2014-03-01",
      "maxdate": "2017-08-31",
      "latitude": 31.2248725444078,
      "name": "WAYCROSS 1.2 NE, GA US",
      "datacoverage": 0.9587,
      "id": "GHCND:US1GAWR0004",
      "elevationUnit": "METERS",
      "longitude": -82.3444564640522
    },
    {
      "elevation": 52.4,
      "mindate": "2015-01-01",
      "maxdate": "2024-05-09",
      "latitude": 31.1217536777258,
      "name": "MANOR 3.0 NW, GA US",
      "datacoverage": 1,
      "id": "GHCND:US1GAWR0005",
      "elevationUnit": "METERS",
      "longitude": -82.6195156574249
    }
  ]
}
