{
  "metadata": {
    "resultset": {
      "offset": 132000,
      "count": 154115,
      "limit": 100
    }
  },
  "results": [
    {
      "elevation": 430.1,
      "mindate": "1932-01-01",
      "maxdate": "1940-04-30",
      "latitude": 47.95,
      "name": "MIZPAH, MN US",
      "datacoverage": 0.8902,
      "id": "GHCND:USC00215533",
      "elevationUnit": "METERS",
      "longitude": -94.21667
    },
    {
      "elevation": 301.8,
      "mindate": "1893-01-01",
      "maxdate": "2021-01-15",
      "latitude": 44.9341,
      "name": "MONTEVIDEO 1 SW, MN US",
      "datacoverage": 1,
      "id": "GHCND:USC00215563",
      "elevationUnit": "METERS",
      "longitude": -95.74597
    },
    {
      "elevation": 335.3,
      "mindate": "1948-08-01",
      "maxdate": "2014-05-05",
      "latitude": 44.4597,
      "name": "MONTGOMERY, MN US",
      "datacoverage": 1,
      "id": "GHCND:USC00215571",
      "elevationUnit": "METERS",
      "longitude": -93.6631
    },
    {
      "mindate": "1952-02-01",
      "maxdate": "1954-08-31",
      "latitude": 46.86667,
      "name": "MOREHEAD, MN US",
      "datacoverage": 1,
      "id": "GHCND:USC00215584",
      "longitude": -96.76667
    },
    {
      "elevation": 275.5,
      "mindate": "1991-01-01",
      "maxdate": "2016-05-31",
      "latitude": 46.8876,
      "name": "MOORHEAD, MN US",
      "datacoverage": 1,
      "id": "GHCND:USC00215586",
      "elevationUnit": "METERS",
      "longitude": -96.7482
    },
    {
      "elevation": 287.1,
      "mindate": "1900-01-01",
      "maxdate": "1953-07-24",
      "latitude": 46.86667,
      "name": "MOORHEAD ST TEACHERS, MN US",
      "datacoverage": 0.997,
      "id": "GHCND:USC00215589",
      "elevationUnit": "METERS",
      "longitude": -96.75
    },
    {
      "elevation": 317,
      "mindate": "2004-01-01",
      "maxdate": "2011-04-30",
      "latitude": 44.4175,
      "name": "MORGAN, MN US",
      "datacoverage": 1,
      "id": "GHCND:USC00215590",
      "elevationUnit": "METERS",
      "longitude": -94.92167
    },
    {
      "elevation": 338.3,
      "mindate": "1913-11-01",
      "maxdate": "2021-11-13",
      "latitude": 46.4378,
      "name": "MOOSE LAKE 1 SSE, MN US",
      "datacoverage": 1,
      "id": "GHCND:USC00215598",
      "elevationUnit": "METERS",
      "longitude": -92.7578
    },
    {
      "elevation": 323.1,
      "mindate": "1948-08-01",
      "maxdate": "1960-02-29",
      "latitude": 46.45,
      "name": "MOOSE LAKE RANGER ST, MN US",
      "datacoverage": 0.8347,
      "id": "GHCND:USC00215603",
      "elevationUnit": "METERS",
      "longitude": -92.76667
    },
    {
      "elevation": 310.3,
      "mindate": "1904-06-01",
      "maxdate": "2025-03-06",
      "latitude": 45.8776,
      "name": "MORA, MN US",
      "datacoverage": 1,
      "id": "GHCND:USC00215615",
      "elevationUnit": "METERS",
      "longitude": -93.3147
    },
    {
      "elevation": 347.5,
      "mindate": "1886-01-01",
      "maxdate": "2025-01-31",
      "latitude": 45.5901,
      "name": "MORRIS WEST CENTRAL RESEARCH AND OUTREACH CENTER, MN US",
      "datacoverage": 1,
      "id": "GHCND:USC00215638",
      "elevationUnit": "METERS",
      "longitude": -95.8745
    },
    {
      "elevation": 285,
      "mindate": "1990-01-01",
      "maxdate": "2003-04-30",
      "latitude": 44.95,
      "name": "MOUND, MN US",
      "datacoverage": 0.9994,
      "id": "GHCND:USC00215665",
      "elevationUnit": "METERS",
      "longitude": -93.65
    },
    {
      "elevation": 460.2,
      "mindate": "1895-06-01",
      "maxdate": "1910-08-31",
      "latitude": 47.533333,
      "name": "MOUNT IRON, MN US",
      "datacoverage": 0.9945,
      "id": "GHCND:USC00215677",
      "elevationUnit": "METERS",
      "longitude": -92.6
    },
    {
      "elevation": 348.1,
      "mindate": "1957-04-01",
      "maxdate": "1961-07-31",
      "latitude": 48.3005,
      "name": "AGASSIZ REFUGE, MN US",
      "datacoverage": 0.9998,
      "id": "GHCND:USC00215693",
      "elevationUnit": "METERS",
      "longitude": -95.9816
    },
    {
      "elevation": 411.5,
      "mindate": "1968-08-01",
      "maxdate": "1973-12-31",
      "latitude": 48.1,
      "name": "NETT LAKE, MN US",
      "datacoverage": 0.6306,
      "id": "GHCND:USC00215819",
      "elevationUnit": "METERS",
      "longitude": -93.08333
    },
    {
      "elevation": 277.4,
      "mindate": "1967-09-01",
      "maxdate": "2025-02-24",
      "latitude": 45.01,
      "name": "NEW HOPE, MN US",
      "datacoverage": 1,
      "id": "GHCND:USC00215838",
      "elevationUnit": "METERS",
      "longitude": -93.3792
    },
    {
      "elevation": 381,
      "mindate": "1893-01-01",
      "maxdate": "2010-12-31",
      "latitude": 45.3049,
      "name": "NEW LONDON, MN US",
      "datacoverage": 1,
      "id": "GHCND:USC00215842",
      "elevationUnit": "METERS",
      "longitude": -94.9393
    },
    {
      "elevation": 364.8,
      "mindate": "2009-10-01",
      "maxdate": "2010-10-31",
      "latitude": 45.2597,
      "name": "NEW LONDON SPICER, MN US",
      "datacoverage": 0.9992,
      "id": "GHCND:USC00215845",
      "elevationUnit": "METERS",
      "longitude": -94.9461
    },
    {
      "elevation": 359.7,
      "mindate": "1893-11-01",
      "maxdate": "1919-11-30",
      "latitude": 43.883333,
      "name": "NEW RICHLAND, MN US",
      "datacoverage": 0.9816,
      "id": "GHCND:USC00215853",
      "elevationUnit": "METERS",
      "longitude": -93.5
    },
    {
      "elevation": 271.3,
      "mindate": "1893-08-01",
      "maxdate": "2011-02-01",
      "latitude": 44.3006,
      "name": "NEW ULM 2 SE, MN US",
      "datacoverage": 1,
      "id": "GHCND:USC00215887",
      "elevationUnit": "METERS",
      "longitude": -94.4896
    },
    {
      "elevation": 281.9,
      "mindate": "2011-01-01",
      "maxdate": "2023-01-09",
      "latitude": 44.29451,
      "name": "NEW ULM 3 SE, MN US",
      "datacoverage": 1,
      "id": "GHCND:USC00215888",
      "elevationUnit": "METERS",
      "longitude": -94.40842
    },
    {
      "elevation": 431.3,
      "mindate": "1993-01-01",
      "maxdate": "2025-03-07",
      "latitude": 46.52017,
      "name": "NEW YORK MILLS, MN US",
      "datacoverage": 1,
      "id": "GHCND:USC00215902",
      "elevationUnit": "METERS",
      "longitude": -95.33735
    },
    {
      "mindate": "1898-01-01",
      "maxdate": "1901-10-31",
      "latitude": 48.33333,
      "name": "NEWFOLDEN, MN US",
      "datacoverage": 1,
      "id": "GHCND:USC00215912",
      "longitude": -96.33333
    },
    {
      "elevation": 352.7,
      "mindate": "1918-06-01",
      "maxdate": "1919-05-31",
      "latitude": 46.433333,
      "name": "NICKERSON, MN US",
      "datacoverage": 0.5014,
      "id": "GHCND:USC00215927",
      "elevationUnit": "METERS",
      "longitude": -92.5
    },
    {
      "mindate": "1921-06-01",
      "maxdate": "1923-07-16",
      "latitude": 48.116667,
      "name": "NORDEN, MN US",
      "datacoverage": 1,
      "id": "GHCND:USC00215937",
      "longitude": -94.383333
    },
    {
      "elevation": 271.3,
      "mindate": "1893-01-01",
      "maxdate": "1951-09-23",
      "latitude": 44.4753,
      "name": "NORTHFIELD 2 NNE, MN US",
      "datacoverage": 0.0567,
      "id": "GHCND:USC00215987",
      "elevationUnit": "METERS",
      "longitude": -93.1486
    },
    {
      "elevation": 431.3,
      "mindate": "2008-01-01",
      "maxdate": "2025-03-04",
      "latitude": 47.8359,
      "name": "NORTHOME 3 S, MN US",
      "datacoverage": 1,
      "id": "GHCND:USC00215989",
      "elevationUnit": "METERS",
      "longitude": -94.2555
    },
    {
      "elevation": 304.2,
      "mindate": "2007-01-01",
      "maxdate": "2007-08-31",
      "latitude": 44.7775,
      "name": "NORWOOD YOUNG AMERICA 1 W, MN US",
      "datacoverage": 1,
      "id": "GHCND:USC00215990",
      "elevationUnit": "METERS",
      "longitude": -93.93
    },
    {
      "elevation": 259.1,
      "mindate": "1954-09-01",
      "maxdate": "1984-08-31",
      "latitude": 44.1543,
      "name": "MANKATO, MN US",
      "datacoverage": 0.9916,
      "id": "GHCND:USC00216007",
      "elevationUnit": "METERS",
      "longitude": -94.0212
    },
    {
      "elevation": 304.8,
      "mindate": "2011-01-01",
      "maxdate": "2025-01-31",
      "latitude": 44.1709,
      "name": "NORTH MANKATO 2, MN US",
      "datacoverage": 1,
      "id": "GHCND:USC00216008",
      "elevationUnit": "METERS",
      "longitude": -94.0385
    },
    {
      "elevation": 350.5,
      "mindate": "1939-09-01",
      "maxdate": "2010-12-31",
      "latitude": 47.83333,
      "name": "OKLEE, MN US",
      "datacoverage": 1,
      "id": "GHCND:USC00216148",
      "elevationUnit": "METERS",
      "longitude": -95.85
    },
    {
      "elevation": 335.3,
      "mindate": "1976-01-01",
      "maxdate": "2014-10-31",
      "latitude": 44.7629,
      "name": "OLIVIA 3 E, MN US",
      "datacoverage": 1,
      "id": "GHCND:USC00216152",
      "elevationUnit": "METERS",
      "longitude": -94.9298
    },
    {
      "elevation": 384,
      "mindate": "1935-02-01",
      "maxdate": "2025-01-31",
      "latitude": 46.06773,
      "name": "ONAMIA RANGER STATION, MN US",
      "datacoverage": 1,
      "id": "GHCND:USC00216166",
      "elevationUnit": "METERS",
      "longitude": -93.66663
    },
    {
      "elevation": 411.5,
      "mindate": "1970-09-01",
      "maxdate": "1971-07-15",
      "latitude": 48.1,
      "name": "NETT LAKE, MN US",
      "datacoverage": 0.9113,
      "id": "GHCND:USC00216210",
      "elevationUnit": "METERS",
      "longitude": -93.08333
    },
    {
      "elevation": 400.8,
      "mindate": "2007-08-01",
      "maxdate": "2025-03-07",
      "latitude": 48.0508,
      "name": "ORR 3 E, MN US",
      "datacoverage": 1,
      "id": "GHCND:USC00216211",
      "elevationUnit": "METERS",
      "longitude": -92.7636
    },
    {
      "elevation": 411.5,
      "mindate": "1961-01-01",
      "maxdate": "1972-01-31",
      "latitude": 48.1,
      "name": "NETT LAKE, MN US",
      "datacoverage": 0.6504,
      "id": "GHCND:USC00216212",
      "elevationUnit": "METERS",
      "longitude": -93.08333
    },
    {
      "elevation": 423.7,
      "mindate": "1926-01-01",
      "maxdate": "1954-07-31",
      "latitude": 48.0553,
      "name": "ORR, MN US",
      "datacoverage": 0.9914,
      "id": "GHCND:USC00216213",
      "elevationUnit": "METERS",
      "longitude": -92.8425
    },
    {
      "elevation": 299,
      "mindate": "1892-01-01",
      "maxdate": "1983-03-31",
      "latitude": 45.3,
      "name": "ORTONVILLE, MN US",
      "datacoverage": 0.4895,
      "id": "GHCND:USC00216224",
      "elevationUnit": "METERS",
      "longitude": -96.45
    },
    {
      "elevation": 335,
      "mindate": "2005-01-01",
      "maxdate": "2025-02-25",
      "latitude": 45.30858,
      "name": "ORTONVILLE 1 N, MN US",
      "datacoverage": 1,
      "id": "GHCND:USC00216225",
      "elevationUnit": "METERS",
      "longitude": -96.42961
    },
    {
      "elevation": 331,
      "mindate": "1971-06-01",
      "maxdate": "2025-03-07",
      "latitude": 46.2154,
      "name": "ORWELL DAM, MN US",
      "datacoverage": 1,
      "id": "GHCND:USC00216228",
      "elevationUnit": "METERS",
      "longitude": -96.178
    },
    {
      "elevation": 409.3,
      "mindate": "1907-06-01",
      "maxdate": "1916-03-31",
      "latitude": 45.85,
      "name": "OSAKIS, MN US",
      "datacoverage": 0.9715,
      "id": "GHCND:USC00216233",
      "elevationUnit": "METERS",
      "longitude": -95.18333
    },
    {
      "elevation": 411.2,
      "mindate": "1940-01-01",
      "maxdate": "2025-03-07",
      "latitude": 46.4145,
      "name": "OTTERTAIL, MN US",
      "datacoverage": 1,
      "id": "GHCND:USC00216276",
      "elevationUnit": "METERS",
      "longitude": -95.5464
    },
    {
      "elevation": 347.5,
      "mindate": "1961-01-01",
      "maxdate": "2025-03-07",
      "latitude": 44.0976,
      "name": "OWATONNA, MN US",
      "datacoverage": 1,
      "id": "GHCND:USC00216287",
      "elevationUnit": "METERS",
      "longitude": -93.2318
    },
    {
      "elevation": 438.9,
      "mindate": "2023-05-31",
      "maxdate": "2025-02-23",
      "latitude": 46.94156,
      "name": "PARK RAPIDS 2 NW, MN US",
      "datacoverage": 0.9963,
      "id": "GHCND:USC00216361",
      "elevationUnit": "METERS",
      "longitude": -95.08107
    },
    {
      "elevation": 360,
      "mindate": "1970-01-01",
      "maxdate": "1973-11-30",
      "latitude": 45.38333,
      "name": "PAYNESVILLE, MN US",
      "datacoverage": 1,
      "id": "GHCND:USC00216386",
      "elevationUnit": "METERS",
      "longitude": -94.73333
    },
    {
      "elevation": 395.9,
      "mindate": "1940-05-01",
      "maxdate": "2024-10-31",
      "latitude": 46.569,
      "name": "PELICAN RAPIDS, MN US",
      "datacoverage": 1,
      "id": "GHCND:USC00216405",
      "elevationUnit": "METERS",
      "longitude": -96.0894
    },
    {
      "elevation": 354.2,
      "mindate": "1912-09-01",
      "maxdate": "1916-11-30",
      "latitude": 45.966667,
      "name": "PIERZ, MN US",
      "datacoverage": 0.9806,
      "id": "GHCND:USC00216479",
      "elevationUnit": "METERS",
      "longitude": -94.1
    },
    {
      "elevation": 289.9,
      "mindate": "1924-08-01",
      "maxdate": "1950-06-30",
      "latitude": 48,
      "name": "PIGEON RIVER BRIDGE, MN US",
      "datacoverage": 1,
      "id": "GHCND:USC00216505",
      "elevationUnit": "METERS",
      "longitude": -89.7
    },
    {
      "elevation": 381,
      "mindate": "1893-01-01",
      "maxdate": "2025-03-06",
      "latitude": 46.6694,
      "name": "PINE RIVER DAM, MN US",
      "datacoverage": 1,
      "id": "GHCND:USC00216547",
      "elevationUnit": "METERS",
      "longitude": -94.1089
    },
    {
      "elevation": 505.4,
      "mindate": "1877-08-01",
      "maxdate": "2025-03-07",
      "latitude": 44.01377,
      "name": "PIPESTONE, MN US",
      "datacoverage": 1,
      "id": "GHCND:USC00216565",
      "elevationUnit": "METERS",
      "longitude": -96.32533
    },
    {
      "elevation": 359.7,
      "mindate": "1941-03-01",
      "maxdate": "1941-11-05",
      "latitude": 44.166667,
      "name": "PLAINVIEW, MN US",
      "datacoverage": 0.9961,
      "id": "GHCND:USC00216571",
      "elevationUnit": "METERS",
      "longitude": -92.166667
    },
    {
      "mindate": "1894-10-01",
      "maxdate": "1905-02-28",
      "latitude": 44,
      "name": "PLEASANT MOUND, MN US",
      "datacoverage": 0.9924,
      "id": "GHCND:USC00216573",
      "longitude": -94
    },
    {
      "elevation": 390.1,
      "mindate": "1893-01-01",
      "maxdate": "2025-02-24",
      "latitude": 47.2508,
      "name": "POKEGAMA DAM, MN US",
      "datacoverage": 1,
      "id": "GHCND:USC00216612",
      "elevationUnit": "METERS",
      "longitude": -93.5861
    },
    {
      "elevation": 372.8,
      "mindate": "1905-02-01",
      "maxdate": "1906-06-30",
      "latitude": 44.01667,
      "name": "PRATT, MN US",
      "datacoverage": 0.7683,
      "id": "GHCND:USC00216644",
      "elevationUnit": "METERS",
      "longitude": -93.13333
    },
    {
      "elevation": 283.5,
      "mindate": "1952-01-01",
      "maxdate": "2025-03-07",
      "latitude": 43.6725,
      "name": "PRESTON, MN US",
      "datacoverage": 1,
      "id": "GHCND:USC00216654",
      "elevationUnit": "METERS",
      "longitude": -92.0747
    },
    {
      "elevation": 246.3,
      "mindate": "1981-03-01",
      "maxdate": "1991-09-30",
      "latitude": 44.1,
      "name": "RAPIDAN 2 W, MN US",
      "datacoverage": 0.5993,
      "id": "GHCND:USC00216744",
      "elevationUnit": "METERS",
      "longitude": -94.1
    },
    {
      "elevation": 228.9,
      "mindate": "1948-07-01",
      "maxdate": "1955-12-31",
      "latitude": 44.4,
      "name": "READS LANDING, MN US",
      "datacoverage": 0.9998,
      "id": "GHCND:USC00216777",
      "elevationUnit": "METERS",
      "longitude": -92.08333
    },
    {
      "elevation": 316.4,
      "mindate": "1913-03-01",
      "maxdate": "2025-03-07",
      "latitude": 47.87945,
      "name": "RED LAKE FALLS, MN US",
      "datacoverage": 1,
      "id": "GHCND:USC00216787",
      "elevationUnit": "METERS",
      "longitude": -96.28446
    },
    {
      "elevation": 370.6,
      "mindate": "1893-11-01",
      "maxdate": "2025-01-31",
      "latitude": 47.8761,
      "name": "RED LAKE INDIAN AGCY, MN US",
      "datacoverage": 1,
      "id": "GHCND:USC00216795",
      "elevationUnit": "METERS",
      "longitude": -95.0167
    },
    {
      "elevation": 209.7,
      "mindate": "1948-01-01",
      "maxdate": "2025-03-06",
      "latitude": 44.57136,
      "name": "RED WING, MN US",
      "datacoverage": 1,
      "id": "GHCND:USC00216817",
      "elevationUnit": "METERS",
      "longitude": -92.52835
    },
    {
      "elevation": 208.2,
      "mindate": "1948-07-01",
      "maxdate": "2025-03-07",
      "latitude": 44.60981,
      "name": "RED WING DAM 3, MN US",
      "datacoverage": 1,
      "id": "GHCND:USC00216822",
      "elevationUnit": "METERS",
      "longitude": -92.6098
    },
    {
      "elevation": 312.4,
      "mindate": "1980-03-01",
      "maxdate": "2022-08-01",
      "latitude": 44.5485,
      "name": "REDWOOD FALLS, MN US",
      "datacoverage": 1,
      "id": "GHCND:USC00216839",
      "elevationUnit": "METERS",
      "longitude": -95.09968
    },
    {
      "elevation": 410,
      "mindate": "1948-08-01",
      "maxdate": "1956-12-31",
      "latitude": 47.06222,
      "name": "REMER NUMBER 2, MN US",
      "datacoverage": 0.9898,
      "id": "GHCND:USC00216848",
      "elevationUnit": "METERS",
      "longitude": -93.915
    },
    {
      "elevation": 410,
      "mindate": "1957-01-01",
      "maxdate": "2000-05-31",
      "latitude": 47.06222,
      "name": "REMER NUMBER 2, MN US",
      "datacoverage": 0.8273,
      "id": "GHCND:USC00216849",
      "elevationUnit": "METERS",
      "longitude": -93.915
    },
    {
      "elevation": 323.1,
      "mindate": "2006-01-01",
      "maxdate": "2025-03-07",
      "latitude": 45.7576,
      "name": "RICE, MN US",
      "datacoverage": 1,
      "id": "GHCND:USC00216920",
      "elevationUnit": "METERS",
      "longitude": -94.2072
    },
    {
      "elevation": 381,
      "mindate": "1992-12-01",
      "maxdate": "2006-02-28",
      "latitude": 46.5381,
      "name": "RICE LAKE NWR, MN US",
      "datacoverage": 0.9689,
      "id": "GHCND:USC00216929",
      "elevationUnit": "METERS",
      "longitude": -93.2844
    },
    {
      "elevation": 353.9,
      "mindate": "1948-08-01",
      "maxdate": "1989-12-31",
      "latitude": 46.46667,
      "name": "RIVERTON, MN US",
      "datacoverage": 0.9014,
      "id": "GHCND:USC00216972",
      "elevationUnit": "METERS",
      "longitude": -94.05
    },
    {
      "elevation": 299,
      "mindate": "1953-01-01",
      "maxdate": "1979-12-31",
      "latitude": 44.06667,
      "name": "ROCHESTER SEWAGE, MN US",
      "datacoverage": 0.8565,
      "id": "GHCND:USC00217009",
      "elevationUnit": "METERS",
      "longitude": -92.46667
    },
    {
      "elevation": 376.1,
      "mindate": "2000-01-01",
      "maxdate": "2025-03-07",
      "latitude": 43.9336,
      "name": "ROCHESTER AIRPORT 2 NE, MN US",
      "datacoverage": 1,
      "id": "GHCND:USC00217011",
      "elevationUnit": "METERS",
      "longitude": -92.4729
    },
    {
      "elevation": 457.2,
      "mindate": "2000-10-01",
      "maxdate": "2006-12-31",
      "latitude": 43.6556,
      "name": "ROCK CO SHERIFF, MN US",
      "datacoverage": 0.9999,
      "id": "GHCND:USC00217012",
      "elevationUnit": "METERS",
      "longitude": -96.2058
    },
    {
      "elevation": 289.6,
      "mindate": "1978-08-01",
      "maxdate": "2020-10-12",
      "latitude": 45.0896,
      "name": "ROCKFORD, MN US",
      "datacoverage": 1,
      "id": "GHCND:USC00217020",
      "elevationUnit": "METERS",
      "longitude": -93.7399
    },
    {
      "elevation": 319.1,
      "mindate": "1895-04-01",
      "maxdate": "2016-03-01",
      "latitude": 48.84861,
      "name": "ROSEAU, MN US",
      "datacoverage": 1,
      "id": "GHCND:USC00217087",
      "elevationUnit": "METERS",
      "longitude": -95.7675
    },
    {
      "elevation": 288,
      "mindate": "1950-12-01",
      "maxdate": "2025-02-03",
      "latitude": 44.71673,
      "name": "ROSEMOUNT RESEARCH AND OUTREACH CENTER, MN US",
      "datacoverage": 1,
      "id": "GHCND:USC00217107",
      "elevationUnit": "METERS",
      "longitude": -93.09798
    },
    {
      "elevation": 367,
      "mindate": "1959-01-01",
      "maxdate": "2025-01-31",
      "latitude": 46.4808,
      "name": "ROTHSAY, MN US",
      "datacoverage": 1,
      "id": "GHCND:USC00217149",
      "elevationUnit": "METERS",
      "longitude": -96.2869
    },
    {
      "elevation": 332.2,
      "mindate": "1986-01-01",
      "maxdate": "2010-12-31",
      "latitude": 45.83333,
      "name": "ROYALTON 5 W, MN US",
      "datacoverage": 1,
      "id": "GHCND:USC00217157",
      "elevationUnit": "METERS",
      "longitude": -94.36667
    },
    {
      "elevation": 234.7,
      "mindate": "1948-08-01",
      "maxdate": "2025-02-28",
      "latitude": 43.8052,
      "name": "RUSHFORD, MN US",
      "datacoverage": 1,
      "id": "GHCND:USC00217184",
      "elevationUnit": "METERS",
      "longitude": -91.7501
    },
    {
      "elevation": 274.9,
      "mindate": "1973-06-01",
      "maxdate": "1981-04-30",
      "latitude": 46.76639,
      "name": "SABIN 1 ESE, MN US",
      "datacoverage": 0.2422,
      "id": "GHCND:USC00217227",
      "elevationUnit": "METERS",
      "longitude": -96.63361
    },
    {
      "elevation": 281.6,
      "mindate": "2019-01-01",
      "maxdate": "2025-03-07",
      "latitude": 46.7764,
      "name": "SABIN, MN US",
      "datacoverage": 0.9992,
      "id": "GHCND:USC00217228",
      "elevationUnit": "METERS",
      "longitude": -96.656
    },
    {
      "elevation": 259.1,
      "mindate": "1893-01-01",
      "maxdate": "1923-04-30",
      "latitude": 43.95,
      "name": "ST CHARLES, MN US",
      "datacoverage": 0.9591,
      "id": "GHCND:USC00217277",
      "elevationUnit": "METERS",
      "longitude": -92.06667
    },
    {
      "elevation": 262.1,
      "mindate": "1954-11-01",
      "maxdate": "1990-03-31",
      "latitude": 45.33333,
      "name": "ST FRANCIS 4 S, MN US",
      "datacoverage": 0.8118,
      "id": "GHCND:USC00217308",
      "elevationUnit": "METERS",
      "longitude": -93.36667
    },
    {
      "elevation": 274.3,
      "mindate": "1990-01-01",
      "maxdate": "2013-08-31",
      "latitude": 45.3878,
      "name": "ST FRANCIS, MN US",
      "datacoverage": 0.9993,
      "id": "GHCND:USC00217309",
      "elevationUnit": "METERS",
      "longitude": -93.3591
    },
    {
      "elevation": 326.1,
      "mindate": "1940-05-01",
      "maxdate": "2025-02-18",
      "latitude": 43.9904,
      "name": "ST. JAMES WWTP, MN US",
      "datacoverage": 1,
      "id": "GHCND:USC00217326",
      "elevationUnit": "METERS",
      "longitude": -94.6123
    },
    {
      "elevation": 452.6,
      "mindate": "1893-01-01",
      "maxdate": "1899-04-30",
      "latitude": 46.11667,
      "name": "ST OLAF, MN US",
      "datacoverage": 1,
      "id": "GHCND:USC00217362",
      "elevationUnit": "METERS",
      "longitude": -95.83333
    },
    {
      "elevation": 274.3,
      "mindate": "1956-12-01",
      "maxdate": "2010-12-31",
      "latitude": 44.94611,
      "name": "ST PAUL, MN US",
      "datacoverage": 1,
      "id": "GHCND:USC00217377",
      "elevationUnit": "METERS",
      "longitude": -93.03
    },
    {
      "elevation": 281.9,
      "mindate": "2006-07-01",
      "maxdate": "2017-07-01",
      "latitude": 44.9312,
      "name": "ST. PAUL 3 SW, MN US",
      "datacoverage": 1,
      "id": "GHCND:USC00217379",
      "elevationUnit": "METERS",
      "longitude": -93.154
    },
    {
      "elevation": 289.9,
      "mindate": "1916-08-01",
      "maxdate": "1949-10-03",
      "latitude": 45,
      "name": "ST PAUL UNIVERSITY FARM, MN US",
      "datacoverage": 0.2306,
      "id": "GHCND:USC00217381",
      "elevationUnit": "METERS",
      "longitude": -93.16667
    },
    {
      "elevation": 242.3,
      "mindate": "1893-05-01",
      "maxdate": "2025-03-06",
      "latitude": 44.32233,
      "name": "ST. PETER, MN US",
      "datacoverage": 1,
      "id": "GHCND:USC00217405",
      "elevationUnit": "METERS",
      "longitude": -93.96561
    },
    {
      "elevation": 376.1,
      "mindate": "1893-01-01",
      "maxdate": "2025-03-07",
      "latitude": 46.7953,
      "name": "SANDY LAKE DAM LIBBY, MN US",
      "datacoverage": 1,
      "id": "GHCND:USC00217460",
      "elevationUnit": "METERS",
      "longitude": -93.3211
    },
    {
      "elevation": 307.8,
      "mindate": "1959-09-01",
      "maxdate": "2025-02-11",
      "latitude": 45.5459,
      "name": "SANTIAGO 3 E, MN US",
      "datacoverage": 1,
      "id": "GHCND:USC00217502",
      "elevationUnit": "METERS",
      "longitude": -93.7571
    },
    {
      "elevation": 379.2,
      "mindate": "1893-07-01",
      "maxdate": "1898-07-31",
      "latitude": 45.75,
      "name": "SAUK CENTER, MN US",
      "datacoverage": 0.8523,
      "id": "GHCND:USC00217514",
      "elevationUnit": "METERS",
      "longitude": -94.91667
    },
    {
      "elevation": 463.3,
      "mindate": "1929-05-01",
      "maxdate": "1941-02-28",
      "latitude": 47.833333,
      "name": "SAWBILL, MN US",
      "datacoverage": 0.7042,
      "id": "GHCND:USC00217533",
      "elevationUnit": "METERS",
      "longitude": -90.866667
    },
    {
      "elevation": 365.8,
      "mindate": "1940-01-01",
      "maxdate": "1943-06-28",
      "latitude": 47.55,
      "name": "SCHROEDER, MN US",
      "datacoverage": 0.9993,
      "id": "GHCND:USC00217554",
      "elevationUnit": "METERS",
      "longitude": -90.9
    },
    {
      "elevation": 429.2,
      "mindate": "2019-09-01",
      "maxdate": "2025-03-01",
      "latitude": 46.6254,
      "name": "SEBEKA, MN US",
      "datacoverage": 0.9834,
      "id": "GHCND:USC00217555",
      "elevationUnit": "METERS",
      "longitude": -95.0967
    },
    {
      "elevation": 227.1,
      "mindate": "1895-02-01",
      "maxdate": "1909-05-31",
      "latitude": 44.76667,
      "name": "SHAKOPEE, MN US",
      "datacoverage": 0.9995,
      "id": "GHCND:USC00217573",
      "elevationUnit": "METERS",
      "longitude": -93.5
    },
    {
      "elevation": 256,
      "mindate": "1973-06-01",
      "maxdate": "1997-02-28",
      "latitude": 47.41667,
      "name": "SHELLY 4 SE, MN US",
      "datacoverage": 0.9225,
      "id": "GHCND:USC00217594",
      "elevationUnit": "METERS",
      "longitude": -96.76667
    },
    {
      "elevation": 402.3,
      "mindate": "1948-08-01",
      "maxdate": "2025-02-28",
      "latitude": 43.6304,
      "name": "SHERBURN 3 WSW, MN US",
      "datacoverage": 0.2473,
      "id": "GHCND:USC00217602",
      "elevationUnit": "METERS",
      "longitude": -94.7744
    },
    {
      "elevation": 458.1,
      "mindate": "1927-07-01",
      "maxdate": "1951-10-31",
      "latitude": 47.65,
      "name": "SIDE LAKE RANGER STATION, MN US",
      "datacoverage": 0.1472,
      "id": "GHCND:USC00217657",
      "elevationUnit": "METERS",
      "longitude": -93.03333
    },
    {
      "elevation": 490.1,
      "mindate": "1898-07-01",
      "maxdate": "1899-03-31",
      "latitude": 44,
      "name": "SLAYTON, MN US",
      "datacoverage": 1,
      "id": "GHCND:USC00217738",
      "elevationUnit": "METERS",
      "longitude": -95.75
    },
    {
      "elevation": 481.9,
      "mindate": "1956-01-01",
      "maxdate": "1973-04-30",
      "latitude": 43.9,
      "name": "SLAYTON 9 SW, MN US",
      "datacoverage": 0.9951,
      "id": "GHCND:USC00217740",
      "elevationUnit": "METERS",
      "longitude": -95.88333
    },
    {
      "elevation": 324.9,
      "mindate": "1937-05-01",
      "maxdate": "2014-09-30",
      "latitude": 44.247,
      "name": "SPRINGFIELD 1 NW, MN US",
      "datacoverage": 1,
      "id": "GHCND:USC00217907",
      "elevationUnit": "METERS",
      "longitude": -94.9865
    }
  ]
}
