{
  "metadata": {
    "resultset": {
      "offset": 85400,
      "count": 154115,
      "limit": 100
    }
  },
  "results": [
    {
      "elevation": 37.2,
      "mindate": "2008-08-01",
      "maxdate": "2025-03-05",
      "latitude": 30.594969,
      "name": "TALLAHASSEE 9.6 N, FL US",
      "datacoverage": 1,
      "id": "GHCND:US1FLLN0034",
      "elevationUnit": "METERS",
      "longitude": -84.267948
    },
    {
      "elevation": 52.1,
      "mindate": "2008-08-01",
      "maxdate": "2011-04-05",
      "latitude": 30.56063,
      "name": "TALLAHASSEE 11.3 NE, FL US",
      "datacoverage": 1,
      "id": "GHCND:US1FLLN0035",
      "elevationUnit": "METERS",
      "longitude": -84.134992
    },
    {
      "elevation": 29,
      "mindate": "2008-10-01",
      "maxdate": "2023-06-01",
      "latitude": 30.465374,
      "name": "TALLAHASSEE 3.6 W, FL US",
      "datacoverage": 0.9557,
      "id": "GHCND:US1FLLN0037",
      "elevationUnit": "METERS",
      "longitude": -84.341516
    },
    {
      "elevation": 67.1,
      "mindate": "2008-10-01",
      "maxdate": "2009-12-03",
      "latitude": 30.51372,
      "name": "TALLAHASSEE 5.8 NE, FL US",
      "datacoverage": 0.999,
      "id": "GHCND:US1FLLN0039",
      "elevationUnit": "METERS",
      "longitude": -84.209409
    },
    {
      "elevation": 49.1,
      "mindate": "2009-02-01",
      "maxdate": "2025-03-05",
      "latitude": 30.611569,
      "name": "TALLAHASSEE 10.8 N, FL US",
      "datacoverage": 1,
      "id": "GHCND:US1FLLN0041",
      "elevationUnit": "METERS",
      "longitude": -84.256832
    },
    {
      "elevation": 34.7,
      "mindate": "2010-07-01",
      "maxdate": "2023-08-15",
      "latitude": 30.517503,
      "name": "TALLAHASSEE 4.2 N, FL US",
      "datacoverage": 0.9819,
      "id": "GHCND:US1FLLN0043",
      "elevationUnit": "METERS",
      "longitude": -84.283956
    },
    {
      "elevation": 40.8,
      "mindate": "2009-11-01",
      "maxdate": "2017-12-13",
      "latitude": 30.5486222,
      "name": "TALLAHASSEE 10.2 NE, FL US",
      "datacoverage": 1,
      "id": "GHCND:US1FLLN0045",
      "elevationUnit": "METERS",
      "longitude": -84.14635
    },
    {
      "elevation": 31.7,
      "mindate": "2011-01-01",
      "maxdate": "2025-03-07",
      "latitude": 30.442466,
      "name": "TALLAHASSEE 5.2 E, FL US",
      "datacoverage": 1,
      "id": "GHCND:US1FLLN0047",
      "elevationUnit": "METERS",
      "longitude": -84.194941
    },
    {
      "elevation": 68,
      "mindate": "2011-08-01",
      "maxdate": "2014-09-08",
      "latitude": 30.525181,
      "name": "TALLAHASSEE 4.7 N, FL US",
      "datacoverage": 0.9819,
      "id": "GHCND:US1FLLN0049",
      "elevationUnit": "METERS",
      "longitude": -84.277431
    },
    {
      "elevation": 49.1,
      "mindate": "2011-12-01",
      "maxdate": "2025-03-07",
      "latitude": 30.5076923370361,
      "name": "TALLAHASSEE 5.1 NE, FL US",
      "datacoverage": 0.7883,
      "id": "GHCND:US1FLLN0051",
      "elevationUnit": "METERS",
      "longitude": -84.2197799682617
    },
    {
      "elevation": 36.3,
      "mindate": "2014-10-01",
      "maxdate": "2025-03-05",
      "latitude": 30.4779,
      "name": "TALLAHASSEE 5.5 ENE, FL US",
      "datacoverage": 0.9998,
      "id": "GHCND:US1FLLN0055",
      "elevationUnit": "METERS",
      "longitude": -84.19283
    },
    {
      "elevation": 60.4,
      "mindate": "2015-04-01",
      "maxdate": "2015-08-12",
      "latitude": 30.453908,
      "name": "TALLAHASSEE 0.6 ESE, FL US",
      "datacoverage": 0.9947,
      "id": "GHCND:US1FLLN0058",
      "elevationUnit": "METERS",
      "longitude": -84.271751
    },
    {
      "elevation": 21.3,
      "mindate": "2015-05-01",
      "maxdate": "2022-07-29",
      "latitude": 30.4129,
      "name": "TALLAHASSEE 9.3 ESE, FL US",
      "datacoverage": 0.9999,
      "id": "GHCND:US1FLLN0059",
      "elevationUnit": "METERS",
      "longitude": -84.1335
    },
    {
      "elevation": 25.3,
      "mindate": "2015-07-05",
      "maxdate": "2025-03-07",
      "latitude": 30.45733,
      "name": "TALLAHASSEE 6.2 E, FL US",
      "datacoverage": 0.9606,
      "id": "GHCND:US1FLLN0060",
      "elevationUnit": "METERS",
      "longitude": -84.17725
    },
    {
      "elevation": 38.7,
      "mindate": "2016-08-01",
      "maxdate": "2017-09-22",
      "latitude": 30.546997,
      "name": "TALLAHASSEE 8.1 NE, FL US",
      "datacoverage": 0.9113,
      "id": "GHCND:US1FLLN0062",
      "elevationUnit": "METERS",
      "longitude": -84.195006
    },
    {
      "elevation": 21.9,
      "mindate": "2017-03-08",
      "maxdate": "2021-06-28",
      "latitude": 30.4379405975342,
      "name": "TALLAHASSEE 4.8 ESE, FL US",
      "datacoverage": 0.888,
      "id": "GHCND:US1FLLN0063",
      "elevationUnit": "METERS",
      "longitude": -84.2041015625
    },
    {
      "elevation": 57.6,
      "mindate": "2002-01-19",
      "maxdate": "2022-07-20",
      "latitude": 30.5602550506592,
      "name": "TALLAHASSEE 7.2 N, FL US",
      "datacoverage": 0.6947,
      "id": "GHCND:US1FLLN0064",
      "elevationUnit": "METERS",
      "longitude": -84.2729339599609
    },
    {
      "elevation": 31.1,
      "mindate": "2017-03-01",
      "maxdate": "2019-11-15",
      "latitude": 30.4755,
      "name": "TALLAHASSEE 10.4 E, FL US",
      "datacoverage": 0.904,
      "id": "GHCND:US1FLLN0065",
      "elevationUnit": "METERS",
      "longitude": -84.1079
    },
    {
      "elevation": 11,
      "mindate": "2017-03-24",
      "maxdate": "2019-01-01",
      "latitude": 30.3101,
      "name": "TALLAHASSEE 10.4 SSE, FL US",
      "datacoverage": 0.812,
      "id": "GHCND:US1FLLN0066",
      "elevationUnit": "METERS",
      "longitude": -84.240606
    },
    {
      "elevation": 18.9,
      "mindate": "2017-04-04",
      "maxdate": "2024-04-11",
      "latitude": 30.377475,
      "name": "TALLAHASSEE 9.7 SE, FL US",
      "datacoverage": 0.9925,
      "id": "GHCND:US1FLLN0068",
      "elevationUnit": "METERS",
      "longitude": -84.146335
    },
    {
      "elevation": 31.4,
      "mindate": "2018-02-14",
      "maxdate": "2025-03-05",
      "latitude": 30.4106,
      "name": "TALLAHASSEE 5.0 SE, FL US",
      "datacoverage": 0.9441,
      "id": "GHCND:US1FLLN0072",
      "elevationUnit": "METERS",
      "longitude": -84.21798
    },
    {
      "elevation": 21.6,
      "mindate": "2018-05-27",
      "maxdate": "2025-03-07",
      "latitude": 30.42558,
      "name": "TALLAHASSEE 5.6 ESE, FL US",
      "datacoverage": 0.9993,
      "id": "GHCND:US1FLLN0074",
      "elevationUnit": "METERS",
      "longitude": -84.19498
    },
    {
      "elevation": 19.2,
      "mindate": "2020-05-27",
      "maxdate": "2025-03-05",
      "latitude": 30.39058,
      "name": "TALLAHASSEE 5.6 SE, FL US",
      "datacoverage": 0.9169,
      "id": "GHCND:US1FLLN0078",
      "elevationUnit": "METERS",
      "longitude": -84.22671
    },
    {
      "elevation": 46,
      "mindate": "2020-05-24",
      "maxdate": "2025-03-07",
      "latitude": 30.441156,
      "name": "TALLAHASSEE 0.6 ENE, FL US",
      "datacoverage": 0.8302,
      "id": "GHCND:US1FLLN0079",
      "elevationUnit": "METERS",
      "longitude": -84.271997
    },
    {
      "elevation": 53.3,
      "mindate": "2020-06-17",
      "maxdate": "2025-03-07",
      "latitude": 30.478754,
      "name": "TALLAHASSEE 4.7 ENE, FL US",
      "datacoverage": 1,
      "id": "GHCND:US1FLLN0080",
      "elevationUnit": "METERS",
      "longitude": -84.206402
    },
    {
      "elevation": 42.4,
      "mindate": "2020-09-01",
      "maxdate": "2025-03-05",
      "latitude": 30.50333,
      "name": "TALLAHASSEE 10.6 ENE, FL US",
      "datacoverage": 0.8651,
      "id": "GHCND:US1FLLN0081",
      "elevationUnit": "METERS",
      "longitude": -84.11194
    },
    {
      "elevation": 50.9,
      "mindate": "2020-09-25",
      "maxdate": "2025-03-05",
      "latitude": 30.423307,
      "name": "TALLAHASSEE 2.5 SSE, FL US",
      "datacoverage": 0.7009,
      "id": "GHCND:US1FLLN0082",
      "elevationUnit": "METERS",
      "longitude": -84.268169
    },
    {
      "elevation": 26.8,
      "mindate": "2021-02-10",
      "maxdate": "2025-03-07",
      "latitude": 30.46685,
      "name": "TALLAHASSEE 5.0 E, FL US",
      "datacoverage": 0.9496,
      "id": "GHCND:US1FLLN0084",
      "elevationUnit": "METERS",
      "longitude": -84.198531
    },
    {
      "elevation": 58.5,
      "mindate": "2021-02-14",
      "maxdate": "2021-07-11",
      "latitude": 30.519646,
      "name": "TALLAHASSEE 4.3 N, FL US",
      "datacoverage": 0.9925,
      "id": "GHCND:US1FLLN0085",
      "elevationUnit": "METERS",
      "longitude": -84.280695
    },
    {
      "elevation": 55.8,
      "mindate": "2018-05-20",
      "maxdate": "2023-05-18",
      "latitude": 30.430981,
      "name": "TALLAHASSEE 3.3 ESE, FL US",
      "datacoverage": 0.6532,
      "id": "GHCND:US1FLLN0087",
      "elevationUnit": "METERS",
      "longitude": -84.235352
    },
    {
      "elevation": 34.7,
      "mindate": "2022-06-12",
      "maxdate": "2025-03-07",
      "latitude": 30.5504,
      "name": "TALLAHASSEE 7.6 NNE, FL US",
      "datacoverage": 0.943,
      "id": "GHCND:US1FLLN0089",
      "elevationUnit": "METERS",
      "longitude": -84.2149
    },
    {
      "elevation": 17.7,
      "mindate": "2023-01-29",
      "maxdate": "2025-03-05",
      "latitude": 30.45606,
      "name": "TALLAHASSEE 3.9 E, FL US",
      "datacoverage": 0.6192,
      "id": "GHCND:US1FLLN0091",
      "elevationUnit": "METERS",
      "longitude": -84.21645
    },
    {
      "elevation": 51.2,
      "mindate": "2023-06-19",
      "maxdate": "2024-11-27",
      "latitude": 30.506076,
      "name": "TALLAHASSEE 4.5 NE, FL US",
      "datacoverage": 0.7485,
      "id": "GHCND:US1FLLN0092",
      "elevationUnit": "METERS",
      "longitude": -84.23169
    },
    {
      "elevation": 38.1,
      "mindate": "2023-07-10",
      "maxdate": "2025-03-07",
      "latitude": 30.598802,
      "name": "TALLAHASSEE 9.8 N, FL US",
      "datacoverage": 0.9703,
      "id": "GHCND:US1FLLN0093",
      "elevationUnit": "METERS",
      "longitude": -84.286892
    },
    {
      "elevation": 18.9,
      "mindate": "2007-09-01",
      "maxdate": "2025-03-04",
      "latitude": 29.15689,
      "name": "DUNNELLON 10.1 NW, FL US",
      "datacoverage": 1,
      "id": "GHCND:US1FLLV0001",
      "elevationUnit": "METERS",
      "longitude": -82.561089
    },
    {
      "elevation": 20.7,
      "mindate": "2007-09-01",
      "maxdate": "2018-01-29",
      "latitude": 29.39628,
      "name": "BRONSON 4.4 SE, FL US",
      "datacoverage": 0.9709,
      "id": "GHCND:US1FLLV0002",
      "elevationUnit": "METERS",
      "longitude": -82.59597
    },
    {
      "elevation": 27.1,
      "mindate": "2007-09-01",
      "maxdate": "2022-07-28",
      "latitude": 29.42081,
      "name": "BRONSON 3.0 SE, FL US",
      "datacoverage": 0.9223,
      "id": "GHCND:US1FLLV0004",
      "elevationUnit": "METERS",
      "longitude": -82.60151
    },
    {
      "elevation": 15.8,
      "mindate": "2008-02-01",
      "maxdate": "2019-11-24",
      "latitude": 29.503061,
      "name": "CHIEFLAND 8.5 ENE, FL US",
      "datacoverage": 1,
      "id": "GHCND:US1FLLV0009",
      "elevationUnit": "METERS",
      "longitude": -82.722588
    },
    {
      "elevation": 9.1,
      "mindate": "2011-03-01",
      "maxdate": "2018-08-04",
      "latitude": 29.46402223,
      "name": "CHIEFLAND 2.4 WSW, FL US",
      "datacoverage": 0.9993,
      "id": "GHCND:US1FLLV0010",
      "elevationUnit": "METERS",
      "longitude": -82.89752784
    },
    {
      "elevation": 1.2,
      "mindate": "2012-09-01",
      "maxdate": "2015-04-17",
      "latitude": 29.0371953,
      "name": "YANKEETOWN 4.2 E, FL US",
      "datacoverage": 0.8768,
      "id": "GHCND:US1FLLV0012",
      "elevationUnit": "METERS",
      "longitude": -82.6898279
    },
    {
      "elevation": 21,
      "mindate": "2019-05-20",
      "maxdate": "2022-12-01",
      "latitude": 29.442021,
      "name": "WILLISTON 6.9 NW, FL US",
      "datacoverage": 0.6981,
      "id": "GHCND:US1FLLV0014",
      "elevationUnit": "METERS",
      "longitude": -82.535997
    },
    {
      "elevation": 10.4,
      "mindate": "2019-06-25",
      "maxdate": "2025-03-06",
      "latitude": 29.04094,
      "name": "INGLIS 0.6 N, FL US",
      "datacoverage": 0.9999,
      "id": "GHCND:US1FLLV0015",
      "elevationUnit": "METERS",
      "longitude": -82.65981
    },
    {
      "elevation": 10.7,
      "mindate": "2019-11-23",
      "maxdate": "2023-08-29",
      "latitude": 29.499052,
      "name": "CHIEFLAND 1.4 NNW, FL US",
      "datacoverage": 0.9998,
      "id": "GHCND:US1FLLV0017",
      "elevationUnit": "METERS",
      "longitude": -82.866648
    },
    {
      "elevation": 14.9,
      "mindate": "2021-08-01",
      "maxdate": "2025-03-07",
      "latitude": 29.042859,
      "name": "DUNNELLON 7.4 W, FL US",
      "datacoverage": 0.9565,
      "id": "GHCND:US1FLLV0018",
      "elevationUnit": "METERS",
      "longitude": -82.570069
    },
    {
      "elevation": 25.9,
      "mindate": "1998-06-21",
      "maxdate": "2025-03-07",
      "latitude": 29.47948,
      "name": "ARCHER 6.7 SW, FL US",
      "datacoverage": 0.9011,
      "id": "GHCND:US1FLLV0019",
      "elevationUnit": "METERS",
      "longitude": -82.61088
    },
    {
      "elevation": 29,
      "mindate": "2024-06-25",
      "maxdate": "2025-03-06",
      "latitude": 29.4119033,
      "name": "BRONSON 3.0 SSE, FL US",
      "datacoverage": 0.9925,
      "id": "GHCND:US1FLLV0021",
      "elevationUnit": "METERS",
      "longitude": -82.6116133
    },
    {
      "elevation": 1.2,
      "mindate": "2007-10-01",
      "maxdate": "2012-04-27",
      "latitude": 27.403811,
      "name": "LONGBOAT KEY 1.4 NW, FL US",
      "datacoverage": 0.9455,
      "id": "GHCND:US1FLMA0002",
      "elevationUnit": "METERS",
      "longitude": -82.650618
    },
    {
      "elevation": 4.9,
      "mindate": "2007-10-01",
      "maxdate": "2019-03-20",
      "latitude": 27.523677,
      "name": "PALMETTO 1.2 W, FL US",
      "datacoverage": 0.9803,
      "id": "GHCND:US1FLMA0003",
      "elevationUnit": "METERS",
      "longitude": -82.597502
    },
    {
      "elevation": 36,
      "mindate": "2007-10-01",
      "maxdate": "2015-11-01",
      "latitude": 27.596917,
      "name": "WIMAUMA 10.8 SE, FL US",
      "datacoverage": 1,
      "id": "GHCND:US1FLMA0004",
      "elevationUnit": "METERS",
      "longitude": -82.189485
    },
    {
      "elevation": 2.1,
      "mindate": "2007-10-01",
      "maxdate": "2009-09-01",
      "latitude": 27.533148,
      "name": "ELLENTON 6.9 E, FL US",
      "datacoverage": 0.9993,
      "id": "GHCND:US1FLMA0005",
      "elevationUnit": "METERS",
      "longitude": -82.416175
    },
    {
      "elevation": 10.1,
      "mindate": "2007-11-01",
      "maxdate": "2025-03-07",
      "latitude": 27.54,
      "name": "ELLENTON 6.6 E, FL US",
      "datacoverage": 1,
      "id": "GHCND:US1FLMA0006",
      "elevationUnit": "METERS",
      "longitude": -82.422
    },
    {
      "elevation": 2.7,
      "mindate": "2008-07-01",
      "maxdate": "2018-01-13",
      "latitude": 27.482778,
      "name": "BRADENTON 0.4 SSE, FL US",
      "datacoverage": 0.998,
      "id": "GHCND:US1FLMA0007",
      "elevationUnit": "METERS",
      "longitude": -82.577475
    },
    {
      "elevation": 7,
      "mindate": "2008-07-01",
      "maxdate": "2010-03-13",
      "latitude": 27.494177,
      "name": "BRADENTON 3.6 W, FL US",
      "datacoverage": 1,
      "id": "GHCND:US1FLMA0008",
      "elevationUnit": "METERS",
      "longitude": -82.637289
    },
    {
      "elevation": 7.3,
      "mindate": "2009-07-01",
      "maxdate": "2012-09-01",
      "latitude": 27.548149,
      "name": "ELLENTON 2.2 NE, FL US",
      "datacoverage": 0.9992,
      "id": "GHCND:US1FLMA0009",
      "elevationUnit": "METERS",
      "longitude": -82.504902
    },
    {
      "elevation": 18,
      "mindate": "2009-12-01",
      "maxdate": "2025-03-07",
      "latitude": 27.430921,
      "name": "BRADENTON 10.8 SE, FL US",
      "datacoverage": 1,
      "id": "GHCND:US1FLMA0010",
      "elevationUnit": "METERS",
      "longitude": -82.415236
    },
    {
      "elevation": 5.8,
      "mindate": "2010-07-01",
      "maxdate": "2021-11-05",
      "latitude": 27.476793,
      "name": "BRADENTON 2.0 WSW, FL US",
      "datacoverage": 0.8083,
      "id": "GHCND:US1FLMA0011",
      "elevationUnit": "METERS",
      "longitude": -82.609371
    },
    {
      "mindate": "2012-08-01",
      "maxdate": "2016-08-20",
      "latitude": 27.4050617218018,
      "name": "LAKEWOOD RANCH 7.0 E, FL US",
      "datacoverage": 1,
      "id": "GHCND:US1FLMA0014",
      "longitude": -82.3136749267578
    },
    {
      "elevation": 6.1,
      "mindate": "2013-07-01",
      "maxdate": "2021-07-07",
      "latitude": 27.4969043731689,
      "name": "BRADENTON 8.8 E, FL US",
      "datacoverage": 0.9599,
      "id": "GHCND:US1FLMA0015",
      "elevationUnit": "METERS",
      "longitude": -82.431770324707
    },
    {
      "elevation": 9.1,
      "mindate": "2012-10-01",
      "maxdate": "2015-04-25",
      "latitude": 27.595696,
      "name": "PALMETTO 5.8 NNE, FL US",
      "datacoverage": 0.8142,
      "id": "GHCND:US1FLMA0016",
      "elevationUnit": "METERS",
      "longitude": -82.531842
    },
    {
      "elevation": 4.3,
      "mindate": "2013-06-15",
      "maxdate": "2025-03-06",
      "latitude": 27.518187,
      "name": "BRADENTON 4.9 WNW, FL US",
      "datacoverage": 0.9411,
      "id": "GHCND:US1FLMA0017",
      "elevationUnit": "METERS",
      "longitude": -82.651069
    },
    {
      "elevation": 6.4,
      "mindate": "2014-03-01",
      "maxdate": "2025-03-06",
      "latitude": 27.504967,
      "name": "BRADENTON 11.0 E, FL US",
      "datacoverage": 0.9986,
      "id": "GHCND:US1FLMA0018",
      "elevationUnit": "METERS",
      "longitude": -82.400487
    },
    {
      "elevation": 3.4,
      "mindate": "2015-06-07",
      "maxdate": "2025-03-05",
      "latitude": 27.50992,
      "name": "BRADENTON 3.5 WNW, FL US",
      "datacoverage": 0.4427,
      "id": "GHCND:US1FLMA0020",
      "elevationUnit": "METERS",
      "longitude": -82.62971
    },
    {
      "elevation": 3.4,
      "mindate": "2016-02-19",
      "maxdate": "2019-05-06",
      "latitude": 27.423676,
      "name": "SARASOTA 6.4 NNE, FL US",
      "datacoverage": 0.9154,
      "id": "GHCND:US1FLMA0021",
      "elevationUnit": "METERS",
      "longitude": -82.492256
    },
    {
      "elevation": 9.4,
      "mindate": "2016-05-30",
      "maxdate": "2024-06-11",
      "latitude": 27.562194,
      "name": "PALMETTO 6.4 ENE, FL US",
      "datacoverage": 0.9894,
      "id": "GHCND:US1FLMA0022",
      "elevationUnit": "METERS",
      "longitude": -82.483024
    },
    {
      "elevation": 0.9,
      "mindate": "2018-03-08",
      "maxdate": "2021-01-04",
      "latitude": 27.497916,
      "name": "SAMOSET 1.7 NNE, FL US",
      "datacoverage": 0.9986,
      "id": "GHCND:US1FLMA0026",
      "elevationUnit": "METERS",
      "longitude": -82.528035
    },
    {
      "elevation": 0.6,
      "mindate": "2018-03-22",
      "maxdate": "2024-09-28",
      "latitude": 27.531919,
      "name": "ANNA MARIA 0.2 NNE, FL US",
      "datacoverage": 0.5212,
      "id": "GHCND:US1FLMA0028",
      "elevationUnit": "METERS",
      "longitude": -82.731688
    },
    {
      "elevation": 11.9,
      "mindate": "2018-05-01",
      "maxdate": "2025-03-07",
      "latitude": 27.413209,
      "name": "LAKEWOOD RANCH 3.5 E, FL US",
      "datacoverage": 0.9999,
      "id": "GHCND:US1FLMA0029",
      "elevationUnit": "METERS",
      "longitude": -82.368345
    },
    {
      "elevation": 8.2,
      "mindate": "2018-05-28",
      "maxdate": "2020-09-29",
      "latitude": 27.5245,
      "name": "PARRISH 5.5 SE, FL US",
      "datacoverage": 0.5654,
      "id": "GHCND:US1FLMA0030",
      "elevationUnit": "METERS",
      "longitude": -82.36907
    },
    {
      "elevation": 11.9,
      "mindate": "2018-07-31",
      "maxdate": "2025-03-07",
      "latitude": 27.427464,
      "name": "THE MEADOWS 6.2 NE, FL US",
      "datacoverage": 1,
      "id": "GHCND:US1FLMA0032",
      "elevationUnit": "METERS",
      "longitude": -82.400139
    },
    {
      "elevation": 12.8,
      "mindate": "2018-01-31",
      "maxdate": "2021-08-17",
      "latitude": 27.450213,
      "name": "THE MEADOWS 7.0 NNE, FL US",
      "datacoverage": 1,
      "id": "GHCND:US1FLMA0033",
      "elevationUnit": "METERS",
      "longitude": -82.413666
    },
    {
      "elevation": 7.9,
      "mindate": "2019-03-11",
      "maxdate": "2024-10-08",
      "latitude": 27.45468,
      "name": "SAMOSET 4.7 ESE, FL US",
      "datacoverage": 0.9994,
      "id": "GHCND:US1FLMA0034",
      "elevationUnit": "METERS",
      "longitude": -82.46942
    },
    {
      "elevation": 8.5,
      "mindate": "2019-07-20",
      "maxdate": "2020-06-05",
      "latitude": 27.393139,
      "name": "SARASOTA 5.4 NE, FL US",
      "datacoverage": 0.8789,
      "id": "GHCND:US1FLMA0035",
      "elevationUnit": "METERS",
      "longitude": -82.486196
    },
    {
      "elevation": 6.4,
      "mindate": "2020-07-01",
      "maxdate": "2023-12-17",
      "latitude": 27.411907,
      "name": "THE MEADOWS 4.4 NE, FL US",
      "datacoverage": 0.2306,
      "id": "GHCND:US1FLMA0037",
      "elevationUnit": "METERS",
      "longitude": -82.426655
    },
    {
      "elevation": 7.3,
      "mindate": "2020-06-26",
      "maxdate": "2025-03-07",
      "latitude": 27.475617,
      "name": "BRADENTON 1.4 SW, FL US",
      "datacoverage": 1,
      "id": "GHCND:US1FLMA0038",
      "elevationUnit": "METERS",
      "longitude": -82.597401
    },
    {
      "elevation": 7,
      "mindate": "2020-09-30",
      "maxdate": "2025-03-02",
      "latitude": 27.523869,
      "name": "PARRISH 5.6 SE, FL US",
      "datacoverage": 0.7536,
      "id": "GHCND:US1FLMA0040",
      "elevationUnit": "METERS",
      "longitude": -82.37319
    },
    {
      "elevation": 5.8,
      "mindate": "2020-10-13",
      "maxdate": "2025-03-07",
      "latitude": 27.403932,
      "name": "SARASOTA 5.9 NE, FL US",
      "datacoverage": 0.8712,
      "id": "GHCND:US1FLMA0041",
      "elevationUnit": "METERS",
      "longitude": -82.488508
    },
    {
      "elevation": 0.9,
      "mindate": "2021-01-16",
      "maxdate": "2025-03-07",
      "latitude": 27.488558,
      "name": "CORTEZ 1.5 NNW, FL US",
      "datacoverage": 0.3466,
      "id": "GHCND:US1FLMA0042",
      "elevationUnit": "METERS",
      "longitude": -82.681792
    },
    {
      "elevation": 11,
      "mindate": "2021-02-15",
      "maxdate": "2025-03-05",
      "latitude": 27.4272943,
      "name": "DESOTO LAKES 4.2 NNE, FL US",
      "datacoverage": 0.9527,
      "id": "GHCND:US1FLMA0043",
      "elevationUnit": "METERS",
      "longitude": -82.4633771
    },
    {
      "elevation": 8.5,
      "mindate": "2021-08-01",
      "maxdate": "2023-12-29",
      "latitude": 27.446258,
      "name": "THE MEADOWS 7.3 NE, FL US",
      "datacoverage": 0.9998,
      "id": "GHCND:US1FLMA0044",
      "elevationUnit": "METERS",
      "longitude": -82.399045
    },
    {
      "elevation": 8.5,
      "mindate": "2023-06-01",
      "maxdate": "2025-03-07",
      "latitude": 27.609855,
      "name": "PALMETTO 7.8 NE, FL US",
      "datacoverage": 0.9126,
      "id": "GHCND:US1FLMA0050",
      "elevationUnit": "METERS",
      "longitude": -82.498996
    },
    {
      "elevation": 1.8,
      "mindate": "2024-05-31",
      "maxdate": "2025-03-02",
      "latitude": 27.527095,
      "name": "PARRISH 5.0 SSE, FL US",
      "datacoverage": 0.8297,
      "id": "GHCND:US1FLMA0052",
      "elevationUnit": "METERS",
      "longitude": -82.396403
    },
    {
      "elevation": 0.9,
      "mindate": "2007-09-01",
      "maxdate": "2011-07-06",
      "latitude": 25.8444,
      "name": "MIAMI 4.9 NNE, FL US",
      "datacoverage": 1,
      "id": "GHCND:US1FLMD0002",
      "elevationUnit": "METERS",
      "longitude": -80.18033
    },
    {
      "elevation": 7.9,
      "mindate": "2007-09-01",
      "maxdate": "2025-03-05",
      "latitude": 25.6682,
      "name": "LINDGREN ACRES 0.5 WSW, FL US",
      "datacoverage": 1,
      "id": "GHCND:US1FLMD0003",
      "elevationUnit": "METERS",
      "longitude": -80.4087
    },
    {
      "elevation": 7.9,
      "mindate": "2007-10-01",
      "maxdate": "2014-11-14",
      "latitude": 25.94,
      "name": "MIAMI LAKES 2.1 N, FL US",
      "datacoverage": 0.9882,
      "id": "GHCND:US1FLMD0006",
      "elevationUnit": "METERS",
      "longitude": -80.32
    },
    {
      "elevation": 11,
      "mindate": "2007-10-01",
      "maxdate": "2025-03-06",
      "latitude": 25.683459,
      "name": "SUNSET 2.4 SW, FL US",
      "datacoverage": 0.9999,
      "id": "GHCND:US1FLMD0007",
      "elevationUnit": "METERS",
      "longitude": -80.381546
    },
    {
      "elevation": 10.1,
      "mindate": "2007-10-01",
      "maxdate": "2013-12-26",
      "latitude": 25.780883,
      "name": "TAMIAMI 1.6 N, FL US",
      "datacoverage": 0.9462,
      "id": "GHCND:US1FLMD0008",
      "elevationUnit": "METERS",
      "longitude": -80.398371
    },
    {
      "elevation": 7,
      "mindate": "2007-12-01",
      "maxdate": "2010-12-03",
      "latitude": 25.5715,
      "name": "SOUTH MIAMI HEIGHTS 1.3 SSW, FL US",
      "datacoverage": 0.8973,
      "id": "GHCND:US1FLMD0010",
      "elevationUnit": "METERS",
      "longitude": -80.39476
    },
    {
      "elevation": 1.5,
      "mindate": "2008-06-01",
      "maxdate": "2012-08-28",
      "latitude": 25.616593,
      "name": "CUTLER 1.3 SW, FL US",
      "datacoverage": 0.9512,
      "id": "GHCND:US1FLMD0017",
      "elevationUnit": "METERS",
      "longitude": -80.332887
    },
    {
      "elevation": 2.7,
      "mindate": "2009-04-01",
      "maxdate": "2025-03-06",
      "latitude": 25.665,
      "name": "HAMMOCKS 0.5 SSE, FL US",
      "datacoverage": 0.9999,
      "id": "GHCND:US1FLMD0022",
      "elevationUnit": "METERS",
      "longitude": -80.4395
    },
    {
      "elevation": 1.2,
      "mindate": "2009-05-01",
      "maxdate": "2020-06-15",
      "latitude": 25.734859,
      "name": "MIAMI 4.1 SE, FL US",
      "datacoverage": 0.9997,
      "id": "GHCND:US1FLMD0023",
      "elevationUnit": "METERS",
      "longitude": -80.163581
    },
    {
      "elevation": 0.9,
      "mindate": "2009-11-01",
      "maxdate": "2025-03-07",
      "latitude": 25.913604,
      "name": "MIAMI LAKES 0.3 NNW, FL US",
      "datacoverage": 1,
      "id": "GHCND:US1FLMD0026",
      "elevationUnit": "METERS",
      "longitude": -80.316509
    },
    {
      "elevation": 1.5,
      "mindate": "2011-09-01",
      "maxdate": "2012-08-12",
      "latitude": 25.717087,
      "name": "CORAL GABLES 1.8 NNW, FL US",
      "datacoverage": 0.9148,
      "id": "GHCND:US1FLMD0029",
      "elevationUnit": "METERS",
      "longitude": -80.279506
    },
    {
      "elevation": 1.2,
      "mindate": "2011-01-01",
      "maxdate": "2023-10-25",
      "latitude": 25.715589,
      "name": "SOUTH MIAMI 0.5 N, FL US",
      "datacoverage": 1,
      "id": "GHCND:US1FLMD0030",
      "elevationUnit": "METERS",
      "longitude": -80.296772
    },
    {
      "elevation": 0.9,
      "mindate": "2011-09-01",
      "maxdate": "2014-08-13",
      "latitude": 25.829661,
      "name": "DORAL 1.9 WNW, FL US",
      "datacoverage": 0.9998,
      "id": "GHCND:US1FLMD0032",
      "elevationUnit": "METERS",
      "longitude": -80.384293
    },
    {
      "elevation": 2.4,
      "mindate": "2012-06-01",
      "maxdate": "2025-03-06",
      "latitude": 25.881971,
      "name": "BISCAYNE PARK 0.3 E, FL US",
      "datacoverage": 1,
      "id": "GHCND:US1FLMD0033",
      "elevationUnit": "METERS",
      "longitude": -80.176893
    },
    {
      "elevation": 2.4,
      "mindate": "2013-01-01",
      "maxdate": "2019-11-12",
      "latitude": 25.71793,
      "name": "SUNSET 1.1 NE, FL US",
      "datacoverage": 1,
      "id": "GHCND:US1FLMD0036",
      "elevationUnit": "METERS",
      "longitude": -80.340209
    },
    {
      "elevation": 1.5,
      "mindate": "2014-01-01",
      "maxdate": "2017-09-07",
      "latitude": 25.903217,
      "name": "NORTH MIAMI 1.4 W, FL US",
      "datacoverage": 0.6432,
      "id": "GHCND:US1FLMD0039",
      "elevationUnit": "METERS",
      "longitude": -80.191433
    },
    {
      "elevation": 1.8,
      "mindate": "2014-03-01",
      "maxdate": "2019-03-11",
      "latitude": 25.7417011260986,
      "name": "MIAMI 6.7 WSW, FL US",
      "datacoverage": 0.9986,
      "id": "GHCND:US1FLMD0040",
      "elevationUnit": "METERS",
      "longitude": -80.3221740722656
    },
    {
      "elevation": 2.4,
      "mindate": "2013-01-01",
      "maxdate": "2025-03-05",
      "latitude": 25.6633578,
      "name": "LINDGREN ACRES 0.7 SW, FL US",
      "datacoverage": 0.9989,
      "id": "GHCND:US1FLMD0041",
      "elevationUnit": "METERS",
      "longitude": -80.4096612
    },
    {
      "elevation": 2.4,
      "mindate": "1998-06-17",
      "maxdate": "2024-06-14",
      "latitude": 25.6956787109375,
      "name": "SOUTH MIAMI 0.9 SSE, FL US",
      "datacoverage": 0.9986,
      "id": "GHCND:US1FLMD0042",
      "elevationUnit": "METERS",
      "longitude": -80.2892990112305
    }
  ]
}
