{
  "metadata": {
    "resultset": {
      "offset": 151000,
      "count": 154115,
      "limit": 100
    }
  },
  "results": [
    {
      "elevation": 523,
      "mindate": "1972-04-01",
      "maxdate": "1985-10-31",
      "latitude": -28.2,
      "name": "TAFELBERG, WA",
      "datacoverage": 0.9937,
      "id": "GHCND:WA003102220",
      "elevationUnit": "METERS",
      "longitude": 17.63
    },
    {
      "elevation": 840,
      "mindate": "1972-03-01",
      "maxdate": "1986-05-31",
      "latitude": -28.48,
      "name": "HARIB, WA",
      "datacoverage": 0.971,
      "id": "GHCND:WA003114490",
      "elevationUnit": "METERS",
      "longitude": 18.25
    },
    {
      "elevation": 970,
      "mindate": "1968-01-01",
      "maxdate": "1986-05-31",
      "latitude": -28.12,
      "name": "NARUCHAS, WA",
      "datacoverage": 0.8882,
      "id": "GHCND:WA003123970",
      "elevationUnit": "METERS",
      "longitude": 18.73
    },
    {
      "elevation": 705,
      "mindate": "1968-01-01",
      "maxdate": "1982-11-30",
      "latitude": -28.45,
      "name": "WARMBAD, WA",
      "datacoverage": 0.866,
      "id": "GHCND:WA003124170",
      "elevationUnit": "METERS",
      "longitude": 18.73
    },
    {
      "elevation": 1000,
      "mindate": "1968-01-01",
      "maxdate": "1986-05-31",
      "latitude": -28.03,
      "name": "KARASBURG, WA",
      "datacoverage": 0.8735,
      "id": "GHCND:WA003124220",
      "elevationUnit": "METERS",
      "longitude": 18.75
    },
    {
      "elevation": 888,
      "mindate": "1968-09-01",
      "maxdate": "1986-05-31",
      "latitude": -28.48,
      "name": "KAIS SUIO, WA",
      "datacoverage": 0.9327,
      "id": "GHCND:WA003127790",
      "elevationUnit": "METERS",
      "longitude": 18.93
    },
    {
      "elevation": 800,
      "mindate": "1968-01-01",
      "maxdate": "1986-05-31",
      "latitude": -28.03,
      "name": "HEIRACHABIS, WA",
      "datacoverage": 0.8735,
      "id": "GHCND:WA003140320",
      "elevationUnit": "METERS",
      "longitude": 19.53
    },
    {
      "elevation": 800,
      "mindate": "1968-01-01",
      "maxdate": "1986-05-31",
      "latitude": -28.03,
      "name": "UKAMAS, WA",
      "datacoverage": 0.8779,
      "id": "GHCND:WA003144820",
      "elevationUnit": "METERS",
      "longitude": 19.78
    },
    {
      "elevation": 774,
      "mindate": "1968-01-01",
      "maxdate": "1986-05-31",
      "latitude": -28.12,
      "name": "ARIAMSVLEI, WA",
      "datacoverage": 0.8644,
      "id": "GHCND:WA003145770",
      "elevationUnit": "METERS",
      "longitude": 19.83
    },
    {
      "elevation": 1005,
      "mindate": "1968-01-01",
      "maxdate": "1986-05-31",
      "latitude": -27.78,
      "name": "GRUNAU, WA",
      "datacoverage": 0.8882,
      "id": "GHCND:WA003475270",
      "elevationUnit": "METERS",
      "longitude": 18.3
    },
    {
      "elevation": 959,
      "mindate": "1968-01-01",
      "maxdate": "1986-05-31",
      "latitude": -27.87,
      "name": "NOIBIS, WA",
      "datacoverage": 0.8734,
      "id": "GHCND:WA003490820",
      "elevationUnit": "METERS",
      "longitude": 19.05
    },
    {
      "elevation": 1020,
      "mindate": "1971-01-01",
      "maxdate": "1985-12-31",
      "latitude": -27.63,
      "name": "BUINKOOG, WA",
      "datacoverage": 1,
      "id": "GHCND:WA003491580",
      "elevationUnit": "METERS",
      "longitude": 19.1
    },
    {
      "elevation": 850,
      "mindate": "1968-01-01",
      "maxdate": "1986-05-31",
      "latitude": -27.88,
      "name": "NABAS, WA",
      "datacoverage": 0.8882,
      "id": "GHCND:WA003501130",
      "elevationUnit": "METERS",
      "longitude": 19.57
    },
    {
      "elevation": 848,
      "mindate": "1968-01-01",
      "maxdate": "1986-05-31",
      "latitude": -27.52,
      "name": "NIMMERRUST, WA",
      "datacoverage": 0.8882,
      "id": "GHCND:WA003501510",
      "elevationUnit": "METERS",
      "longitude": 19.6
    },
    {
      "elevation": 853,
      "mindate": "1968-01-01",
      "maxdate": "1986-05-31",
      "latitude": -27.83,
      "name": "SWARTKOP, WA",
      "datacoverage": 0.8816,
      "id": "GHCND:WA003503500",
      "elevationUnit": "METERS",
      "longitude": 19.7
    },
    {
      "elevation": 820,
      "mindate": "1968-01-01",
      "maxdate": "1986-05-31",
      "latitude": -27.53,
      "name": "DAUIGNAB, WA",
      "datacoverage": 0.8512,
      "id": "GHCND:WA003505420",
      "elevationUnit": "METERS",
      "longitude": 19.82
    },
    {
      "elevation": 1380,
      "mindate": "1968-01-01",
      "maxdate": "1982-08-31",
      "latitude": -27.15,
      "name": "ROOIBERG, WA",
      "datacoverage": 0.8636,
      "id": "GHCND:WA003805190",
      "elevationUnit": "METERS",
      "longitude": 16.8
    },
    {
      "elevation": 704,
      "mindate": "1968-01-01",
      "maxdate": "1985-12-31",
      "latitude": -27.2,
      "name": "OASE, WA",
      "datacoverage": 0.8796,
      "id": "GHCND:WA003826120",
      "elevationUnit": "METERS",
      "longitude": 17.85
    },
    {
      "elevation": 1405,
      "mindate": "1968-01-01",
      "maxdate": "1986-05-31",
      "latitude": -27.38,
      "name": "NOACHABEB, WA",
      "datacoverage": 0.8689,
      "id": "GHCND:WA003840230",
      "elevationUnit": "METERS",
      "longitude": 18.52
    },
    {
      "elevation": 1615,
      "mindate": "1968-01-01",
      "maxdate": "1986-05-31",
      "latitude": -27.3,
      "name": "RISHOW, WA",
      "datacoverage": 0.8508,
      "id": "GHCND:WA003844080",
      "elevationUnit": "METERS",
      "longitude": 18.73
    },
    {
      "elevation": 1390,
      "mindate": "1968-01-01",
      "maxdate": "1986-05-31",
      "latitude": -27.2,
      "name": "KOTZEKOUS, WA",
      "datacoverage": 0.8882,
      "id": "GHCND:WA003848520",
      "elevationUnit": "METERS",
      "longitude": 18.98
    },
    {
      "elevation": 1250,
      "mindate": "1968-01-01",
      "maxdate": "1986-05-31",
      "latitude": -27.38,
      "name": "HANGAS, WA",
      "datacoverage": 0.8779,
      "id": "GHCND:WA003852330",
      "elevationUnit": "METERS",
      "longitude": 19.13
    },
    {
      "elevation": 1020,
      "mindate": "1968-01-01",
      "maxdate": "1986-04-30",
      "latitude": -27.1,
      "name": "WARMFONTEIN, WA",
      "datacoverage": 0.8816,
      "id": "GHCND:WA003855160",
      "elevationUnit": "METERS",
      "longitude": 19.3
    },
    {
      "elevation": 940,
      "mindate": "1960-01-01",
      "maxdate": "1986-02-28",
      "latitude": -26.63,
      "name": "AUSWEICHE",
      "datacoverage": 0.9778,
      "id": "GHCND:WA004131580",
      "elevationUnit": "METERS",
      "longitude": 15.1
    },
    {
      "elevation": 1200,
      "mindate": "1968-01-01",
      "maxdate": "1986-05-31",
      "latitude": -26.75,
      "name": "TSIRUB, WA",
      "datacoverage": 0.8882,
      "id": "GHCND:WA004150450",
      "elevationUnit": "METERS",
      "longitude": 16.03
    },
    {
      "elevation": 1480,
      "mindate": "1968-01-01",
      "maxdate": "1985-12-31",
      "latitude": -26.68,
      "name": "AUSNEK, WA",
      "datacoverage": 0.8888,
      "id": "GHCND:WA004155510",
      "elevationUnit": "METERS",
      "longitude": 16.32
    },
    {
      "elevation": 1345,
      "mindate": "1968-01-01",
      "maxdate": "1986-05-31",
      "latitude": -26.8,
      "name": "TSACHANABIS, WA",
      "datacoverage": 0.8824,
      "id": "GHCND:WA004162280",
      "elevationUnit": "METERS",
      "longitude": 16.63
    },
    {
      "elevation": 1370,
      "mindate": "1968-01-01",
      "maxdate": "1986-05-31",
      "latitude": -26.68,
      "name": "GUIBES, WA",
      "datacoverage": 0.8779,
      "id": "GHCND:WA004166110",
      "elevationUnit": "METERS",
      "longitude": 16.85
    },
    {
      "elevation": 940,
      "mindate": "1968-01-01",
      "maxdate": "1983-06-30",
      "latitude": -26.75,
      "name": "GOAGEB, WA",
      "datacoverage": 0.7421,
      "id": "GHCND:WA004174050",
      "elevationUnit": "METERS",
      "longitude": 17.23
    },
    {
      "elevation": 705,
      "mindate": "1973-01-01",
      "maxdate": "1986-05-31",
      "latitude": -26.82,
      "name": "SEEHEIM, WA",
      "datacoverage": 0.9009,
      "id": "GHCND:WA004185290",
      "elevationUnit": "METERS",
      "longitude": 17.8
    },
    {
      "elevation": 1077,
      "mindate": "1949-01-01",
      "maxdate": "2025-03-06",
      "latitude": -26.53,
      "name": "J.G.H. VAN DER WATH AIRP, WA",
      "datacoverage": 0.9812,
      "id": "GHCND:WA004191820",
      "elevationUnit": "METERS",
      "longitude": 18.12
    },
    {
      "elevation": 980,
      "mindate": "1968-01-01",
      "maxdate": "1986-05-31",
      "latitude": -26.58,
      "name": "KEETMANSHOOP, WA",
      "datacoverage": 0.8329,
      "id": "GHCND:WA004192150",
      "elevationUnit": "METERS",
      "longitude": 18.13
    },
    {
      "elevation": 900,
      "mindate": "1968-01-01",
      "maxdate": "1986-05-31",
      "latitude": -26.57,
      "name": "STAMPRIET, WA",
      "datacoverage": 0.8644,
      "id": "GHCND:WA004202140",
      "elevationUnit": "METERS",
      "longitude": 18.63
    },
    {
      "elevation": 990,
      "mindate": "1968-01-01",
      "maxdate": "1985-12-31",
      "latitude": -26.6,
      "name": "SALZTAL, WA",
      "datacoverage": 0.8888,
      "id": "GHCND:WA004216960",
      "elevationUnit": "METERS",
      "longitude": 19.4
    },
    {
      "elevation": 970,
      "mindate": "1968-01-01",
      "maxdate": "1986-05-31",
      "latitude": -26.78,
      "name": "AROAB, WA",
      "datacoverage": 0.8882,
      "id": "GHCND:WA004222570",
      "elevationUnit": "METERS",
      "longitude": 19.65
    },
    {
      "elevation": 918,
      "mindate": "1968-01-01",
      "maxdate": "1986-05-31",
      "latitude": -26.97,
      "name": "LOUWSVLEI, WA",
      "datacoverage": 0.8882,
      "id": "GHCND:WA004225380",
      "elevationUnit": "METERS",
      "longitude": 19.8
    },
    {
      "elevation": 1600,
      "mindate": "1968-01-01",
      "maxdate": "1986-05-31",
      "latitude": -26.12,
      "name": "MERICO, WA",
      "datacoverage": 0.8882,
      "id": "GHCND:WA004528170",
      "elevationUnit": "METERS",
      "longitude": 16.47
    },
    {
      "elevation": 1000,
      "mindate": "1968-01-01",
      "maxdate": "1986-05-31",
      "latitude": -26.5,
      "name": "BETHANIEN, WA",
      "datacoverage": 0.8882,
      "id": "GHCND:WA004542700",
      "elevationUnit": "METERS",
      "longitude": 17.15
    },
    {
      "elevation": 1140,
      "mindate": "1968-01-01",
      "maxdate": "1986-05-31",
      "latitude": -26.45,
      "name": "GELLAP, WA",
      "datacoverage": 0.9993,
      "id": "GHCND:WA004560270",
      "elevationUnit": "METERS",
      "longitude": 18.02
    },
    {
      "elevation": 1006,
      "mindate": "1968-01-01",
      "maxdate": "1986-05-31",
      "latitude": -26.15,
      "name": "MORGENZON, WA",
      "datacoverage": 0.8055,
      "id": "GHCND:WA004586390",
      "elevationUnit": "METERS",
      "longitude": 19.37
    },
    {
      "elevation": 1450,
      "mindate": "1968-01-01",
      "maxdate": "1986-04-30",
      "latitude": -25.6,
      "name": "DOPPELKUPPE, WA",
      "datacoverage": 0.8729,
      "id": "GHCND:WA004893360",
      "elevationUnit": "METERS",
      "longitude": 16.2
    },
    {
      "elevation": 1620,
      "mindate": "1968-01-01",
      "maxdate": "1986-05-31",
      "latitude": -25.7,
      "name": "ROOIRAND, WA",
      "datacoverage": 0.8689,
      "id": "GHCND:WA004901320",
      "elevationUnit": "METERS",
      "longitude": 16.58
    },
    {
      "elevation": 1390,
      "mindate": "1968-01-01",
      "maxdate": "1986-05-31",
      "latitude": -25.88,
      "name": "HELMERINGHAUSEN, WA",
      "datacoverage": 0.8882,
      "id": "GHCND:WA004906230",
      "elevationUnit": "METERS",
      "longitude": 16.85
    },
    {
      "elevation": 1735,
      "mindate": "1968-01-01",
      "maxdate": "1986-04-30",
      "latitude": -25.53,
      "name": "NEU MAGUAMS, WA",
      "datacoverage": 0.8729,
      "id": "GHCND:WA004906620",
      "elevationUnit": "METERS",
      "longitude": 16.88
    },
    {
      "elevation": 1480,
      "mindate": "1968-01-01",
      "maxdate": "1986-04-30",
      "latitude": -25.53,
      "name": "ZACKENBERGE, WA",
      "datacoverage": 0.8882,
      "id": "GHCND:WA004912120",
      "elevationUnit": "METERS",
      "longitude": 17.13
    },
    {
      "elevation": 1413,
      "mindate": "1968-01-01",
      "maxdate": "1986-05-31",
      "latitude": -25.95,
      "name": "ALSUMA, WA",
      "datacoverage": 0.8508,
      "id": "GHCND:WA004913570",
      "elevationUnit": "METERS",
      "longitude": 17.2
    },
    {
      "elevation": 925,
      "mindate": "1968-01-01",
      "maxdate": "1986-05-31",
      "latitude": -25.98,
      "name": "BERSEBA, WA",
      "datacoverage": 0.8882,
      "id": "GHCND:WA004925090",
      "elevationUnit": "METERS",
      "longitude": 17.78
    },
    {
      "elevation": 980,
      "mindate": "1968-01-01",
      "maxdate": "1986-05-31",
      "latitude": -25.88,
      "name": "TSES, WA",
      "datacoverage": 0.8734,
      "id": "GHCND:WA004932330",
      "elevationUnit": "METERS",
      "longitude": 18.13
    },
    {
      "elevation": 985,
      "mindate": "1968-01-01",
      "maxdate": "1986-05-31",
      "latitude": -25.95,
      "name": "KOES, WA",
      "datacoverage": 0.8882,
      "id": "GHCND:WA004952670",
      "elevationUnit": "METERS",
      "longitude": 19.15
    },
    {
      "elevation": 1000,
      "mindate": "1968-01-01",
      "maxdate": "1986-05-31",
      "latitude": -25.9,
      "name": "GRABSTEIN, WA",
      "datacoverage": 0.8816,
      "id": "GHCND:WA004955340",
      "elevationUnit": "METERS",
      "longitude": 19.3
    },
    {
      "elevation": 1000,
      "mindate": "1960-11-01",
      "maxdate": "1997-11-30",
      "latitude": -25.77,
      "name": "MATA MATA, SF",
      "datacoverage": 0.9147,
      "id": "GHCND:WA004970190",
      "elevationUnit": "METERS",
      "longitude": 20
    },
    {
      "elevation": 1260,
      "mindate": "1968-01-01",
      "maxdate": "1984-06-30",
      "latitude": -25.32,
      "name": "BETTA, WA",
      "datacoverage": 0.8738,
      "id": "GHCND:WA005266790",
      "elevationUnit": "METERS",
      "longitude": 16.38
    },
    {
      "elevation": 1460,
      "mindate": "1968-01-01",
      "maxdate": "1985-12-31",
      "latitude": -25.28,
      "name": "DUWISIB, WA",
      "datacoverage": 0.8703,
      "id": "GHCND:WA005270170",
      "elevationUnit": "METERS",
      "longitude": 16.52
    },
    {
      "elevation": 1223,
      "mindate": "1968-01-01",
      "maxdate": "1985-02-28",
      "latitude": -25.17,
      "name": "KLEINFONTEIN, WA",
      "datacoverage": 0.8837,
      "id": "GHCND:WA005274300",
      "elevationUnit": "METERS",
      "longitude": 16.75
    },
    {
      "elevation": 1010,
      "mindate": "1968-01-01",
      "maxdate": "1982-03-31",
      "latitude": -25.13,
      "name": "GIBEON, WA",
      "datacoverage": 0.813,
      "id": "GHCND:WA005294280",
      "elevationUnit": "METERS",
      "longitude": 17.75
    },
    {
      "elevation": 1060,
      "mindate": "1968-01-01",
      "maxdate": "1986-05-31",
      "latitude": -25.03,
      "name": "GIBEON, WA",
      "datacoverage": 0.8236,
      "id": "GHCND:WA005294520",
      "elevationUnit": "METERS",
      "longitude": 17.77
    },
    {
      "elevation": 1158,
      "mindate": "1968-01-01",
      "maxdate": "1986-05-31",
      "latitude": -25.17,
      "name": "WELVERDIEND, WA",
      "datacoverage": 0.8882,
      "id": "GHCND:WA005307000",
      "elevationUnit": "METERS",
      "longitude": 18.4
    },
    {
      "elevation": 1144,
      "mindate": "1968-01-01",
      "maxdate": "1983-11-30",
      "latitude": -25.12,
      "name": "EENZAAMHEID, WA",
      "datacoverage": 0.8744,
      "id": "GHCND:WA005310370",
      "elevationUnit": "METERS",
      "longitude": 18.53
    },
    {
      "elevation": 1090,
      "mindate": "1968-01-01",
      "maxdate": "1985-12-31",
      "latitude": -25.15,
      "name": "GRAUWATER, WA",
      "datacoverage": 0.8102,
      "id": "GHCND:WA005318490",
      "elevationUnit": "METERS",
      "longitude": 18.98
    },
    {
      "elevation": 1060,
      "mindate": "1968-01-01",
      "maxdate": "1986-05-31",
      "latitude": -25.38,
      "name": "WEILENRODE, WA",
      "datacoverage": 0.8882,
      "id": "GHCND:WA005321730",
      "elevationUnit": "METERS",
      "longitude": 19.1
    },
    {
      "elevation": 1590,
      "mindate": "1968-01-01",
      "maxdate": "1986-05-31",
      "latitude": -24.6,
      "name": "FRIEDLAND, WA",
      "datacoverage": 0.8734,
      "id": "GHCND:WA005656660",
      "elevationUnit": "METERS",
      "longitude": 16.38
    },
    {
      "elevation": 1186,
      "mindate": "1968-01-01",
      "maxdate": "1986-05-31",
      "latitude": -24.65,
      "name": "DASSIESFONTEIN, WA",
      "datacoverage": 0.8882,
      "id": "GHCND:WA005663090",
      "elevationUnit": "METERS",
      "longitude": 16.68
    },
    {
      "elevation": 1340,
      "mindate": "1968-01-01",
      "maxdate": "1986-04-30",
      "latitude": -24.83,
      "name": "MALTAHOHE, WA",
      "datacoverage": 0.8638,
      "id": "GHCND:WA005668600",
      "elevationUnit": "METERS",
      "longitude": 16.98
    },
    {
      "elevation": 1190,
      "mindate": "1968-01-01",
      "maxdate": "1986-05-31",
      "latitude": -24.58,
      "name": "ALT HARIBES, WA",
      "datacoverage": 0.8816,
      "id": "GHCND:WA005680950",
      "elevationUnit": "METERS",
      "longitude": 17.57
    },
    {
      "elevation": 1191,
      "mindate": "1968-01-01",
      "maxdate": "1986-05-31",
      "latitude": -24.62,
      "name": "DRIEFONTEIN, WA",
      "datacoverage": 0.8779,
      "id": "GHCND:WA005683070",
      "elevationUnit": "METERS",
      "longitude": 17.68
    },
    {
      "elevation": 1110,
      "mindate": "1959-01-01",
      "maxdate": "1986-04-30",
      "latitude": -24.62,
      "name": "MARIENTAL, WA",
      "datacoverage": 0.8751,
      "id": "GHCND:WA005688170",
      "elevationUnit": "METERS",
      "longitude": 17.97
    },
    {
      "elevation": 1152,
      "mindate": "1968-02-01",
      "maxdate": "1986-04-30",
      "latitude": -24.97,
      "name": "PANNETJIESVELD, WA",
      "datacoverage": 0.9225,
      "id": "GHCND:WA005700880",
      "elevationUnit": "METERS",
      "longitude": 18.55
    },
    {
      "elevation": 1158,
      "mindate": "1968-01-01",
      "maxdate": "1986-05-31",
      "latitude": -24.6,
      "name": "BENALAY, WA",
      "datacoverage": 0.8462,
      "id": "GHCND:WA005701860",
      "elevationUnit": "METERS",
      "longitude": 18.62
    },
    {
      "elevation": 1125,
      "mindate": "1968-01-01",
      "maxdate": "1986-05-31",
      "latitude": -24.85,
      "name": "GOCHAS, WA",
      "datacoverage": 0.8689,
      "id": "GHCND:WA005705310",
      "elevationUnit": "METERS",
      "longitude": 18.8
    },
    {
      "elevation": 1162,
      "mindate": "1968-01-01",
      "maxdate": "1984-04-30",
      "latitude": -24.62,
      "name": "DUINEVELD, WA",
      "datacoverage": 0.8675,
      "id": "GHCND:WA005706370",
      "elevationUnit": "METERS",
      "longitude": 18.87
    },
    {
      "elevation": 1850,
      "mindate": "1968-12-01",
      "maxdate": "1986-05-31",
      "latitude": -24.27,
      "name": "NAUKLUFT, WA",
      "datacoverage": 0.8049,
      "id": "GHCND:WA006083760",
      "elevationUnit": "METERS",
      "longitude": 16.22
    },
    {
      "elevation": 1870,
      "mindate": "1968-01-01",
      "maxdate": "1986-05-31",
      "latitude": -24.13,
      "name": "BLASSKRANZ, WA",
      "datacoverage": 0.8598,
      "id": "GHCND:WA006084880",
      "elevationUnit": "METERS",
      "longitude": 16.28
    },
    {
      "elevation": 1380,
      "mindate": "1968-01-01",
      "maxdate": "1986-05-31",
      "latitude": -24.5,
      "name": "URUSIS, WA",
      "datacoverage": 0.8882,
      "id": "GHCND:WA006092700",
      "elevationUnit": "METERS",
      "longitude": 16.65
    },
    {
      "elevation": 1320,
      "mindate": "1968-01-01",
      "maxdate": "1986-05-31",
      "latitude": -24.45,
      "name": "NOMTSAS, WA",
      "datacoverage": 0.8281,
      "id": "GHCND:WA006095670",
      "elevationUnit": "METERS",
      "longitude": 16.82
    },
    {
      "elevation": 1320,
      "mindate": "1968-01-01",
      "maxdate": "1980-12-31",
      "latitude": -24.23,
      "name": "ARUSIS, WA",
      "datacoverage": 0.8463,
      "id": "GHCND:WA006097340",
      "elevationUnit": "METERS",
      "longitude": 16.92
    },
    {
      "elevation": 1200,
      "mindate": "1968-01-01",
      "maxdate": "1986-05-31",
      "latitude": -24.23,
      "name": "KUB, WA",
      "datacoverage": 0.8882,
      "id": "GHCND:WA006108840",
      "elevationUnit": "METERS",
      "longitude": 17.5
    },
    {
      "elevation": 1240,
      "mindate": "1968-01-01",
      "maxdate": "1986-05-31",
      "latitude": -24.05,
      "name": "GANDINI, WA",
      "datacoverage": 0.81,
      "id": "GHCND:WA006111530",
      "elevationUnit": "METERS",
      "longitude": 17.6
    },
    {
      "elevation": 1185,
      "mindate": "1968-01-01",
      "maxdate": "1986-05-31",
      "latitude": -24.28,
      "name": "BISIPOORT, WA",
      "datacoverage": 0.8882,
      "id": "GHCND:WA006112870",
      "elevationUnit": "METERS",
      "longitude": 17.67
    },
    {
      "elevation": 1235,
      "mindate": "1968-01-01",
      "maxdate": "1986-05-31",
      "latitude": -24.22,
      "name": "TWILIGHT, WA",
      "datacoverage": 0.8736,
      "id": "GHCND:WA006118230",
      "elevationUnit": "METERS",
      "longitude": 17.97
    },
    {
      "elevation": 1188,
      "mindate": "1968-01-01",
      "maxdate": "1986-05-31",
      "latitude": -24.37,
      "name": "EDELWEIS, WA",
      "datacoverage": 0.8734,
      "id": "GHCND:WA006125020",
      "elevationUnit": "METERS",
      "longitude": 18.28
    },
    {
      "elevation": 1196,
      "mindate": "1968-01-01",
      "maxdate": "1985-08-31",
      "latitude": -24.22,
      "name": "GIRUP, WA",
      "datacoverage": 0.8868,
      "id": "GHCND:WA006127330",
      "elevationUnit": "METERS",
      "longitude": 18.42
    },
    {
      "elevation": 1174,
      "mindate": "1968-01-01",
      "maxdate": "1986-05-31",
      "latitude": -24.35,
      "name": "BRISMARK, WA",
      "datacoverage": 0.869,
      "id": "GHCND:WA006127710",
      "elevationUnit": "METERS",
      "longitude": 18.43
    },
    {
      "elevation": 1165,
      "mindate": "1968-01-01",
      "maxdate": "1986-05-31",
      "latitude": -24.45,
      "name": "WITKRANS, WA",
      "datacoverage": 0.8882,
      "id": "GHCND:WA006128970",
      "elevationUnit": "METERS",
      "longitude": 18.5
    },
    {
      "elevation": 1196,
      "mindate": "1968-01-01",
      "maxdate": "1982-11-30",
      "latitude": -24.25,
      "name": "KAMEELBOOM, WA",
      "datacoverage": 0.8604,
      "id": "GHCND:WA006133750",
      "elevationUnit": "METERS",
      "longitude": 18.72
    },
    {
      "elevation": 1185,
      "mindate": "1968-01-01",
      "maxdate": "1985-12-31",
      "latitude": -24.13,
      "name": "ARANOS, WA",
      "datacoverage": 0.8843,
      "id": "GHCND:WA006141880",
      "elevationUnit": "METERS",
      "longitude": 19.12
    },
    {
      "elevation": 1140,
      "mindate": "1968-01-01",
      "maxdate": "1986-05-31",
      "latitude": -24.27,
      "name": "KAMEELDRAAI, WA",
      "datacoverage": 0.8734,
      "id": "GHCND:WA006144060",
      "elevationUnit": "METERS",
      "longitude": 19.23
    },
    {
      "elevation": 1153,
      "mindate": "1968-01-01",
      "maxdate": "1986-05-31",
      "latitude": -24.35,
      "name": "TOEVLUG, WA",
      "datacoverage": 0.8734,
      "id": "GHCND:WA006150210",
      "elevationUnit": "METERS",
      "longitude": 19.52
    },
    {
      "elevation": 1178,
      "mindate": "1968-01-01",
      "maxdate": "1985-12-31",
      "latitude": -24.12,
      "name": "GOEDEHOOD, WA",
      "datacoverage": 0.889,
      "id": "GHCND:WA006156670",
      "elevationUnit": "METERS",
      "longitude": 19.88
    },
    {
      "elevation": 400,
      "mindate": "1962-10-01",
      "maxdate": "2014-04-23",
      "latitude": -23.567,
      "name": "GOBABEB, WA",
      "datacoverage": 0.9993,
      "id": "GHCND:WA006490640",
      "elevationUnit": "METERS",
      "longitude": 15.05
    },
    {
      "elevation": 985,
      "mindate": "1971-01-01",
      "maxdate": "1986-05-31",
      "latitude": -23.93,
      "name": "CONSTANTIA, WA",
      "datacoverage": 0.9731,
      "id": "GHCND:WA006508360",
      "elevationUnit": "METERS",
      "longitude": 15.97
    },
    {
      "elevation": 1100,
      "mindate": "1968-01-01",
      "maxdate": "1980-06-30",
      "latitude": -23.7,
      "name": "MIDDELPLAAS, WA",
      "datacoverage": 0.8401,
      "id": "GHCND:WA006511920",
      "elevationUnit": "METERS",
      "longitude": 16.12
    },
    {
      "elevation": 1826,
      "mindate": "1968-01-01",
      "maxdate": "1981-06-30",
      "latitude": -23.65,
      "name": "NAUCHAS, WA",
      "datacoverage": 0.8458,
      "id": "GHCND:WA006515490",
      "elevationUnit": "METERS",
      "longitude": 16.32
    },
    {
      "elevation": 1250,
      "mindate": "1968-01-01",
      "maxdate": "1986-05-31",
      "latitude": -23.68,
      "name": "WILDERNIS, WA",
      "datacoverage": 0.8509,
      "id": "GHCND:WA006538810",
      "elevationUnit": "METERS",
      "longitude": 17.5
    },
    {
      "elevation": 1300,
      "mindate": "1968-01-01",
      "maxdate": "1985-12-31",
      "latitude": -23.77,
      "name": "MBELA, WA",
      "datacoverage": 0.889,
      "id": "GHCND:WA006546460",
      "elevationUnit": "METERS",
      "longitude": 17.87
    },
    {
      "elevation": 1800,
      "mindate": "1968-01-01",
      "maxdate": "1986-05-31",
      "latitude": -23.87,
      "name": "BITTERWASSER, WA",
      "datacoverage": 0.8882,
      "id": "GHCND:WA006548020",
      "elevationUnit": "METERS",
      "longitude": 17.95
    },
    {
      "elevation": 1300,
      "mindate": "1968-01-01",
      "maxdate": "1986-05-31",
      "latitude": -23.53,
      "name": "RHEINPFALZ, WA",
      "datacoverage": 0.8779,
      "id": "GHCND:WA006548420",
      "elevationUnit": "METERS",
      "longitude": 17.98
    },
    {
      "elevation": 1276,
      "mindate": "1968-01-01",
      "maxdate": "1986-05-31",
      "latitude": -23.75,
      "name": "JA DENNOCH, WA",
      "datacoverage": 0.8882,
      "id": "GHCND:WA006552550",
      "elevationUnit": "METERS",
      "longitude": 18.15
    },
    {
      "elevation": 1296,
      "mindate": "1968-01-01",
      "maxdate": "1986-05-31",
      "latitude": -23.62,
      "name": "KILDARE, WA",
      "datacoverage": 0.8882,
      "id": "GHCND:WA006553970",
      "elevationUnit": "METERS",
      "longitude": 18.23
    },
    {
      "elevation": 1267,
      "mindate": "1968-01-01",
      "maxdate": "1986-05-31",
      "latitude": -23.88,
      "name": "GOMCHANAS, WA",
      "datacoverage": 0.8779,
      "id": "GHCND:WA006555030",
      "elevationUnit": "METERS",
      "longitude": 18.28
    },
    {
      "elevation": 1250,
      "mindate": "1968-01-01",
      "maxdate": "1986-05-31",
      "latitude": -23.97,
      "name": "STRATE, WA",
      "datacoverage": 0.8598,
      "id": "GHCND:WA006560280",
      "elevationUnit": "METERS",
      "longitude": 18.52
    }
  ]
}
