{
  "metadata": {
    "resultset": {
      "offset": 89400,
      "count": 154115,
      "limit": 100
    }
  },
  "results": [
    {
      "elevation": 185,
      "mindate": "2018-07-14",
      "maxdate": "2024-08-28",
      "latitude": 41.32515,
      "name": "OTTAWA 1.8 S, IL US",
      "datacoverage": 0.9925,
      "id": "GHCND:US1ILLS0062",
      "elevationUnit": "METERS",
      "longitude": -88.83381
    },
    {
      "elevation": 203.3,
      "mindate": "2020-04-19",
      "maxdate": "2025-03-06",
      "latitude": 41.31542,
      "name": "MARSEILLES 3.0 WSW, IL US",
      "datacoverage": 1,
      "id": "GHCND:US1ILLS0066",
      "elevationUnit": "METERS",
      "longitude": -88.742798
    },
    {
      "elevation": 175,
      "mindate": "2020-05-17",
      "maxdate": "2024-05-09",
      "latitude": 41.330041,
      "name": "OTTAWA 1.5 SSW, IL US",
      "datacoverage": 0.6834,
      "id": "GHCND:US1ILLS0068",
      "elevationUnit": "METERS",
      "longitude": -88.850553
    },
    {
      "elevation": 215.2,
      "mindate": "2024-03-07",
      "maxdate": "2025-03-07",
      "latitude": 41.5566612,
      "name": "EARLVILLE 2.5 SSW, IL US",
      "datacoverage": 0.8534,
      "id": "GHCND:US1ILLS0074",
      "elevationUnit": "METERS",
      "longitude": -88.9455928
    },
    {
      "elevation": 209.1,
      "mindate": "2007-04-01",
      "maxdate": "2016-03-31",
      "latitude": 40.79879,
      "name": "CHENOA 3.9 NNW, IL US",
      "datacoverage": 0.935,
      "id": "GHCND:US1ILLV0004",
      "elevationUnit": "METERS",
      "longitude": -88.738075
    },
    {
      "elevation": 218.8,
      "mindate": "2007-04-01",
      "maxdate": "2010-09-22",
      "latitude": 41.062886,
      "name": "CORNELL 5.4 NNE, IL US",
      "datacoverage": 0.9995,
      "id": "GHCND:US1ILLV0005",
      "elevationUnit": "METERS",
      "longitude": -88.684686
    },
    {
      "elevation": 199,
      "mindate": "2007-04-01",
      "maxdate": "2023-03-05",
      "latitude": 40.865527,
      "name": "PONTIAC 1.0 SE, IL US",
      "datacoverage": 0.9998,
      "id": "GHCND:US1ILLV0006",
      "elevationUnit": "METERS",
      "longitude": -88.629855
    },
    {
      "elevation": 202.1,
      "mindate": "2009-03-01",
      "maxdate": "2013-12-22",
      "latitude": 41.027329,
      "name": "BUCKINGHAM 4.9 WSW, IL US",
      "datacoverage": 0.8785,
      "id": "GHCND:US1ILLV0008",
      "elevationUnit": "METERS",
      "longitude": -88.266014
    },
    {
      "elevation": 196,
      "mindate": "2009-10-01",
      "maxdate": "2019-07-03",
      "latitude": 40.87097,
      "name": "PONTIAC 0.7 ESE, IL US",
      "datacoverage": 0.9925,
      "id": "GHCND:US1ILLV0010",
      "elevationUnit": "METERS",
      "longitude": -88.629935
    },
    {
      "elevation": 195.7,
      "mindate": "2010-03-01",
      "maxdate": "2013-11-01",
      "latitude": 40.8898,
      "name": "PONTIAC 1.2 NE, IL US",
      "datacoverage": 0.6165,
      "id": "GHCND:US1ILLV0011",
      "elevationUnit": "METERS",
      "longitude": -88.62836
    },
    {
      "elevation": 188.1,
      "mindate": "2010-04-01",
      "maxdate": "2017-05-11",
      "latitude": 41.105174,
      "name": "STREATOR 1.4 S, IL US",
      "datacoverage": 0.5716,
      "id": "GHCND:US1ILLV0012",
      "elevationUnit": "METERS",
      "longitude": -88.836764
    },
    {
      "elevation": 199,
      "mindate": "2010-04-01",
      "maxdate": "2012-06-30",
      "latitude": 41.108225,
      "name": "DWIGHT 3.9 WNW, IL US",
      "datacoverage": 0.9819,
      "id": "GHCND:US1ILLV0013",
      "elevationUnit": "METERS",
      "longitude": -88.49858
    },
    {
      "elevation": 218.5,
      "mindate": "2010-05-01",
      "maxdate": "2015-04-20",
      "latitude": 40.962379,
      "name": "ODELL 4.4 SE, IL US",
      "datacoverage": 0.5834,
      "id": "GHCND:US1ILLV0014",
      "elevationUnit": "METERS",
      "longitude": -88.457166
    },
    {
      "elevation": 192,
      "mindate": "2010-05-01",
      "maxdate": "2015-08-19",
      "latitude": 40.955646,
      "name": "FLANAGAN 6.2 NNE, IL US",
      "datacoverage": 0.9956,
      "id": "GHCND:US1ILLV0016",
      "elevationUnit": "METERS",
      "longitude": -88.800909
    },
    {
      "elevation": 221.3,
      "mindate": "2010-09-01",
      "maxdate": "2023-10-26",
      "latitude": 40.940341,
      "name": "EMINGTON 2.2 SSE, IL US",
      "datacoverage": 0.8061,
      "id": "GHCND:US1ILLV0017",
      "elevationUnit": "METERS",
      "longitude": -88.341639
    },
    {
      "elevation": 237.4,
      "mindate": "2017-04-01",
      "maxdate": "2024-12-02",
      "latitude": 40.617596,
      "name": "CROPSEY 1.0 NE, IL US",
      "datacoverage": 0.6371,
      "id": "GHCND:US1ILLV0020",
      "elevationUnit": "METERS",
      "longitude": -88.462736
    },
    {
      "elevation": 234.7,
      "mindate": "2018-06-08",
      "maxdate": "2025-03-07",
      "latitude": 40.735619,
      "name": "CHATSWORTH 1.2 S, IL US",
      "datacoverage": 0.8028,
      "id": "GHCND:US1ILLV0021",
      "elevationUnit": "METERS",
      "longitude": -88.290763
    },
    {
      "elevation": 230.7,
      "mindate": "2021-03-26",
      "maxdate": "2024-11-26",
      "latitude": 40.680685,
      "name": "FAIRBURY 4.7 SSE, IL US",
      "datacoverage": 0.4375,
      "id": "GHCND:US1ILLV0023",
      "elevationUnit": "METERS",
      "longitude": -88.48702
    },
    {
      "elevation": 221.6,
      "mindate": "2021-07-29",
      "maxdate": "2021-12-23",
      "latitude": 41.0030292,
      "name": "ODELL 0.2 W, IL US",
      "datacoverage": 1,
      "id": "GHCND:US1ILLV0026",
      "elevationUnit": "METERS",
      "longitude": -88.5269767
    },
    {
      "elevation": 206.7,
      "mindate": "2023-01-17",
      "maxdate": "2025-03-07",
      "latitude": 40.882832,
      "name": "FLANAGAN 0.4 NNE, IL US",
      "datacoverage": 0.7657,
      "id": "GHCND:US1ILLV0027",
      "elevationUnit": "METERS",
      "longitude": -88.85834
    },
    {
      "elevation": 196.3,
      "mindate": "2023-04-01",
      "maxdate": "2025-03-05",
      "latitude": 41.065789,
      "name": "DWIGHT 2.3 SSE, IL US",
      "datacoverage": 0.9617,
      "id": "GHCND:US1ILLV0028",
      "elevationUnit": "METERS",
      "longitude": -88.408395
    },
    {
      "elevation": 197.2,
      "mindate": "2023-04-11",
      "maxdate": "2024-11-19",
      "latitude": 40.8760653,
      "name": "PONTIAC 0.7 E, IL US",
      "datacoverage": 0.4963,
      "id": "GHCND:US1ILLV0029",
      "elevationUnit": "METERS",
      "longitude": -88.6283296
    },
    {
      "elevation": 134.1,
      "mindate": "2007-04-01",
      "maxdate": "2010-11-30",
      "latitude": 38.716794,
      "name": "LAWRENCEVILLE 0.7 S, IL US",
      "datacoverage": 0.9994,
      "id": "GHCND:US1ILLW0001",
      "elevationUnit": "METERS",
      "longitude": -87.68724
    },
    {
      "elevation": 132,
      "mindate": "2007-04-01",
      "maxdate": "2014-10-10",
      "latitude": 38.625,
      "name": "ST. FRANCISVILLE 2.3 NNW, IL US",
      "datacoverage": 0.9986,
      "id": "GHCND:US1ILLW0002",
      "elevationUnit": "METERS",
      "longitude": -87.6564
    },
    {
      "elevation": 138.1,
      "mindate": "2007-04-01",
      "maxdate": "2025-03-07",
      "latitude": 38.724353,
      "name": "LAWRENCEVILLE 1.4 W, IL US",
      "datacoverage": 0.9627,
      "id": "GHCND:US1ILLW0003",
      "elevationUnit": "METERS",
      "longitude": -87.712884
    },
    {
      "elevation": 209.1,
      "mindate": "2006-12-01",
      "maxdate": "2016-04-06",
      "latitude": 39.772464,
      "name": "MOUNT ZION 0.8 ESE, IL US",
      "datacoverage": 0.9911,
      "id": "GHCND:US1ILMA0001",
      "elevationUnit": "METERS",
      "longitude": -88.865499
    },
    {
      "elevation": 216.1,
      "mindate": "2007-01-01",
      "maxdate": "2008-04-28",
      "latitude": 39.767191,
      "name": "MOUNT ZION 0.8 SSE, IL US",
      "datacoverage": 0.8768,
      "id": "GHCND:US1ILMA0003",
      "elevationUnit": "METERS",
      "longitude": -88.875265
    },
    {
      "elevation": 203.9,
      "mindate": "2008-02-01",
      "maxdate": "2009-03-08",
      "latitude": 39.904872,
      "name": "DECATUR 4.1 NNW, IL US",
      "datacoverage": 0.9819,
      "id": "GHCND:US1ILMA0006",
      "elevationUnit": "METERS",
      "longitude": -88.971164
    },
    {
      "elevation": 207,
      "mindate": "2011-05-01",
      "maxdate": "2013-09-13",
      "latitude": 39.842118,
      "name": "HARRISTOWN 0.8 W, IL US",
      "datacoverage": 0.7128,
      "id": "GHCND:US1ILMA0015",
      "elevationUnit": "METERS",
      "longitude": -89.075073
    },
    {
      "elevation": 184.7,
      "mindate": "2011-06-01",
      "maxdate": "2024-11-28",
      "latitude": 39.945402,
      "name": "LATHAM 1.8 SE, IL US",
      "datacoverage": 0.4309,
      "id": "GHCND:US1ILMA0016",
      "elevationUnit": "METERS",
      "longitude": -89.143047
    },
    {
      "elevation": 207.9,
      "mindate": "2011-04-01",
      "maxdate": "2012-09-27",
      "latitude": 39.8779,
      "name": "OAKLEY 0.1 N, IL US",
      "datacoverage": 0.8316,
      "id": "GHCND:US1ILMA0017",
      "elevationUnit": "METERS",
      "longitude": -88.806315
    },
    {
      "elevation": 212.4,
      "mindate": "2014-05-01",
      "maxdate": "2016-03-15",
      "latitude": 39.8137986660004,
      "name": "DECATUR 4.4 SW, IL US",
      "datacoverage": 0.146,
      "id": "GHCND:US1ILMA0019",
      "elevationUnit": "METERS",
      "longitude": -88.9990767091513
    },
    {
      "elevation": 196,
      "mindate": "2014-05-01",
      "maxdate": "2018-07-25",
      "latitude": 39.824492,
      "name": "DECATUR 2.6 SW, IL US",
      "datacoverage": 0.9925,
      "id": "GHCND:US1ILMA0020",
      "elevationUnit": "METERS",
      "longitude": -88.967354
    },
    {
      "elevation": 210.6,
      "mindate": "2014-07-01",
      "maxdate": "2015-08-04",
      "latitude": 39.839454,
      "name": "HARRISTOWN 0.4 ESE, IL US",
      "datacoverage": 0.998,
      "id": "GHCND:US1ILMA0021",
      "elevationUnit": "METERS",
      "longitude": -89.052867
    },
    {
      "elevation": 205.7,
      "mindate": "2015-08-17",
      "maxdate": "2016-07-28",
      "latitude": 39.8389739990234,
      "name": "DECATUR 1.8 WSW, IL US",
      "datacoverage": 0.3804,
      "id": "GHCND:US1ILMA0022",
      "elevationUnit": "METERS",
      "longitude": -88.9633636474609
    },
    {
      "elevation": 199.3,
      "mindate": "2020-03-11",
      "maxdate": "2025-03-07",
      "latitude": 39.819473,
      "name": "DECATUR 3.2 SW, IL US",
      "datacoverage": 0.6838,
      "id": "GHCND:US1ILMA0027",
      "elevationUnit": "METERS",
      "longitude": -88.976635
    },
    {
      "elevation": 208.5,
      "mindate": "2020-06-01",
      "maxdate": "2025-03-07",
      "latitude": 39.91867,
      "name": "OREANA 1.3 S, IL US",
      "datacoverage": 1,
      "id": "GHCND:US1ILMA0029",
      "elevationUnit": "METERS",
      "longitude": -88.8726
    },
    {
      "elevation": 212.8,
      "mindate": "2021-07-18",
      "maxdate": "2025-03-06",
      "latitude": 39.738418833115,
      "name": "DALTON CITY 2.5 NW, IL US",
      "datacoverage": 1,
      "id": "GHCND:US1ILMA0031",
      "elevationUnit": "METERS",
      "longitude": -88.841148491124
    },
    {
      "elevation": 210.3,
      "mindate": "2022-04-01",
      "maxdate": "2025-01-23",
      "latitude": 39.9330451,
      "name": "WARRENSBURG 0.6 E, IL US",
      "datacoverage": 0.5,
      "id": "GHCND:US1ILMA0032",
      "elevationUnit": "METERS",
      "longitude": -89.04968
    },
    {
      "elevation": 183.8,
      "mindate": "2022-04-10",
      "maxdate": "2025-03-07",
      "latitude": 39.910556,
      "name": "ILLIOPOLIS 4.4 NNE, IL US",
      "datacoverage": 0.9999,
      "id": "GHCND:US1ILMA0034",
      "elevationUnit": "METERS",
      "longitude": -89.216944
    },
    {
      "elevation": 184.7,
      "mindate": "2023-07-10",
      "maxdate": "2025-03-06",
      "latitude": 39.840372,
      "name": "DECATUR 3.3 WSW, IL US",
      "datacoverage": 1,
      "id": "GHCND:US1ILMA0036",
      "elevationUnit": "METERS",
      "longitude": -88.993784
    },
    {
      "elevation": 113.1,
      "mindate": "2009-04-01",
      "maxdate": "2024-02-12",
      "latitude": 37.25511,
      "name": "BELKNAP 11.1 ESE, IL US",
      "datacoverage": 0.9999,
      "id": "GHCND:US1ILMC0001",
      "elevationUnit": "METERS",
      "longitude": -88.756696
    },
    {
      "elevation": 120.7,
      "mindate": "2017-11-29",
      "maxdate": "2025-01-31",
      "latitude": 37.1651,
      "name": "METROPOLIS 2.1 ENE, IL US",
      "datacoverage": 0.5689,
      "id": "GHCND:US1ILMC0002",
      "elevationUnit": "METERS",
      "longitude": -88.6765
    },
    {
      "elevation": 127.1,
      "mindate": "2019-05-20",
      "maxdate": "2025-03-07",
      "latitude": 37.161716,
      "name": "BROOKPORT 7.3 ENE, IL US",
      "datacoverage": 1,
      "id": "GHCND:US1ILMC0003",
      "elevationUnit": "METERS",
      "longitude": -88.502592
    },
    {
      "elevation": 123.1,
      "mindate": "2023-07-01",
      "maxdate": "2025-03-07",
      "latitude": 37.19082,
      "name": "METROPOLIS 2.9 NNE, IL US",
      "datacoverage": 1,
      "id": "GHCND:US1ILMC0004",
      "elevationUnit": "METERS",
      "longitude": -88.69069
    },
    {
      "elevation": 189.9,
      "mindate": "2007-09-01",
      "maxdate": "2018-09-08",
      "latitude": 40.472176,
      "name": "MACOMB 0.6 WNW, IL US",
      "datacoverage": 0.699,
      "id": "GHCND:US1ILMCD005",
      "elevationUnit": "METERS",
      "longitude": -90.691707
    },
    {
      "elevation": 216.7,
      "mindate": "2010-03-01",
      "maxdate": "2024-11-05",
      "latitude": 40.515032,
      "name": "MACOMB 3.8 NW, IL US",
      "datacoverage": 0.8352,
      "id": "GHCND:US1ILMCD006",
      "elevationUnit": "METERS",
      "longitude": -90.724947
    },
    {
      "elevation": 210,
      "mindate": "2010-03-01",
      "maxdate": "2025-03-07",
      "latitude": 40.462365,
      "name": "COLCHESTER 3.5 NE, IL US",
      "datacoverage": 0.9995,
      "id": "GHCND:US1ILMCD007",
      "elevationUnit": "METERS",
      "longitude": -90.745164
    },
    {
      "elevation": 214,
      "mindate": "2011-09-01",
      "maxdate": "2023-12-09",
      "latitude": 40.464792,
      "name": "MACOMB 0.4 SSW, IL US",
      "datacoverage": 0.8268,
      "id": "GHCND:US1ILMCD008",
      "elevationUnit": "METERS",
      "longitude": -90.683986
    },
    {
      "elevation": 273.1,
      "mindate": "2007-01-01",
      "maxdate": "2007-06-25",
      "latitude": 42.2126,
      "name": "CRYSTAL LAKE 1.8 SW, IL US",
      "datacoverage": 1,
      "id": "GHCND:US1ILMCH003",
      "elevationUnit": "METERS",
      "longitude": -88.3542
    },
    {
      "elevation": 235,
      "mindate": "1998-06-01",
      "maxdate": "2014-10-03",
      "latitude": 42.261344,
      "name": "ISLAND LAKE 1.1 SSW, IL US",
      "datacoverage": 0.1929,
      "id": "GHCND:US1ILMCH005",
      "elevationUnit": "METERS",
      "longitude": -88.207233
    },
    {
      "elevation": 273.1,
      "mindate": "2006-12-01",
      "maxdate": "2025-01-05",
      "latitude": 42.1692,
      "name": "ALGONQUIN 2.1 W, IL US",
      "datacoverage": 0.4643,
      "id": "GHCND:US1ILMCH009",
      "elevationUnit": "METERS",
      "longitude": -88.3406
    },
    {
      "elevation": 264,
      "mindate": "2007-02-01",
      "maxdate": "2014-06-17",
      "latitude": 42.16763,
      "name": "ALGONQUIN 1.1 ENE, IL US",
      "datacoverage": 0.8321,
      "id": "GHCND:US1ILMCH012",
      "elevationUnit": "METERS",
      "longitude": -88.279242
    },
    {
      "elevation": 292,
      "mindate": "2007-02-01",
      "maxdate": "2025-03-07",
      "latitude": 42.324548,
      "name": "BULL VALLEY 2.5 WNW, IL US",
      "datacoverage": 1,
      "id": "GHCND:US1ILMCH013",
      "elevationUnit": "METERS",
      "longitude": -88.394598
    },
    {
      "elevation": 267.9,
      "mindate": "2007-02-01",
      "maxdate": "2014-03-18",
      "latitude": 42.225272,
      "name": "CARY 1.9 NE, IL US",
      "datacoverage": 0.9774,
      "id": "GHCND:US1ILMCH016",
      "elevationUnit": "METERS",
      "longitude": -88.220692
    },
    {
      "elevation": 285,
      "mindate": "2007-05-01",
      "maxdate": "2013-08-23",
      "latitude": 42.42035,
      "name": "HARVARD 0.4 W, IL US",
      "datacoverage": 0.5785,
      "id": "GHCND:US1ILMCH017",
      "elevationUnit": "METERS",
      "longitude": -88.623706
    },
    {
      "elevation": 276.1,
      "mindate": "2007-07-01",
      "maxdate": "2013-02-25",
      "latitude": 42.178818,
      "name": "HUNTLEY 4.3 W, IL US",
      "datacoverage": 0.9999,
      "id": "GHCND:US1ILMCH024",
      "elevationUnit": "METERS",
      "longitude": -88.506131
    },
    {
      "elevation": 256.9,
      "mindate": "2007-07-01",
      "maxdate": "2008-05-26",
      "latitude": 42.234348,
      "name": "CARY 1.8 N, IL US",
      "datacoverage": 0.998,
      "id": "GHCND:US1ILMCH025",
      "elevationUnit": "METERS",
      "longitude": -88.250228
    },
    {
      "elevation": 295,
      "mindate": "2008-02-01",
      "maxdate": "2025-03-07",
      "latitude": 42.3053,
      "name": "WOODSTOCK 0.7 SW, IL US",
      "datacoverage": 0.937,
      "id": "GHCND:US1ILMCH029",
      "elevationUnit": "METERS",
      "longitude": -88.4473
    },
    {
      "elevation": 253.9,
      "mindate": "2008-04-01",
      "maxdate": "2020-05-26",
      "latitude": 42.38354,
      "name": "WONDER LAKE 0.8 WNW, IL US",
      "datacoverage": 1,
      "id": "GHCND:US1ILMCH030",
      "elevationUnit": "METERS",
      "longitude": -88.370883
    },
    {
      "elevation": 264,
      "mindate": "2008-06-01",
      "maxdate": "2025-03-07",
      "latitude": 42.275544,
      "name": "WOODSTOCK 3.8 SW, IL US",
      "datacoverage": 0.9991,
      "id": "GHCND:US1ILMCH033",
      "elevationUnit": "METERS",
      "longitude": -88.494998
    },
    {
      "elevation": 242.9,
      "mindate": "2008-09-01",
      "maxdate": "2024-10-03",
      "latitude": 42.39865,
      "name": "PISTAKEE HIGHLANDS 0.4 SW, IL US",
      "datacoverage": 0.414,
      "id": "GHCND:US1ILMCH034",
      "elevationUnit": "METERS",
      "longitude": -88.217
    },
    {
      "elevation": 239.9,
      "mindate": "1998-06-01",
      "maxdate": "2025-03-04",
      "latitude": 42.358394,
      "name": "LAKEMOOR 1.9 NW, IL US",
      "datacoverage": 0.9598,
      "id": "GHCND:US1ILMCH035",
      "elevationUnit": "METERS",
      "longitude": -88.2335
    },
    {
      "elevation": 259.1,
      "mindate": "2008-08-01",
      "maxdate": "2012-10-26",
      "latitude": 42.404719,
      "name": "WONDER LAKE 1.9 NNE, IL US",
      "datacoverage": 0.588,
      "id": "GHCND:US1ILMCH036",
      "elevationUnit": "METERS",
      "longitude": -88.338861
    },
    {
      "elevation": 284.1,
      "mindate": "2008-11-01",
      "maxdate": "2012-11-30",
      "latitude": 42.473376,
      "name": "HEBRON 0.6 WNW, IL US",
      "datacoverage": 0.9595,
      "id": "GHCND:US1ILMCH038",
      "elevationUnit": "METERS",
      "longitude": -88.441206
    },
    {
      "elevation": 281,
      "mindate": "2010-05-01",
      "maxdate": "2013-06-27",
      "latitude": 42.474381,
      "name": "HEBRON 0.5 WNW, IL US",
      "datacoverage": 0.4472,
      "id": "GHCND:US1ILMCH041",
      "elevationUnit": "METERS",
      "longitude": -88.438929
    },
    {
      "elevation": 253.6,
      "mindate": "1998-06-17",
      "maxdate": "2025-03-07",
      "latitude": 42.173915,
      "name": "ALGONQUIN 0.7 N, IL US",
      "datacoverage": 1,
      "id": "GHCND:US1ILMCH043",
      "elevationUnit": "METERS",
      "longitude": -88.299299
    },
    {
      "elevation": 281.9,
      "mindate": "2010-08-01",
      "maxdate": "2012-08-30",
      "latitude": 42.405502,
      "name": "HARVARD 1.1 S, IL US",
      "datacoverage": 0.998,
      "id": "GHCND:US1ILMCH044",
      "elevationUnit": "METERS",
      "longitude": -88.614735
    },
    {
      "elevation": 276.1,
      "mindate": "2010-09-01",
      "maxdate": "2012-01-02",
      "latitude": 42.31936,
      "name": "WOODSTOCK 0.8 NW, IL US",
      "datacoverage": 1,
      "id": "GHCND:US1ILMCH047",
      "elevationUnit": "METERS",
      "longitude": -88.447003
    },
    {
      "elevation": 246.6,
      "mindate": "2010-05-01",
      "maxdate": "2025-03-07",
      "latitude": 42.21215,
      "name": "CARY 0.3 NE, IL US",
      "datacoverage": 0.9996,
      "id": "GHCND:US1ILMCH049",
      "elevationUnit": "METERS",
      "longitude": -88.244425
    },
    {
      "elevation": 260,
      "mindate": "2010-11-01",
      "maxdate": "2014-02-21",
      "latitude": 42.25952,
      "name": "PRAIRIE GROVE 1.4 S, IL US",
      "datacoverage": 0.6405,
      "id": "GHCND:US1ILMCH051",
      "elevationUnit": "METERS",
      "longitude": -88.267605
    },
    {
      "elevation": 289,
      "mindate": "2011-02-01",
      "maxdate": "2022-04-14",
      "latitude": 42.30029,
      "name": "WOODSTOCK 0.8 SSW, IL US",
      "datacoverage": 0.6077,
      "id": "GHCND:US1ILMCH052",
      "elevationUnit": "METERS",
      "longitude": -88.4433
    },
    {
      "elevation": 295.7,
      "mindate": "2011-11-01",
      "maxdate": "2017-12-07",
      "latitude": 42.420364,
      "name": "HARVARD 0.3 E, IL US",
      "datacoverage": 0.6173,
      "id": "GHCND:US1ILMCH059",
      "elevationUnit": "METERS",
      "longitude": -88.608947
    },
    {
      "elevation": 291.4,
      "mindate": "2012-07-01",
      "maxdate": "2019-01-19",
      "latitude": 42.3037338256836,
      "name": "WOODSTOCK 1.5 WSW, IL US",
      "datacoverage": 0.998,
      "id": "GHCND:US1ILMCH061",
      "elevationUnit": "METERS",
      "longitude": -88.4638595581055
    },
    {
      "elevation": 321,
      "mindate": "2012-10-01",
      "maxdate": "2025-03-06",
      "latitude": 42.3850250244141,
      "name": "HARVARD 2.8 SSE, IL US",
      "datacoverage": 1,
      "id": "GHCND:US1ILMCH066",
      "elevationUnit": "METERS",
      "longitude": -88.591911315918
    },
    {
      "elevation": 263,
      "mindate": "2015-05-01",
      "maxdate": "2024-08-27",
      "latitude": 42.393962,
      "name": "WONDER LAKE 1.4 NE, IL US",
      "datacoverage": 0.8153,
      "id": "GHCND:US1ILMCH077",
      "elevationUnit": "METERS",
      "longitude": -88.337554
    },
    {
      "elevation": 259.4,
      "mindate": "2016-04-17",
      "maxdate": "2019-06-01",
      "latitude": 42.1840629577637,
      "name": "LAKE IN THE HILLS 1.1 ESE, IL US",
      "datacoverage": 0.643,
      "id": "GHCND:US1ILMCH079",
      "elevationUnit": "METERS",
      "longitude": -88.3034210205078
    },
    {
      "elevation": 271.9,
      "mindate": "2016-04-09",
      "maxdate": "2022-11-28",
      "latitude": 42.166287,
      "name": "HUNTLEY 0.1 SSE, IL US",
      "datacoverage": 0.7973,
      "id": "GHCND:US1ILMCH080",
      "elevationUnit": "METERS",
      "longitude": -88.423086
    },
    {
      "elevation": 259.1,
      "mindate": "2017-01-16",
      "maxdate": "2018-07-15",
      "latitude": 42.206651,
      "name": "CARY 0.2 SE, IL US",
      "datacoverage": 0.9819,
      "id": "GHCND:US1ILMCH081",
      "elevationUnit": "METERS",
      "longitude": -88.246951
    },
    {
      "elevation": 242,
      "mindate": "2017-02-15",
      "maxdate": "2019-08-08",
      "latitude": 42.2745,
      "name": "CRYSTAL LAKE 4.8 ENE, IL US",
      "datacoverage": 1,
      "id": "GHCND:US1ILMCH082",
      "elevationUnit": "METERS",
      "longitude": -88.236829
    },
    {
      "elevation": 272.5,
      "mindate": "2017-03-07",
      "maxdate": "2024-12-31",
      "latitude": 42.228825,
      "name": "CRYSTAL LAKE 1.0 WSW, IL US",
      "datacoverage": 0.9995,
      "id": "GHCND:US1ILMCH083",
      "elevationUnit": "METERS",
      "longitude": -88.349642
    },
    {
      "elevation": 270.7,
      "mindate": "2017-04-01",
      "maxdate": "2023-03-25",
      "latitude": 42.19361,
      "name": "LAKE IN THE HILLS 2.5 W, IL US",
      "datacoverage": 0.4903,
      "id": "GHCND:US1ILMCH085",
      "elevationUnit": "METERS",
      "longitude": -88.37093
    },
    {
      "elevation": 247.2,
      "mindate": "2017-11-26",
      "maxdate": "2025-03-07",
      "latitude": 42.258421,
      "name": "MARENGO 0.7 NNE, IL US",
      "datacoverage": 0.9991,
      "id": "GHCND:US1ILMCH087",
      "elevationUnit": "METERS",
      "longitude": -88.603132
    },
    {
      "elevation": 260.3,
      "mindate": "2018-05-04",
      "maxdate": "2019-10-12",
      "latitude": 42.3545192,
      "name": "MCHENRY 1.5 NW, IL US",
      "datacoverage": 0.5968,
      "id": "GHCND:US1ILMCH088",
      "elevationUnit": "METERS",
      "longitude": -88.31466041
    },
    {
      "elevation": 266.1,
      "mindate": "2018-06-10",
      "maxdate": "2018-11-21",
      "latitude": 42.17368,
      "name": "ALGONQUIN 0.8 NE, IL US",
      "datacoverage": 0.9898,
      "id": "GHCND:US1ILMCH090",
      "elevationUnit": "METERS",
      "longitude": -88.29108
    },
    {
      "elevation": 226.5,
      "mindate": "2020-04-10",
      "maxdate": "2023-08-10",
      "latitude": 42.32901,
      "name": "MCHENRY 2.3 ESE, IL US",
      "datacoverage": 0.5968,
      "id": "GHCND:US1ILMCH092",
      "elevationUnit": "METERS",
      "longitude": -88.25009
    },
    {
      "elevation": 279.2,
      "mindate": "2019-05-01",
      "maxdate": "2025-03-05",
      "latitude": 42.23612,
      "name": "MARENGO 0.8 S, IL US",
      "datacoverage": 0.9297,
      "id": "GHCND:US1ILMCH093",
      "elevationUnit": "METERS",
      "longitude": -88.60322
    },
    {
      "elevation": 231.6,
      "mindate": "2019-05-19",
      "maxdate": "2025-03-07",
      "latitude": 42.347024,
      "name": "MCHENRY 2.4 E, IL US",
      "datacoverage": 0.8774,
      "id": "GHCND:US1ILMCH094",
      "elevationUnit": "METERS",
      "longitude": -88.246014
    },
    {
      "elevation": 264,
      "mindate": "2019-07-01",
      "maxdate": "2025-03-07",
      "latitude": 42.202353,
      "name": "CARY 0.5 SSW, IL US",
      "datacoverage": 0.9993,
      "id": "GHCND:US1ILMCH095",
      "elevationUnit": "METERS",
      "longitude": -88.252241
    },
    {
      "elevation": 267.6,
      "mindate": "2018-09-23",
      "maxdate": "2025-03-07",
      "latitude": 42.15524,
      "name": "HUNTLEY 1.6 SW, IL US",
      "datacoverage": 0.8937,
      "id": "GHCND:US1ILMCH096",
      "elevationUnit": "METERS",
      "longitude": -88.449894
    },
    {
      "elevation": 275.5,
      "mindate": "2021-03-23",
      "maxdate": "2025-03-06",
      "latitude": 42.214685,
      "name": "CRYSTAL LAKE 1.9 SW, IL US",
      "datacoverage": 0.9986,
      "id": "GHCND:US1ILMCH101",
      "elevationUnit": "METERS",
      "longitude": -88.358756
    },
    {
      "elevation": 274.3,
      "mindate": "2021-03-29",
      "maxdate": "2024-11-14",
      "latitude": 42.172196,
      "name": "ALGONQUIN 3.4 W, IL US",
      "datacoverage": 0.1311,
      "id": "GHCND:US1ILMCH102",
      "elevationUnit": "METERS",
      "longitude": -88.366762
    },
    {
      "elevation": 322.8,
      "mindate": "2021-07-13",
      "maxdate": "2025-03-07",
      "latitude": 42.4791787,
      "name": "HARVARD 4.4 NNE, IL US",
      "datacoverage": 1,
      "id": "GHCND:US1ILMCH103",
      "elevationUnit": "METERS",
      "longitude": -88.5817285
    },
    {
      "elevation": 238.7,
      "mindate": "2022-09-09",
      "maxdate": "2025-03-06",
      "latitude": 42.4398489,
      "name": "SPRING GROVE 1.2 ESE, IL US",
      "datacoverage": 0.9663,
      "id": "GHCND:US1ILMCH108",
      "elevationUnit": "METERS",
      "longitude": -88.2218
    },
    {
      "elevation": 262.1,
      "mindate": "2022-09-14",
      "maxdate": "2025-03-07",
      "latitude": 42.25143,
      "name": "CRYSTAL LAKE 2.9 ENE, IL US",
      "datacoverage": 0.6533,
      "id": "GHCND:US1ILMCH109",
      "elevationUnit": "METERS",
      "longitude": -88.27968
    },
    {
      "elevation": 275.8,
      "mindate": "2022-09-27",
      "maxdate": "2025-03-07",
      "latitude": 42.159478,
      "name": "ALGONQUIN 1.4 WSW, IL US",
      "datacoverage": 0.9663,
      "id": "GHCND:US1ILMCH110",
      "elevationUnit": "METERS",
      "longitude": -88.327875
    },
    {
      "elevation": 275.2,
      "mindate": "2024-06-01",
      "maxdate": "2025-02-22",
      "latitude": 42.220878,
      "name": "LAKEWOOD 0.1 ENE, IL US",
      "datacoverage": 1,
      "id": "GHCND:US1ILMCH114",
      "elevationUnit": "METERS",
      "longitude": -88.3760761
    },
    {
      "elevation": 231,
      "mindate": "2024-03-15",
      "maxdate": "2025-03-06",
      "latitude": 42.36632,
      "name": "MCHENRY 3.8 ENE, IL US",
      "datacoverage": 0.7591,
      "id": "GHCND:US1ILMCH115",
      "elevationUnit": "METERS",
      "longitude": -88.22614
    },
    {
      "elevation": 267.9,
      "mindate": "2007-04-01",
      "maxdate": "2025-03-07",
      "latitude": 40.471204,
      "name": "ARROWSMITH 1.7 NNE, IL US",
      "datacoverage": 0.9998,
      "id": "GHCND:US1ILMCL002",
      "elevationUnit": "METERS",
      "longitude": -88.619599
    },
    {
      "elevation": 241.1,
      "mindate": "2007-01-01",
      "maxdate": "2015-05-10",
      "latitude": 40.483528,
      "name": "BLOOMINGTON 1.9 W, IL US",
      "datacoverage": 0.9991,
      "id": "GHCND:US1ILMCL003",
      "elevationUnit": "METERS",
      "longitude": -89.009815
    }
  ]
}
