{
  "metadata": {
    "resultset": {
      "offset": 11100,
      "count": 154115,
      "limit": 100
    }
  },
  "results": [
    {
      "elevation": 1585,
      "mindate": "1940-04-01",
      "maxdate": "1985-08-01",
      "latitude": 32.54278,
      "name": "THOMPSON CANYON RANCH, NM US",
      "datacoverage": 0.9908,
      "id": "COOP:292324",
      "elevationUnit": "METERS",
      "longitude": -108.63694
    },
    {
      "elevation": 2073.9,
      "mindate": "1957-03-01",
      "maxdate": "1974-05-01",
      "latitude": 33.8,
      "name": "YORK RANCH, NM US",
      "datacoverage": 0.9468,
      "id": "COOP:292362",
      "elevationUnit": "METERS",
      "longitude": -108.33333
    },
    {
      "elevation": 1196,
      "mindate": "2005-08-01",
      "maxdate": "2015-11-01",
      "latitude": 32.2766,
      "name": "DARK CANYON ROAD, NM US",
      "datacoverage": 0.9597,
      "id": "COOP:292365",
      "elevationUnit": "METERS",
      "longitude": -104.5136
    },
    {
      "elevation": 2165.9,
      "mindate": "1931-01-01",
      "maxdate": "1951-08-01",
      "latitude": 34.15,
      "name": "DATIL, NM US",
      "datacoverage": 0.863,
      "id": "COOP:292367",
      "elevationUnit": "METERS",
      "longitude": -107.85
    },
    {
      "elevation": 1250.9,
      "mindate": "1951-01-01",
      "maxdate": "1951-07-01",
      "latitude": 34.61667,
      "name": "DAVIS RANCH, NM US",
      "datacoverage": 1,
      "id": "COOP:292373",
      "elevationUnit": "METERS",
      "longitude": -103.05
    },
    {
      "elevation": 1951.9,
      "mindate": "1931-01-01",
      "maxdate": "1961-06-01",
      "latitude": 36.66667,
      "name": "DAWSON, NM US",
      "datacoverage": 0.9728,
      "id": "COOP:292384",
      "elevationUnit": "METERS",
      "longitude": -104.78333
    },
    {
      "elevation": 1310.6,
      "mindate": "1899-06-01",
      "maxdate": "2011-04-01",
      "latitude": 32.25306,
      "name": "DEMING, NM US",
      "datacoverage": 0.9087,
      "id": "COOP:292436",
      "elevationUnit": "METERS",
      "longitude": -107.75306
    },
    {
      "elevation": 1311.6,
      "mindate": "1961-04-01",
      "maxdate": "1982-06-01",
      "latitude": 32.25923,
      "name": "DEMING MUNICIPAL AIRPORT, NM US",
      "datacoverage": 0.984,
      "id": "COOP:292440",
      "elevationUnit": "METERS",
      "longitude": -107.72056
    },
    {
      "elevation": 2017.8,
      "mindate": "1931-01-01",
      "maxdate": "1994-06-01",
      "latitude": 36.75,
      "name": "DES MOINES, NM US",
      "datacoverage": 0.9791,
      "id": "COOP:292453",
      "elevationUnit": "METERS",
      "longitude": -103.83333
    },
    {
      "elevation": 1585,
      "mindate": "1985-09-01",
      "maxdate": "1989-06-01",
      "latitude": 32.54278,
      "name": "THOMPSON CANYON RANCH, NM US",
      "datacoverage": 0.979,
      "id": "COOP:292468",
      "elevationUnit": "METERS",
      "longitude": -108.63694
    },
    {
      "elevation": 1830,
      "mindate": "1947-01-01",
      "maxdate": "1952-04-01",
      "latitude": 34.35,
      "name": "DIAMOND T RANCH, NM US",
      "datacoverage": 0.5003,
      "id": "COOP:292476",
      "elevationUnit": "METERS",
      "longitude": -106.61667
    },
    {
      "elevation": 1569.7,
      "mindate": "1941-11-01",
      "maxdate": "2015-11-01",
      "latitude": 35.1841,
      "name": "DILIA, NM US",
      "datacoverage": 0.9753,
      "id": "COOP:292510",
      "elevationUnit": "METERS",
      "longitude": -105.0569
    },
    {
      "elevation": 1373.1,
      "mindate": "1948-01-01",
      "maxdate": "1948-10-01",
      "latitude": 33.9,
      "name": "DORA, NM US",
      "datacoverage": 0.5988,
      "id": "COOP:292580",
      "elevationUnit": "METERS",
      "longitude": -103.33333
    },
    {
      "elevation": 1610,
      "mindate": "1948-07-24",
      "maxdate": "1952-10-01",
      "latitude": 33.18333,
      "name": "DRY CREEK RANGER STATION, NM US",
      "datacoverage": 0.7028,
      "id": "COOP:292597",
      "elevationUnit": "METERS",
      "longitude": -108.8
    },
    {
      "elevation": 2070.5,
      "mindate": "1931-01-01",
      "maxdate": "2015-11-01",
      "latitude": 36.9358,
      "name": "DULCE, NM US",
      "datacoverage": 0.9372,
      "id": "COOP:292608",
      "elevationUnit": "METERS",
      "longitude": -107
    },
    {
      "elevation": 1473.1,
      "mindate": "1931-01-01",
      "maxdate": "1936-08-01",
      "latitude": 31.68333,
      "name": "DUNAGAN RANCH, NM US",
      "datacoverage": 0.9999,
      "id": "COOP:292612",
      "elevationUnit": "METERS",
      "longitude": -108.83333
    },
    {
      "elevation": 1662.1,
      "mindate": "1947-01-01",
      "maxdate": "1948-08-01",
      "latitude": 32.81667,
      "name": "DUNKEN, NM US",
      "datacoverage": 0.8489,
      "id": "COOP:292620",
      "elevationUnit": "METERS",
      "longitude": -105.2
    },
    {
      "elevation": 1229,
      "mindate": "1947-11-01",
      "maxdate": "1962-01-01",
      "latitude": 34.13333,
      "name": "DUNLAP 4 NE, NM US",
      "datacoverage": 0.9091,
      "id": "COOP:292625",
      "elevationUnit": "METERS",
      "longitude": -104.5
    },
    {
      "elevation": 1915.7,
      "mindate": "1931-01-01",
      "maxdate": "2014-01-01",
      "latitude": 34.4691,
      "name": "DURAN, NM US",
      "datacoverage": 0.5492,
      "id": "COOP:292665",
      "elevationUnit": "METERS",
      "longitude": -105.3975
    },
    {
      "elevation": 1072.9,
      "mindate": "1968-03-01",
      "maxdate": "1986-07-01",
      "latitude": 32.535,
      "name": "WESTERN AG MINERALS, NM US",
      "datacoverage": 1,
      "id": "COOP:292677",
      "elevationUnit": "METERS",
      "longitude": -103.93556
    },
    {
      "elevation": 2439.9,
      "mindate": "1947-10-01",
      "maxdate": "1949-11-01",
      "latitude": 33.4,
      "name": "EAGLE CREEK INTAKE, NM US",
      "datacoverage": 0.8554,
      "id": "COOP:292694",
      "elevationUnit": "METERS",
      "longitude": -105.7
    },
    {
      "elevation": 2523.7,
      "mindate": "1931-04-01",
      "maxdate": "2015-11-01",
      "latitude": 36.5575,
      "name": "EAGLE NEST, NM US",
      "datacoverage": 0.9734,
      "id": "COOP:292700",
      "elevationUnit": "METERS",
      "longitude": -105.2627
    },
    {
      "elevation": 2073.9,
      "mindate": "1944-07-01",
      "maxdate": "1959-08-01",
      "latitude": 35.05,
      "name": "EDGEWOOD, NM US",
      "datacoverage": 0.945,
      "id": "COOP:292751",
      "elevationUnit": "METERS",
      "longitude": -106.13333
    },
    {
      "elevation": 2106.2,
      "mindate": "1998-06-01",
      "maxdate": "2008-01-01",
      "latitude": 35.1675,
      "name": "EDGEWOOD CEDAR GROVE, NM US",
      "datacoverage": 0.9996,
      "id": "COOP:292753",
      "elevationUnit": "METERS",
      "longitude": -106.2061
    },
    {
      "elevation": 1617,
      "mindate": "1933-01-01",
      "maxdate": "1962-07-01",
      "latitude": 31.48333,
      "name": "EICKS RANCH, NM US",
      "datacoverage": 0.9451,
      "id": "COOP:292757",
      "elevationUnit": "METERS",
      "longitude": -108.93333
    },
    {
      "elevation": 2171.1,
      "mindate": "1940-03-01",
      "maxdate": "1949-02-16",
      "latitude": 35.01667,
      "name": "EL MORRO CAA AIRPORT, NM US",
      "datacoverage": 0.9059,
      "id": "COOP:292780",
      "elevationUnit": "METERS",
      "longitude": -108.4
    },
    {
      "elevation": 2201.6,
      "mindate": "1938-03-01",
      "maxdate": "2015-11-01",
      "latitude": 35.038,
      "name": "EL MORRO NATIONAL MON, NM US",
      "datacoverage": 0.986,
      "id": "COOP:292785",
      "elevationUnit": "METERS",
      "longitude": -108.3491
    },
    {
      "elevation": 1708.1,
      "mindate": "1950-11-01",
      "maxdate": "1952-03-01",
      "latitude": 35.28333,
      "name": "EL PUEBLO PROJECT, NM US",
      "datacoverage": 1,
      "id": "COOP:292810",
      "elevationUnit": "METERS",
      "longitude": -105.26667
    },
    {
      "elevation": 2094,
      "mindate": "1931-01-01",
      "maxdate": "2015-11-01",
      "latitude": 36.3466,
      "name": "EL RITO, NM US",
      "datacoverage": 0.9657,
      "id": "COOP:292820",
      "elevationUnit": "METERS",
      "longitude": -106.1877
    },
    {
      "elevation": 2054.4,
      "mindate": "1936-07-01",
      "maxdate": "2015-11-01",
      "latitude": 36.5927,
      "name": "EL VADO DAM, NM US",
      "datacoverage": 0.9853,
      "id": "COOP:292837",
      "elevationUnit": "METERS",
      "longitude": -106.73
    },
    {
      "elevation": 1393.2,
      "mindate": "1908-08-01",
      "maxdate": "2015-11-01",
      "latitude": 33.146,
      "name": "ELEPHANT BUTTE DAM, NM US",
      "datacoverage": 0.9666,
      "id": "COOP:292848",
      "elevationUnit": "METERS",
      "longitude": -107.1843
    },
    {
      "elevation": 1339.6,
      "mindate": "1931-01-01",
      "maxdate": "2012-12-01",
      "latitude": 33.9402,
      "name": "ELIDA, NM US",
      "datacoverage": 0.9674,
      "id": "COOP:292854",
      "elevationUnit": "METERS",
      "longitude": -103.6572
    },
    {
      "elevation": 2582.9,
      "mindate": "1931-01-01",
      "maxdate": "1948-01-01",
      "latitude": 36.61667,
      "name": "ELIZABETHTOWN, NM US",
      "datacoverage": 0.9707,
      "id": "COOP:292860",
      "elevationUnit": "METERS",
      "longitude": -105.28333
    },
    {
      "elevation": 1808.7,
      "mindate": "1931-01-01",
      "maxdate": "2015-11-01",
      "latitude": 32.916,
      "name": "ELK, NM US",
      "datacoverage": 0.9686,
      "id": "COOP:292865",
      "elevationUnit": "METERS",
      "longitude": -105.3381
    },
    {
      "elevation": 1229,
      "mindate": "1931-01-01",
      "maxdate": "1948-06-01",
      "latitude": 33.7,
      "name": "ELKINS, NM US",
      "datacoverage": 0.8954,
      "id": "COOP:292871",
      "elevationUnit": "METERS",
      "longitude": -104.06667
    },
    {
      "elevation": 1764.5,
      "mindate": "1948-04-01",
      "maxdate": "1948-05-01",
      "latitude": 36.2,
      "name": "EMBUDO, NM US",
      "datacoverage": 0.998,
      "id": "COOP:292900",
      "elevationUnit": "METERS",
      "longitude": -105.96667
    },
    {
      "elevation": 1250.9,
      "mindate": "1941-01-01",
      "maxdate": "1959-06-01",
      "latitude": 35.06667,
      "name": "ENDEE 5 SSE, NM US",
      "datacoverage": 0.9733,
      "id": "COOP:292940",
      "elevationUnit": "METERS",
      "longitude": -103.06667
    },
    {
      "elevation": 1455.1,
      "mindate": "1927-10-01",
      "maxdate": "1961-05-01",
      "latitude": 33.18333,
      "name": "ENGLE, NM US",
      "datacoverage": 0.9381,
      "id": "COOP:292945",
      "elevationUnit": "METERS",
      "longitude": -107.03333
    },
    {
      "elevation": 1478,
      "mindate": "1940-09-01",
      "maxdate": "1950-06-01",
      "latitude": 33.23333,
      "name": "ENGLE CAA AIRPORT, NM US",
      "datacoverage": 0.9491,
      "id": "COOP:292951",
      "elevationUnit": "METERS",
      "longitude": -107.01667
    },
    {
      "elevation": 1774.9,
      "mindate": "1961-06-01",
      "maxdate": "1976-05-01",
      "latitude": 33.21667,
      "name": "ENGLE 14 E, NM US",
      "datacoverage": 1,
      "id": "COOP:292960",
      "elevationUnit": "METERS",
      "longitude": -106.8
    },
    {
      "elevation": 1610,
      "mindate": "1976-06-01",
      "maxdate": "1988-12-01",
      "latitude": 33.3,
      "name": "ENGLE 15 NE, NM US",
      "datacoverage": 0.9932,
      "id": "COOP:292965",
      "elevationUnit": "METERS",
      "longitude": -106.83333
    },
    {
      "elevation": 1713,
      "mindate": "1938-04-01",
      "maxdate": "2013-12-01",
      "latitude": 35.9988,
      "name": "ESPANOLA, NM US",
      "datacoverage": 0.8955,
      "id": "COOP:293031",
      "elevationUnit": "METERS",
      "longitude": -106.0588
    },
    {
      "elevation": 1698.7,
      "mindate": "1948-05-01",
      "maxdate": "1948-05-01",
      "latitude": 35.9547,
      "name": "ESPANOLA HIGHWAY BRIDGE, NM US",
      "datacoverage": 0.9819,
      "id": "COOP:293037",
      "elevationUnit": "METERS",
      "longitude": -106.075
    },
    {
      "elevation": 1983,
      "mindate": "1942-04-01",
      "maxdate": "1961-02-01",
      "latitude": 35.7,
      "name": "ESPIRITU SANTO GRANT, NM US",
      "datacoverage": 0.5022,
      "id": "COOP:293042",
      "elevationUnit": "METERS",
      "longitude": -106.95
    },
    {
      "elevation": 1871.5,
      "mindate": "1937-05-01",
      "maxdate": "2015-11-01",
      "latitude": 34.8241,
      "name": "ESTANCIA 4 N, NM US",
      "datacoverage": 0.9756,
      "id": "COOP:293060",
      "elevationUnit": "METERS",
      "longitude": -106.0344
    },
    {
      "elevation": 2349.1,
      "mindate": "1942-01-01",
      "maxdate": "1951-08-01",
      "latitude": 36.45,
      "name": "EUBANK RANCH, NM US",
      "datacoverage": 0.7846,
      "id": "COOP:293073",
      "elevationUnit": "METERS",
      "longitude": -106.5
    },
    {
      "elevation": 1503.9,
      "mindate": "1938-09-01",
      "maxdate": "1957-07-01",
      "latitude": 35.01667,
      "name": "EXPERIMENT FARM, NM US",
      "datacoverage": 0.9648,
      "id": "COOP:293094",
      "elevationUnit": "METERS",
      "longitude": -106.68333
    },
    {
      "elevation": 2439.9,
      "mindate": "1938-01-01",
      "maxdate": "1949-12-01",
      "latitude": 36.35,
      "name": "FARLEY, NM US",
      "datacoverage": 0.5417,
      "id": "COOP:293117",
      "elevationUnit": "METERS",
      "longitude": -104.03333
    },
    {
      "elevation": 1676.2,
      "mindate": "1941-07-01",
      "maxdate": "1969-12-01",
      "latitude": 36.74354,
      "name": "FARMINGTON FOUR CORNERS REGIONAL AIRPORT, NM US",
      "datacoverage": 0.9736,
      "id": "COOP:293128",
      "elevationUnit": "METERS",
      "longitude": -108.22931
    },
    {
      "elevation": 1647.1,
      "mindate": "1931-01-01",
      "maxdate": "1978-03-24",
      "latitude": 36.75,
      "name": "FARMINGTON 4 NE, NM US",
      "datacoverage": 0.9348,
      "id": "COOP:293134",
      "elevationUnit": "METERS",
      "longitude": -108.16667
    },
    {
      "elevation": 1594.4,
      "mindate": "1948-04-01",
      "maxdate": "1948-05-01",
      "latitude": 36.71667,
      "name": "FARMINGTON 3, NM US",
      "datacoverage": 0.998,
      "id": "COOP:293140",
      "elevationUnit": "METERS",
      "longitude": -108.21667
    },
    {
      "elevation": 1714.5,
      "mindate": "1978-04-01",
      "maxdate": "2015-11-01",
      "latitude": 36.6897,
      "name": "FARMINGTON AG SCIENCE CNT, NM US",
      "datacoverage": 0.9955,
      "id": "COOP:293142",
      "elevationUnit": "METERS",
      "longitude": -108.3086
    },
    {
      "elevation": 1645.9,
      "mindate": "1942-01-01",
      "maxdate": "1980-05-01",
      "latitude": 33.9,
      "name": "CIRCLE F RANCH, NM US",
      "datacoverage": 0.9826,
      "id": "COOP:293145",
      "elevationUnit": "METERS",
      "longitude": -105
    },
    {
      "elevation": 1600.5,
      "mindate": "1946-06-01",
      "maxdate": "2015-11-01",
      "latitude": 32.6287,
      "name": "FAYWOOD, NM US",
      "datacoverage": 0.9376,
      "id": "COOP:293157",
      "elevationUnit": "METERS",
      "longitude": -107.8733
    },
    {
      "elevation": 1617,
      "mindate": "1931-02-01",
      "maxdate": "1964-12-01",
      "latitude": 33,
      "name": "FLYING H, NM US",
      "datacoverage": 0.946,
      "id": "COOP:293174",
      "elevationUnit": "METERS",
      "longitude": -105.1
    },
    {
      "elevation": 2153.4,
      "mindate": "1933-11-01",
      "maxdate": "2007-09-01",
      "latitude": 34.65278,
      "name": "FENCE LAKE, NM US",
      "datacoverage": 0.6708,
      "id": "COOP:293180",
      "elevationUnit": "METERS",
      "longitude": -108.67639
    },
    {
      "elevation": 2130.6,
      "mindate": "2008-09-01",
      "maxdate": "2013-12-01",
      "latitude": 34.67917,
      "name": "FENCE LAKE 2, NM US",
      "datacoverage": 0.8438,
      "id": "COOP:293182",
      "elevationUnit": "METERS",
      "longitude": -108.72306
    },
    {
      "elevation": 1356.4,
      "mindate": "1929-08-01",
      "maxdate": "1992-07-31",
      "latitude": 32.43333,
      "name": "FLORIDA, NM US",
      "datacoverage": 0.8687,
      "id": "COOP:293225",
      "elevationUnit": "METERS",
      "longitude": -107.48333
    },
    {
      "elevation": 1311.9,
      "mindate": "1931-01-01",
      "maxdate": "1959-12-01",
      "latitude": 34.21667,
      "name": "FLOYD, NM US",
      "datacoverage": 0.9713,
      "id": "COOP:293231",
      "elevationUnit": "METERS",
      "longitude": -103.55
    },
    {
      "elevation": 2207.4,
      "mindate": "1958-12-01",
      "maxdate": "1966-03-01",
      "latitude": 35.33333,
      "name": "SAN MATEO, NM US",
      "datacoverage": 0.9995,
      "id": "COOP:293234",
      "elevationUnit": "METERS",
      "longitude": -107.65
    },
    {
      "elevation": 1617,
      "mindate": "1965-01-01",
      "maxdate": "1978-09-01",
      "latitude": 33,
      "name": "FLYING H, NM US",
      "datacoverage": 1,
      "id": "COOP:293237",
      "elevationUnit": "METERS",
      "longitude": -105.1
    },
    {
      "elevation": 2012.9,
      "mindate": "1947-10-01",
      "maxdate": "1950-02-01",
      "latitude": 36.86667,
      "name": "FOLSOM, NM US",
      "datacoverage": 0.0121,
      "id": "COOP:293242",
      "elevationUnit": "METERS",
      "longitude": -103.91667
    },
    {
      "elevation": 1524.9,
      "mindate": "1941-01-01",
      "maxdate": "1960-12-01",
      "latitude": 34.8,
      "name": "FORREST, NM US",
      "datacoverage": 0.9,
      "id": "COOP:293260",
      "elevationUnit": "METERS",
      "longitude": -103.6
    },
    {
      "elevation": 1874.2,
      "mindate": "1931-01-01",
      "maxdate": "2011-07-01",
      "latitude": 32.7901,
      "name": "FORT BAYARD 4 W, NM US",
      "datacoverage": 0.9927,
      "id": "COOP:293265",
      "elevationUnit": "METERS",
      "longitude": -108.22685
    },
    {
      "elevation": 1524.9,
      "mindate": "1947-10-01",
      "maxdate": "1950-08-13",
      "latitude": 33.63333,
      "name": "FORT CRAIG, NM US",
      "datacoverage": 0.7696,
      "id": "COOP:293271",
      "elevationUnit": "METERS",
      "longitude": -107.16667
    },
    {
      "elevation": 1897.1,
      "mindate": "1931-01-01",
      "maxdate": "1975-12-01",
      "latitude": 33.5,
      "name": "FORT STANTON, NM US",
      "datacoverage": 0.9413,
      "id": "COOP:293288",
      "elevationUnit": "METERS",
      "longitude": -105.51667
    },
    {
      "elevation": 1226.8,
      "mindate": "1931-01-01",
      "maxdate": "2011-12-01",
      "latitude": 34.4666,
      "name": "FORT SUMNER, NM US",
      "datacoverage": 0.9558,
      "id": "COOP:293294",
      "elevationUnit": "METERS",
      "longitude": -104.2319
    },
    {
      "elevation": 1234.4,
      "mindate": "1946-01-01",
      "maxdate": "2015-11-01",
      "latitude": 34.3941,
      "name": "FORT SUMNER 5 S, NM US",
      "datacoverage": 0.9905,
      "id": "COOP:293296",
      "elevationUnit": "METERS",
      "longitude": -104.2502
    },
    {
      "elevation": 2135.1,
      "mindate": "1939-12-01",
      "maxdate": "1966-08-01",
      "latitude": 35.46667,
      "name": "FORT WINGATE, NM US",
      "datacoverage": 0.9719,
      "id": "COOP:293305",
      "elevationUnit": "METERS",
      "longitude": -108.53333
    },
    {
      "elevation": 1873,
      "mindate": "1958-07-01",
      "maxdate": "1959-07-01",
      "latitude": 33.3,
      "name": "FOWLER RANCH, NM US",
      "datacoverage": 0.9992,
      "id": "COOP:293315",
      "elevationUnit": "METERS",
      "longitude": -108.13333
    },
    {
      "elevation": 1250.9,
      "mindate": "1951-08-01",
      "maxdate": "1957-06-01",
      "latitude": 34.66667,
      "name": "FRIO DRAW, NM US",
      "datacoverage": 1,
      "id": "COOP:293331",
      "elevationUnit": "METERS",
      "longitude": -103.05
    },
    {
      "elevation": 1563.6,
      "mindate": "1938-06-01",
      "maxdate": "2010-08-01",
      "latitude": 36.73806,
      "name": "FRUITLAND, NM US",
      "datacoverage": 0.9446,
      "id": "COOP:293340",
      "elevationUnit": "METERS",
      "longitude": -108.34833
    },
    {
      "elevation": 1365.2,
      "mindate": "1899-06-01",
      "maxdate": "2007-01-01",
      "latitude": 32.22611,
      "name": "GAGE, NM US",
      "datacoverage": 0.9427,
      "id": "COOP:293368",
      "elevationUnit": "METERS",
      "longitude": -108.08667
    },
    {
      "elevation": 1857.1,
      "mindate": "1958-01-01",
      "maxdate": "1978-01-01",
      "latitude": 35.4,
      "name": "GALISTEO, NM US",
      "datacoverage": 0.0275,
      "id": "COOP:293374",
      "elevationUnit": "METERS",
      "longitude": -105.95
    },
    {
      "elevation": 2025.1,
      "mindate": "1931-01-01",
      "maxdate": "1946-04-01",
      "latitude": 34.15,
      "name": "GALLINAS RANGER STATION, NM US",
      "datacoverage": 0.9513,
      "id": "COOP:293408",
      "elevationUnit": "METERS",
      "longitude": -105.65
    },
    {
      "elevation": 2012.9,
      "mindate": "1948-05-01",
      "maxdate": "1979-12-01",
      "latitude": 35.53333,
      "name": "GALLUP 5 E, NM US",
      "datacoverage": 0.9605,
      "id": "COOP:293420",
      "elevationUnit": "METERS",
      "longitude": -108.65
    },
    {
      "elevation": 1970.3,
      "mindate": "1973-07-01",
      "maxdate": "2015-11-01",
      "latitude": 35.50857,
      "name": "GALLUP MUNICIPAL AIRPORT, NM US",
      "datacoverage": 0.9627,
      "id": "COOP:293422",
      "elevationUnit": "METERS",
      "longitude": -108.79319
    },
    {
      "elevation": 2165.9,
      "mindate": "1966-09-01",
      "maxdate": "1975-01-01",
      "latitude": 35.45,
      "name": "GALLUP RANGER STATION, NM US",
      "datacoverage": 0.9997,
      "id": "COOP:293425",
      "elevationUnit": "METERS",
      "longitude": -108.56667
    },
    {
      "elevation": 2004.7,
      "mindate": "2008-10-01",
      "maxdate": "2015-11-01",
      "latitude": 35.5282,
      "name": "GALLUP SAND AND GRAVEL, NM US",
      "datacoverage": 0.9886,
      "id": "COOP:293428",
      "elevationUnit": "METERS",
      "longitude": -108.7031
    },
    {
      "elevation": 2055.9,
      "mindate": "1931-01-01",
      "maxdate": "1951-05-01",
      "latitude": 35.6,
      "name": "GAMERCO, NM US",
      "datacoverage": 0.9593,
      "id": "COOP:293431",
      "elevationUnit": "METERS",
      "longitude": -108.76667
    },
    {
      "elevation": 1250.9,
      "mindate": "1944-08-01",
      "maxdate": "1948-05-01",
      "latitude": 32.75,
      "name": "GARFIELD, NM US",
      "datacoverage": 0.3261,
      "id": "COOP:293448",
      "elevationUnit": "METERS",
      "longitude": -107.26667
    },
    {
      "elevation": 2514.6,
      "mindate": "1953-11-01",
      "maxdate": "2015-11-01",
      "latitude": 35.8917,
      "name": "GASCON, NM US",
      "datacoverage": 0.9933,
      "id": "COOP:293488",
      "elevationUnit": "METERS",
      "longitude": -105.4481
    },
    {
      "elevation": 2263.1,
      "mindate": "1931-01-01",
      "maxdate": "1970-01-01",
      "latitude": 36.43333,
      "name": "GAVILAN, NM US",
      "datacoverage": 0.9808,
      "id": "COOP:293505",
      "elevationUnit": "METERS",
      "longitude": -106.96667
    },
    {
      "elevation": 1524.9,
      "mindate": "1971-09-01",
      "maxdate": "1974-01-01",
      "latitude": 34.68333,
      "name": "GENNETTI RANCH, NM US",
      "datacoverage": 0.8264,
      "id": "COOP:293509",
      "elevationUnit": "METERS",
      "longitude": -104.65
    },
    {
      "elevation": 1981.2,
      "mindate": "1942-01-01",
      "maxdate": "2015-11-01",
      "latitude": 36.3336,
      "name": "GHOST RANCH, NM US",
      "datacoverage": 0.938,
      "id": "COOP:293511",
      "elevationUnit": "METERS",
      "longitude": -106.4744
    },
    {
      "elevation": 1417.9,
      "mindate": "1954-10-01",
      "maxdate": "1959-12-01",
      "latitude": 33.03333,
      "name": "GILA 6 NNE, NM US",
      "datacoverage": 0.9839,
      "id": "COOP:293528",
      "elevationUnit": "METERS",
      "longitude": -108.53333
    },
    {
      "elevation": 1717.9,
      "mindate": "1957-05-01",
      "maxdate": "2015-11-01",
      "latitude": 33.1975,
      "name": "GILA HOT SPRINGS, NM US",
      "datacoverage": 0.9473,
      "id": "COOP:293530",
      "elevationUnit": "METERS",
      "longitude": -108.2075
    },
    {
      "elevation": 1754.1,
      "mindate": "1947-06-01",
      "maxdate": "1957-04-01",
      "latitude": 36.21667,
      "name": "GLADSTONE, NM US",
      "datacoverage": 0.9496,
      "id": "COOP:293552",
      "elevationUnit": "METERS",
      "longitude": -103.93333
    },
    {
      "elevation": 1177.1,
      "mindate": "1931-01-01",
      "maxdate": "1936-10-01",
      "latitude": 35.18333,
      "name": "GLEN RIO, NM US",
      "datacoverage": 0.9998,
      "id": "COOP:293569",
      "elevationUnit": "METERS",
      "longitude": -103.05
    },
    {
      "elevation": 1440.2,
      "mindate": "1937-09-01",
      "maxdate": "1948-02-01",
      "latitude": 33.3216,
      "name": "GLENWOOD, NM US",
      "datacoverage": 0.7304,
      "id": "COOP:293575",
      "elevationUnit": "METERS",
      "longitude": -108.8794
    },
    {
      "elevation": 1440.2,
      "mindate": "1948-06-01",
      "maxdate": "2015-11-01",
      "latitude": 33.3216,
      "name": "GLENWOOD, NM US",
      "datacoverage": 0.9543,
      "id": "COOP:293577",
      "elevationUnit": "METERS",
      "longitude": -108.8794
    },
    {
      "elevation": 2292.1,
      "mindate": "1944-07-01",
      "maxdate": "2010-07-01",
      "latitude": 35.5816,
      "name": "GLORIETA, NM US",
      "datacoverage": 0.9659,
      "id": "COOP:293586",
      "elevationUnit": "METERS",
      "longitude": -105.7727
    },
    {
      "elevation": 2047,
      "mindate": "1955-07-01",
      "maxdate": "1958-04-01",
      "latitude": 36.7,
      "name": "GOBERNADOR, NM US",
      "datacoverage": 0.9999,
      "id": "COOP:293588",
      "elevationUnit": "METERS",
      "longitude": -107.4
    },
    {
      "elevation": 2044,
      "mindate": "1951-05-01",
      "maxdate": "1955-04-01",
      "latitude": 36.7,
      "name": "GOBERNADOR 7 W, NM US",
      "datacoverage": 0.9375,
      "id": "COOP:293589",
      "elevationUnit": "METERS",
      "longitude": -107.48333
    },
    {
      "elevation": 2042.2,
      "mindate": "1944-07-01",
      "maxdate": "2015-11-01",
      "latitude": 35.2655,
      "name": "GOLDEN, NM US",
      "datacoverage": 0.9487,
      "id": "COOP:293592",
      "elevationUnit": "METERS",
      "longitude": -106.2144
    },
    {
      "elevation": 1556,
      "mindate": "1949-09-01",
      "maxdate": "1952-05-01",
      "latitude": 34.6,
      "name": "GOOD RANCH, NM US",
      "datacoverage": 0.8792,
      "id": "COOP:293609",
      "elevationUnit": "METERS",
      "longitude": -104.78333
    },
    {
      "elevation": 2196.1,
      "mindate": "1932-08-01",
      "maxdate": "1951-04-01",
      "latitude": 36.68333,
      "name": "GOVERNADOR, NM US",
      "datacoverage": 0.9602,
      "id": "COOP:293621",
      "elevationUnit": "METERS",
      "longitude": -107.36667
    },
    {
      "elevation": 1220.1,
      "mindate": "1962-03-01",
      "maxdate": "1965-02-01",
      "latitude": 32.31667,
      "name": "GOWDY RANCH, NM US",
      "datacoverage": 0.9998,
      "id": "COOP:293624",
      "elevationUnit": "METERS",
      "longitude": -105.1
    },
    {
      "elevation": 2226.9,
      "mindate": "1931-01-01",
      "maxdate": "1948-11-01",
      "latitude": 35.33333,
      "name": "GOWER, NM US",
      "datacoverage": 0.9209,
      "id": "COOP:293626",
      "elevationUnit": "METERS",
      "longitude": -108.75
    },
    {
      "elevation": 2011.7,
      "mindate": "1931-01-01",
      "maxdate": "2015-11-01",
      "latitude": 34.2594,
      "name": "GRAN QUIVIRA NATIONAL MON, NM US",
      "datacoverage": 0.9706,
      "id": "COOP:293649",
      "elevationUnit": "METERS",
      "longitude": -106.0931
    }
  ]
}
