{
  "metadata": {
    "resultset": {
      "offset": 22900,
      "count": 154115,
      "limit": 100
    }
  },
  "results": [
    {
      "mindate": "1886-01-01",
      "maxdate": "1895-01-31",
      "latitude": -28.7167,
      "name": "NEW MARACARRA, AS",
      "datacoverage": 0.1477,
      "id": "GHCND:ASN00008183",
      "longitude": 114.8167
    },
    {
      "mindate": "1911-10-01",
      "maxdate": "1919-03-31",
      "latitude": -28,
      "name": "AJANA 2, AS",
      "datacoverage": 0.9993,
      "id": "GHCND:ASN00008184",
      "longitude": 114.8
    },
    {
      "mindate": "1897-12-01",
      "maxdate": "1942-12-31",
      "latitude": -29.4,
      "name": "ARRINO, AS",
      "datacoverage": 0.916,
      "id": "GHCND:ASN00008185",
      "longitude": 115.6
    },
    {
      "mindate": "1926-01-01",
      "maxdate": "1932-12-31",
      "latitude": -28.25,
      "name": "BADDERA, AS",
      "datacoverage": 1,
      "id": "GHCND:ASN00008186",
      "longitude": 114.7
    },
    {
      "mindate": "1934-08-01",
      "maxdate": "1944-10-31",
      "latitude": -30,
      "name": "BEALIBA DOWNS, AS",
      "datacoverage": 0.9917,
      "id": "GHCND:ASN00008187",
      "longitude": 116.4
    },
    {
      "mindate": "1914-05-01",
      "maxdate": "1923-09-30",
      "latitude": -28.3,
      "name": "BEATININE, AS",
      "datacoverage": 0.9993,
      "id": "GHCND:ASN00008188",
      "longitude": 114.8
    },
    {
      "mindate": "1916-01-01",
      "maxdate": "1919-06-30",
      "latitude": -30.6,
      "name": "BERKSHIRE VALLEY POST OFFICE 1, AS",
      "datacoverage": 1,
      "id": "GHCND:ASN00008189",
      "longitude": 116.2
    },
    {
      "mindate": "1912-04-01",
      "maxdate": "1919-12-31",
      "latitude": -27.8,
      "name": "BOOMGALA, AS",
      "datacoverage": 1,
      "id": "GHCND:ASN00008190",
      "longitude": 114.7
    },
    {
      "mindate": "1911-01-01",
      "maxdate": "1928-04-30",
      "latitude": -29.1,
      "name": "CADGY CADGY, AS",
      "datacoverage": 0.9763,
      "id": "GHCND:ASN00008191",
      "longitude": 116.2
    },
    {
      "mindate": "1912-01-01",
      "maxdate": "1919-03-31",
      "latitude": -30.15,
      "name": "CANNINGWOOD, AS",
      "datacoverage": 0.9314,
      "id": "GHCND:ASN00008192",
      "longitude": 116.3
    },
    {
      "mindate": "1912-10-01",
      "maxdate": "1922-08-31",
      "latitude": -28.4,
      "name": "COLDSTREAM, AS",
      "datacoverage": 1,
      "id": "GHCND:ASN00008193",
      "longitude": 115.3
    },
    {
      "mindate": "1908-05-01",
      "maxdate": "1919-09-30",
      "latitude": -30.5,
      "name": "COOMBERDALE 1, AS",
      "datacoverage": 0.8394,
      "id": "GHCND:ASN00008194",
      "longitude": 116.1
    },
    {
      "mindate": "1925-01-01",
      "maxdate": "1942-08-31",
      "latitude": -28.5,
      "name": "DEEPDENE, AS",
      "datacoverage": 0.9954,
      "id": "GHCND:ASN00008195",
      "longitude": 115.7
    },
    {
      "mindate": "1891-01-01",
      "maxdate": "1902-11-30",
      "latitude": -29.25,
      "name": "PEARSE",
      "datacoverage": 0.1119,
      "id": "GHCND:ASN00008196",
      "longitude": 114.9
    },
    {
      "mindate": "1926-12-01",
      "maxdate": "1936-12-31",
      "latitude": -30.6,
      "name": "DULA, AS",
      "datacoverage": 0.8565,
      "id": "GHCND:ASN00008197",
      "longitude": 116.6
    },
    {
      "mindate": "1910-01-01",
      "maxdate": "1919-11-30",
      "latitude": -30.6,
      "name": "DULI, AS",
      "datacoverage": 0.9751,
      "id": "GHCND:ASN00008198",
      "longitude": 116.9833
    },
    {
      "mindate": "1912-08-01",
      "maxdate": "1920-06-30",
      "latitude": -28.4,
      "name": "ENEGEE, AS",
      "datacoverage": 0.9996,
      "id": "GHCND:ASN00008199",
      "longitude": 114.8
    },
    {
      "elevation": 160,
      "mindate": "1750-03-25",
      "maxdate": "2025-02-27",
      "latitude": -28.6936,
      "name": "ERADU, AS",
      "datacoverage": 0.691,
      "id": "GHCND:ASN00008200",
      "elevationUnit": "METERS",
      "longitude": 115.0408
    },
    {
      "mindate": "1926-05-01",
      "maxdate": "1932-12-31",
      "latitude": -29.6,
      "name": "EUROGOBBIE, AS",
      "datacoverage": 0.9989,
      "id": "GHCND:ASN00008201",
      "longitude": 116.7
    },
    {
      "elevation": 300,
      "mindate": "2002-07-01",
      "maxdate": "2025-02-27",
      "latitude": -30.6219,
      "name": "BINDI BINDI NORTH, AS",
      "datacoverage": 0.9756,
      "id": "GHCND:ASN00008202",
      "elevationUnit": "METERS",
      "longitude": 116.3794
    },
    {
      "mindate": "1922-07-01",
      "maxdate": "1928-08-31",
      "latitude": -28.8,
      "name": "ERADU GREENLANDS, AS",
      "datacoverage": 1,
      "id": "GHCND:ASN00008203",
      "longitude": 115.0167
    },
    {
      "mindate": "1930-05-01",
      "maxdate": "1947-10-31",
      "latitude": -30.2,
      "name": "GUNYIDI, AS",
      "datacoverage": 0.8048,
      "id": "GHCND:ASN00008204",
      "longitude": 116.1
    },
    {
      "mindate": "1914-03-01",
      "maxdate": "1922-06-30",
      "latitude": -30.1,
      "name": "KILLARNEY, AS",
      "datacoverage": 0.9995,
      "id": "GHCND:ASN00008205",
      "longitude": 116.8
    },
    {
      "mindate": "1907-01-01",
      "maxdate": "1927-05-31",
      "latitude": -28.7,
      "name": "KOCKATEA, AS",
      "datacoverage": 0.9104,
      "id": "GHCND:ASN00008206",
      "longitude": 115.55
    },
    {
      "mindate": "1923-03-01",
      "maxdate": "1932-12-31",
      "latitude": -30.8,
      "name": "KOOJAN, AS",
      "datacoverage": 0.9321,
      "id": "GHCND:ASN00008207",
      "longitude": 116
    },
    {
      "mindate": "1914-09-01",
      "maxdate": "1931-02-28",
      "latitude": -30.4,
      "name": "LEWISTON, AS",
      "datacoverage": 0.9396,
      "id": "GHCND:ASN00008208",
      "longitude": 116.65
    },
    {
      "mindate": "1910-08-01",
      "maxdate": "1924-12-31",
      "latitude": -28.6,
      "name": "BEATTY SIDING, AS",
      "datacoverage": 1,
      "id": "GHCND:ASN00008209",
      "longitude": 115.6
    },
    {
      "mindate": "1933-10-01",
      "maxdate": "1940-11-30",
      "latitude": -29,
      "name": "MARALANA, AS",
      "datacoverage": 0.9995,
      "id": "GHCND:ASN00008210",
      "longitude": 116.1
    },
    {
      "mindate": "1913-01-01",
      "maxdate": "1919-10-31",
      "latitude": -30.05,
      "name": "MARCHAGEE, AS",
      "datacoverage": 0.9991,
      "id": "GHCND:ASN00008211",
      "longitude": 116.05
    },
    {
      "mindate": "1912-01-01",
      "maxdate": "1919-06-30",
      "latitude": -29.4,
      "name": "ALLENDALE, AS",
      "datacoverage": 0.9992,
      "id": "GHCND:ASN00008212",
      "longitude": 116.8
    },
    {
      "mindate": "1928-05-01",
      "maxdate": "1941-09-30",
      "latitude": -29.6,
      "name": "MINGIN, AS",
      "datacoverage": 0.8012,
      "id": "GHCND:ASN00008213",
      "longitude": 116.0167
    },
    {
      "mindate": "1902-03-01",
      "maxdate": "1929-01-31",
      "latitude": -27.9,
      "name": "MOUNT VIEW, AS",
      "datacoverage": 0.9493,
      "id": "GHCND:ASN00008214",
      "longitude": 114.6
    },
    {
      "elevation": 280,
      "mindate": "1915-08-01",
      "maxdate": "1985-09-30",
      "latitude": -30.4853,
      "name": "NARDY, AS",
      "datacoverage": 0.6615,
      "id": "GHCND:ASN00008215",
      "elevationUnit": "METERS",
      "longitude": 116.2664
    },
    {
      "mindate": "1928-06-01",
      "maxdate": "1935-04-30",
      "latitude": -30.85,
      "name": "PIAWANING 1, AS",
      "datacoverage": 1,
      "id": "GHCND:ASN00008216",
      "longitude": 116.3
    },
    {
      "mindate": "1907-01-01",
      "maxdate": "1920-07-31",
      "latitude": -29.9167,
      "name": "TURIPA, AS",
      "datacoverage": 0.7738,
      "id": "GHCND:ASN00008218",
      "longitude": 116.1
    },
    {
      "mindate": "1925-03-01",
      "maxdate": "1936-12-31",
      "latitude": -30.9,
      "name": "VALLEY FARM, AS",
      "datacoverage": 0.9646,
      "id": "GHCND:ASN00008219",
      "longitude": 116.8
    },
    {
      "mindate": "1915-09-01",
      "maxdate": "1939-01-31",
      "latitude": -29.8,
      "name": "WARWICK FARM, AS",
      "datacoverage": 0.7152,
      "id": "GHCND:ASN00008220",
      "longitude": 116.7
    },
    {
      "mindate": "1910-08-01",
      "maxdate": "1943-06-30",
      "latitude": -30.8,
      "name": "WIRILDA KOOGAN, AS",
      "datacoverage": 0.8988,
      "id": "GHCND:ASN00008221",
      "longitude": 116.15
    },
    {
      "mindate": "1910-08-01",
      "maxdate": "1930-09-30",
      "latitude": -29.2,
      "name": "WOOLTANA, AS",
      "datacoverage": 0.8456,
      "id": "GHCND:ASN00008222",
      "longitude": 115.9
    },
    {
      "elevation": 250,
      "mindate": "1963-11-01",
      "maxdate": "1981-07-31",
      "latitude": -28.5617,
      "name": "NANSON, AS",
      "datacoverage": 0.8967,
      "id": "GHCND:ASN00008223",
      "elevationUnit": "METERS",
      "longitude": 114.755
    },
    {
      "elevation": 213,
      "mindate": "1964-01-01",
      "maxdate": "1969-03-31",
      "latitude": -28.6,
      "name": "MIARRA VALE, AS",
      "datacoverage": 1,
      "id": "GHCND:ASN00008224",
      "elevationUnit": "METERS",
      "longitude": 114.9167
    },
    {
      "elevation": 100,
      "mindate": "1964-05-01",
      "maxdate": "2017-03-23",
      "latitude": -29.8183,
      "name": "ENEABBA, AS",
      "datacoverage": 0.9614,
      "id": "GHCND:ASN00008225",
      "elevationUnit": "METERS",
      "longitude": 115.2722
    },
    {
      "elevation": 183,
      "mindate": "1964-01-01",
      "maxdate": "1969-04-30",
      "latitude": -29.5833,
      "name": "BOORAMBEE, AS",
      "datacoverage": 0.9993,
      "id": "GHCND:ASN00008226",
      "elevationUnit": "METERS",
      "longitude": 115.3
    },
    {
      "mindate": "1951-06-01",
      "maxdate": "1961-11-30",
      "latitude": -29.8667,
      "name": "ERINDOON, AS",
      "datacoverage": 0.4286,
      "id": "GHCND:ASN00008227",
      "longitude": 115.15
    },
    {
      "elevation": 300,
      "mindate": "1966-03-01",
      "maxdate": "1990-12-31",
      "latitude": -30.5939,
      "name": "GIMLET HILL, AS",
      "datacoverage": 0.7314,
      "id": "GHCND:ASN00008228",
      "elevationUnit": "METERS",
      "longitude": 116.5378
    },
    {
      "elevation": 235,
      "mindate": "1966-06-01",
      "maxdate": "1980-04-30",
      "latitude": -29.015,
      "name": "NANEKINE, AS",
      "datacoverage": 0.9993,
      "id": "GHCND:ASN00008229",
      "elevationUnit": "METERS",
      "longitude": 115.6733
    },
    {
      "elevation": 290,
      "mindate": "1750-07-01",
      "maxdate": "2025-01-31",
      "latitude": -30.3817,
      "name": "ELENA, AS",
      "datacoverage": 0.906,
      "id": "GHCND:ASN00008230",
      "elevationUnit": "METERS",
      "longitude": 116.7217
    },
    {
      "elevation": 300,
      "mindate": "1967-06-01",
      "maxdate": "2024-11-29",
      "latitude": -29.4667,
      "name": "OAKLANDS, AS",
      "datacoverage": 0.587,
      "id": "GHCND:ASN00008231",
      "elevationUnit": "METERS",
      "longitude": 116.1325
    },
    {
      "elevation": 300,
      "mindate": "1913-03-01",
      "maxdate": "1982-12-31",
      "latitude": -30.3317,
      "name": "CLYDE PARK, AS",
      "datacoverage": 0.9653,
      "id": "GHCND:ASN00008232",
      "elevationUnit": "METERS",
      "longitude": 116.7133
    },
    {
      "elevation": 330,
      "mindate": "1945-01-01",
      "maxdate": "2018-12-31",
      "latitude": -29.4847,
      "name": "FIVE GUMS, AS",
      "datacoverage": 0.9762,
      "id": "GHCND:ASN00008233",
      "elevationUnit": "METERS",
      "longitude": 116.0703
    },
    {
      "elevation": 180,
      "mindate": "1968-08-01",
      "maxdate": "2024-02-26",
      "latitude": -28.5675,
      "name": "BYRON, AS",
      "datacoverage": 0.8458,
      "id": "GHCND:ASN00008234",
      "elevationUnit": "METERS",
      "longitude": 115.2814
    },
    {
      "elevation": 280,
      "mindate": "1968-08-01",
      "maxdate": "1992-06-30",
      "latitude": -28.7036,
      "name": "DRUMMONDEARNOCH, AS",
      "datacoverage": 0.9931,
      "id": "GHCND:ASN00008235",
      "elevationUnit": "METERS",
      "longitude": 115.8167
    },
    {
      "mindate": "1969-01-01",
      "maxdate": "1971-07-31",
      "latitude": -28.7833,
      "name": "MUNJA PARK, AS",
      "datacoverage": 1,
      "id": "GHCND:ASN00008236",
      "longitude": 115.05
    },
    {
      "elevation": 260,
      "mindate": "2001-11-01",
      "maxdate": "2025-02-27",
      "latitude": -28.6857,
      "name": "TENINDEWA, AS",
      "datacoverage": 1,
      "id": "GHCND:ASN00008237",
      "elevationUnit": "METERS",
      "longitude": 115.2806
    },
    {
      "elevation": 350,
      "mindate": "1750-03-25",
      "maxdate": "2024-12-31",
      "latitude": -30.0989,
      "name": "HAKEA, AS",
      "datacoverage": 0.9015,
      "id": "GHCND:ASN00008238",
      "elevationUnit": "METERS",
      "longitude": 116.2339
    },
    {
      "mindate": "1932-06-01",
      "maxdate": "1943-10-31",
      "latitude": -28.35,
      "name": "CASUERINA, AS",
      "datacoverage": 1,
      "id": "GHCND:ASN00008239",
      "longitude": 115.5833
    },
    {
      "elevation": 244,
      "mindate": "1750-03-24",
      "maxdate": "2025-02-27",
      "latitude": -28.8939,
      "name": "COOLANGATTA, AS",
      "datacoverage": 0.7297,
      "id": "GHCND:ASN00008240",
      "elevationUnit": "METERS",
      "longitude": 115.4539
    },
    {
      "mindate": "1936-09-01",
      "maxdate": "1950-12-31",
      "latitude": -28.7333,
      "name": "WICHERA RESERVOIR, AS",
      "datacoverage": 0.9993,
      "id": "GHCND:ASN00008242",
      "longitude": 114.9667
    },
    {
      "mindate": "1913-01-01",
      "maxdate": "1920-07-31",
      "latitude": -30.6167,
      "name": "NIBY NIBY, AS",
      "datacoverage": 0.9993,
      "id": "GHCND:ASN00008243",
      "longitude": 116.2
    },
    {
      "mindate": "1915-01-01",
      "maxdate": "1917-06-30",
      "latitude": -30.7,
      "name": "MARBARANA, AS",
      "datacoverage": 1,
      "id": "GHCND:ASN00008244",
      "longitude": 116.6667
    },
    {
      "mindate": "1914-05-01",
      "maxdate": "1919-02-28",
      "latitude": -28.3333,
      "name": "FERNLEIGH, AS",
      "datacoverage": 1,
      "id": "GHCND:ASN00008245",
      "longitude": 114.8667
    },
    {
      "mindate": "1938-05-01",
      "maxdate": "1940-05-31",
      "latitude": -28.8,
      "name": "DEEPDALE, AS",
      "datacoverage": 1,
      "id": "GHCND:ASN00008247",
      "longitude": 114.6833
    },
    {
      "elevation": 243.8,
      "mindate": "1970-06-01",
      "maxdate": "1974-12-31",
      "latitude": -29.5333,
      "name": "SUNDALARA, AS",
      "datacoverage": 0.9991,
      "id": "GHCND:ASN00008248",
      "elevationUnit": "METERS",
      "longitude": 115.3667
    },
    {
      "elevation": 291,
      "mindate": "1970-05-01",
      "maxdate": "1975-12-31",
      "latitude": -29.45,
      "name": "PERENJORI AMBULANCE, AS",
      "datacoverage": 0.9101,
      "id": "GHCND:ASN00008249",
      "elevationUnit": "METERS",
      "longitude": 116.2667
    },
    {
      "mindate": "1936-01-01",
      "maxdate": "1937-12-31",
      "latitude": -29.3833,
      "name": "DUDAWA, AS",
      "datacoverage": 1,
      "id": "GHCND:ASN00008250",
      "longitude": 115.7167
    },
    {
      "elevation": 6,
      "mindate": "1750-03-09",
      "maxdate": "2025-02-27",
      "latitude": -27.7119,
      "name": "KALBARRI, AS",
      "datacoverage": 0.9982,
      "id": "GHCND:ASN00008251",
      "elevationUnit": "METERS",
      "longitude": 114.165
    },
    {
      "mindate": "1937-01-01",
      "maxdate": "1947-09-30",
      "latitude": -29.7,
      "name": "VREDE, AS",
      "datacoverage": 0.8453,
      "id": "GHCND:ASN00008252",
      "longitude": 116.4333
    },
    {
      "mindate": "1921-01-01",
      "maxdate": "1924-04-30",
      "latitude": -29.75,
      "name": "LAKE VIEW, AS",
      "datacoverage": 1,
      "id": "GHCND:ASN00008253",
      "longitude": 115.8833
    },
    {
      "elevation": 280,
      "mindate": "1750-03-25",
      "maxdate": "2025-02-27",
      "latitude": -30.7092,
      "name": "KONDUT, AS",
      "datacoverage": 0.9793,
      "id": "GHCND:ASN00008254",
      "elevationUnit": "METERS",
      "longitude": 116.7744
    },
    {
      "mindate": "1929-07-01",
      "maxdate": "1934-08-31",
      "latitude": -30.3833,
      "name": "ROCK HILLS, AS",
      "datacoverage": 0.9986,
      "id": "GHCND:ASN00008255",
      "longitude": 116.8833
    },
    {
      "mindate": "1936-07-01",
      "maxdate": "1939-05-31",
      "latitude": -29.4333,
      "name": "SYLVANDALE, AS",
      "datacoverage": 1,
      "id": "GHCND:ASN00008256",
      "longitude": 116.4833
    },
    {
      "elevation": 280,
      "mindate": "1969-01-01",
      "maxdate": "1988-12-31",
      "latitude": -28.9931,
      "name": "GUTHA, AS",
      "datacoverage": 0.5792,
      "id": "GHCND:ASN00008257",
      "elevationUnit": "METERS",
      "longitude": 115.945
    },
    {
      "elevation": 28,
      "mindate": "1971-05-01",
      "maxdate": "1989-09-30",
      "latitude": -28.9417,
      "name": "WALKAWAY, AS",
      "datacoverage": 0.7646,
      "id": "GHCND:ASN00008258",
      "elevationUnit": "METERS",
      "longitude": 114.8014
    },
    {
      "mindate": "1915-10-01",
      "maxdate": "1921-04-30",
      "latitude": -28.3333,
      "name": "WEIRMONGER, AS",
      "datacoverage": 0.9993,
      "id": "GHCND:ASN00008259",
      "longitude": 115.1
    },
    {
      "mindate": "1937-01-01",
      "maxdate": "1939-01-31",
      "latitude": -30.4333,
      "name": "YAMBINYA, AS",
      "datacoverage": 1,
      "id": "GHCND:ASN00008260",
      "longitude": 116.3833
    },
    {
      "elevation": 240,
      "mindate": "1972-04-01",
      "maxdate": "2014-11-26",
      "latitude": -29.0636,
      "name": "MINDARA, AS",
      "datacoverage": 0.8524,
      "id": "GHCND:ASN00008261",
      "elevationUnit": "METERS",
      "longitude": 115.1753
    },
    {
      "elevation": 200,
      "mindate": "1985-06-01",
      "maxdate": "1987-03-31",
      "latitude": -29.3583,
      "name": "MOUNT ADAMS, AS",
      "datacoverage": 0.8189,
      "id": "GHCND:ASN00008262",
      "elevationUnit": "METERS",
      "longitude": 115.2617
    },
    {
      "elevation": 290,
      "mindate": "1750-03-25",
      "maxdate": "2024-12-31",
      "latitude": -29.5147,
      "name": "WANARRA, AS",
      "datacoverage": 0.8465,
      "id": "GHCND:ASN00008264",
      "elevationUnit": "METERS",
      "longitude": 116.8011
    },
    {
      "elevation": 260,
      "mindate": "1965-01-01",
      "maxdate": "1981-09-30",
      "latitude": -29.68,
      "name": "KALLADALE, AS",
      "datacoverage": 0.9994,
      "id": "GHCND:ASN00008265",
      "elevationUnit": "METERS",
      "longitude": 115.2683
    },
    {
      "elevation": 300,
      "mindate": "1973-10-01",
      "maxdate": "2000-12-13",
      "latitude": -28.3275,
      "name": "URAWA, AS",
      "datacoverage": 0.7278,
      "id": "GHCND:ASN00008266",
      "elevationUnit": "METERS",
      "longitude": 115.5631
    },
    {
      "elevation": 60,
      "mindate": "1974-02-01",
      "maxdate": "1989-12-31",
      "latitude": -28.3517,
      "name": "NOKANENA, AS",
      "datacoverage": 0.9992,
      "id": "GHCND:ASN00008267",
      "elevationUnit": "METERS",
      "longitude": 114.5778
    },
    {
      "elevation": 240,
      "mindate": "1958-01-01",
      "maxdate": "2004-01-31",
      "latitude": -27.97,
      "name": "BALLA NORTH, AS",
      "datacoverage": 0.9982,
      "id": "GHCND:ASN00008268",
      "elevationUnit": "METERS",
      "longitude": 114.9686
    },
    {
      "elevation": 280,
      "mindate": "1975-07-01",
      "maxdate": "2007-12-31",
      "latitude": -28.2667,
      "name": "HIGH PLAINS, AS",
      "datacoverage": 0.9948,
      "id": "GHCND:ASN00008269",
      "elevationUnit": "METERS",
      "longitude": 114.7144
    },
    {
      "elevation": 340,
      "mindate": "1750-03-26",
      "maxdate": "2025-01-31",
      "latitude": -28.8114,
      "name": "NINDETHANA FARM, AS",
      "datacoverage": 0.9946,
      "id": "GHCND:ASN00008271",
      "elevationUnit": "METERS",
      "longitude": 115.9675
    },
    {
      "elevation": 200,
      "mindate": "1978-07-01",
      "maxdate": "1999-11-30",
      "latitude": -27.9972,
      "name": "BINNU WEST, AS",
      "datacoverage": 0.9844,
      "id": "GHCND:ASN00008272",
      "elevationUnit": "METERS",
      "longitude": 114.3036
    },
    {
      "elevation": 280,
      "mindate": "1750-03-25",
      "maxdate": "2025-02-27",
      "latitude": -29.3586,
      "name": "ARENA, AS",
      "datacoverage": 0.9929,
      "id": "GHCND:ASN00008273",
      "elevationUnit": "METERS",
      "longitude": 115.4503
    },
    {
      "elevation": 200,
      "mindate": "1750-03-25",
      "maxdate": "2024-12-31",
      "latitude": -28.4194,
      "name": "NARALING, AS",
      "datacoverage": 0.9951,
      "id": "GHCND:ASN00008274",
      "elevationUnit": "METERS",
      "longitude": 114.8186
    },
    {
      "elevation": 320,
      "mindate": "1982-01-01",
      "maxdate": "2020-05-25",
      "latitude": -30.3678,
      "name": "ANRO, AS",
      "datacoverage": 0.9993,
      "id": "GHCND:ASN00008275",
      "elevationUnit": "METERS",
      "longitude": 116.2653
    },
    {
      "elevation": 60,
      "mindate": "1750-03-25",
      "maxdate": "2025-01-01",
      "latitude": -29.2236,
      "name": "IRWIN HOUSE, AS",
      "datacoverage": 0.9325,
      "id": "GHCND:ASN00008276",
      "elevationUnit": "METERS",
      "longitude": 115.1075
    },
    {
      "mindate": "1929-01-01",
      "maxdate": "1968-01-31",
      "latitude": -30.2833,
      "name": "RUFUS DOWNS, AS",
      "datacoverage": 0.9979,
      "id": "GHCND:ASN00008277",
      "longitude": 116.65
    },
    {
      "elevation": 210,
      "mindate": "1980-04-01",
      "maxdate": "2020-08-31",
      "latitude": -30.0722,
      "name": "WARRADARGE, AS",
      "datacoverage": 0.8259,
      "id": "GHCND:ASN00008278",
      "elevationUnit": "METERS",
      "longitude": 115.3136
    },
    {
      "elevation": 370,
      "mindate": "1963-01-01",
      "maxdate": "2004-12-31",
      "latitude": -30.6689,
      "name": "YGOOLA, AS",
      "datacoverage": 0.9702,
      "id": "GHCND:ASN00008279",
      "elevationUnit": "METERS",
      "longitude": 117.2103
    },
    {
      "elevation": 220,
      "mindate": "1983-08-01",
      "maxdate": "2025-02-18",
      "latitude": -27.5658,
      "name": "EURARDY, AS",
      "datacoverage": 0.902,
      "id": "GHCND:ASN00008280",
      "elevationUnit": "METERS",
      "longitude": 114.6733
    },
    {
      "elevation": 310,
      "mindate": "1983-08-01",
      "maxdate": "2024-01-31",
      "latitude": -30.3322,
      "name": "COURTLEA, AS",
      "datacoverage": 0.7612,
      "id": "GHCND:ASN00008281",
      "elevationUnit": "METERS",
      "longitude": 116.6828
    },
    {
      "elevation": 320,
      "mindate": "1750-03-25",
      "maxdate": "2025-01-31",
      "latitude": -30.1453,
      "name": "KARAWA, AS",
      "datacoverage": 0.9977,
      "id": "GHCND:ASN00008283",
      "elevationUnit": "METERS",
      "longitude": 116.3844
    },
    {
      "elevation": 270,
      "mindate": "1964-01-01",
      "maxdate": "2003-08-31",
      "latitude": -30.835,
      "name": "UNDANOOKA, AS",
      "datacoverage": 0.8088,
      "id": "GHCND:ASN00008284",
      "elevationUnit": "METERS",
      "longitude": 116.1581
    },
    {
      "elevation": 300,
      "mindate": "1987-10-01",
      "maxdate": "2023-01-31",
      "latitude": -28.3181,
      "name": "MATARANKA, AS",
      "datacoverage": 0.9821,
      "id": "GHCND:ASN00008285",
      "elevationUnit": "METERS",
      "longitude": 114.7614
    },
    {
      "elevation": 200,
      "mindate": "1750-03-24",
      "maxdate": "2025-02-27",
      "latitude": -28.275,
      "name": "WUNDI, AS",
      "datacoverage": 0.8772,
      "id": "GHCND:ASN00008286",
      "elevationUnit": "METERS",
      "longitude": 114.6761
    },
    {
      "elevation": 120,
      "mindate": "1972-03-01",
      "maxdate": "2017-12-31",
      "latitude": -28.6564,
      "name": "WARRINE, AS",
      "datacoverage": 0.7126,
      "id": "GHCND:ASN00008287",
      "elevationUnit": "METERS",
      "longitude": 114.8558
    },
    {
      "elevation": 200,
      "mindate": "1972-01-01",
      "maxdate": "2023-09-30",
      "latitude": -28.2575,
      "name": "GHURKA, AS",
      "datacoverage": 0.9621,
      "id": "GHCND:ASN00008288",
      "elevationUnit": "METERS",
      "longitude": 114.6033
    }
  ]
}
