{
  "metadata": {
    "resultset": {
      "offset": 140300,
      "count": 154115,
      "limit": 100
    }
  },
  "results": [
    {
      "elevation": 332.2,
      "mindate": "1896-02-01",
      "maxdate": "2025-02-18",
      "latitude": 36.1075,
      "name": "COOKEVILLE, TN US",
      "datacoverage": 1,
      "id": "GHCND:USC00402009",
      "elevationUnit": "METERS",
      "longitude": -85.5033
    },
    {
      "elevation": 442,
      "mindate": "1914-04-01",
      "maxdate": "2010-12-31",
      "latitude": 34.99389,
      "name": "COPPERHILL, TN US",
      "datacoverage": 1,
      "id": "GHCND:USC00402024",
      "elevationUnit": "METERS",
      "longitude": -84.37583
    },
    {
      "elevation": 488,
      "mindate": "1949-01-01",
      "maxdate": "1962-03-31",
      "latitude": 35,
      "name": "COPPERHILL SUBSTN, TN US",
      "datacoverage": 1,
      "id": "GHCND:USC00402029",
      "elevationUnit": "METERS",
      "longitude": -84.38333
    },
    {
      "elevation": 156.1,
      "mindate": "1973-10-01",
      "maxdate": "1980-06-30",
      "latitude": 36.28333,
      "name": "CORDELL HULL LOCK AND DAM, TN US",
      "datacoverage": 1,
      "id": "GHCND:USC00402035",
      "elevationUnit": "METERS",
      "longitude": -85.93333
    },
    {
      "elevation": 524.9,
      "mindate": "1949-01-01",
      "maxdate": "1962-03-31",
      "latitude": 35.78333,
      "name": "COSBY, TN US",
      "datacoverage": 1,
      "id": "GHCND:USC00402074",
      "elevationUnit": "METERS",
      "longitude": -83.21667
    },
    {
      "elevation": 117.3,
      "mindate": "1890-05-01",
      "maxdate": "2018-06-30",
      "latitude": 35.5497,
      "name": "COVINGTON 3 SW, TN US",
      "datacoverage": 1,
      "id": "GHCND:USC00402108",
      "elevationUnit": "METERS",
      "longitude": -89.7
    },
    {
      "elevation": 502.9,
      "mindate": "2011-01-01",
      "maxdate": "2016-02-29",
      "latitude": 35.91833,
      "name": "CRAB ORCHARD, TN US",
      "datacoverage": 1,
      "id": "GHCND:USC00402140",
      "elevationUnit": "METERS",
      "longitude": -84.86861
    },
    {
      "elevation": 1040,
      "mindate": "1949-01-01",
      "maxdate": "1955-12-31",
      "latitude": 36.53333,
      "name": "CRANDULL, TN US",
      "datacoverage": 1,
      "id": "GHCND:USC00402146",
      "elevationUnit": "METERS",
      "longitude": -81.96667
    },
    {
      "elevation": 887.9,
      "mindate": "1956-01-01",
      "maxdate": "1962-03-31",
      "latitude": 36.53333,
      "name": "CRANDULL 2, TN US",
      "datacoverage": 1,
      "id": "GHCND:USC00402147",
      "elevationUnit": "METERS",
      "longitude": -81.91667
    },
    {
      "elevation": 551.7,
      "mindate": "1912-03-01",
      "maxdate": "2025-02-24",
      "latitude": 36.0148,
      "name": "CROSSVILLE EDUCATION AND RESEARCH STATION, TN US",
      "datacoverage": 1,
      "id": "GHCND:USC00402202",
      "elevationUnit": "METERS",
      "longitude": -85.1313
    },
    {
      "elevation": 563.9,
      "mindate": "1949-01-01",
      "maxdate": "1954-05-31",
      "latitude": 35.95,
      "name": "CROSSVILLE, TN US",
      "datacoverage": 1,
      "id": "GHCND:USC00402207",
      "elevationUnit": "METERS",
      "longitude": -85.03333
    },
    {
      "elevation": 131.1,
      "mindate": "1948-09-01",
      "maxdate": "1962-03-31",
      "latitude": 35.86667,
      "name": "CUBA LANDING, TN US",
      "datacoverage": 1,
      "id": "GHCND:USC00402229",
      "elevationUnit": "METERS",
      "longitude": -87.88333
    },
    {
      "elevation": 128,
      "mindate": "1965-12-01",
      "maxdate": "1970-09-30",
      "latitude": 36.38333,
      "name": "CUMBERLAND CITY, TN US",
      "datacoverage": 0.9991,
      "id": "GHCND:USC00402239",
      "elevationUnit": "METERS",
      "longitude": -87.63333
    },
    {
      "elevation": 171,
      "mindate": "1948-09-01",
      "maxdate": "1970-11-30",
      "latitude": 36.53333,
      "name": "DALE HOLLOW DAM, TN US",
      "datacoverage": 1,
      "id": "GHCND:USC00402305",
      "elevationUnit": "METERS",
      "longitude": -85.45
    },
    {
      "elevation": 317,
      "mindate": "1904-12-01",
      "maxdate": "1962-03-31",
      "latitude": 36.01667,
      "name": "DANDRIDGE, TN US",
      "datacoverage": 0.8489,
      "id": "GHCND:USC00402316",
      "elevationUnit": "METERS",
      "longitude": -83.41667
    },
    {
      "elevation": 250.5,
      "mindate": "1956-01-01",
      "maxdate": "2025-03-07",
      "latitude": 35.4721,
      "name": "DAYTON 2 SE, TN US",
      "datacoverage": 1,
      "id": "GHCND:USC00402360",
      "elevationUnit": "METERS",
      "longitude": -84.9957
    },
    {
      "elevation": 267.9,
      "mindate": "1895-11-01",
      "maxdate": "1956-08-31",
      "latitude": 35.53333,
      "name": "DECATUR 1 N, TN US",
      "datacoverage": 0.9329,
      "id": "GHCND:USC00402385",
      "elevationUnit": "METERS",
      "longitude": -84.78333
    },
    {
      "elevation": 228.6,
      "mindate": "1997-08-01",
      "maxdate": "2025-03-07",
      "latitude": 35.6394,
      "name": "DECATUR 7 NE, TN US",
      "datacoverage": 1,
      "id": "GHCND:USC00402388",
      "elevationUnit": "METERS",
      "longitude": -84.665
    },
    {
      "elevation": 162.8,
      "mindate": "2010-01-01",
      "maxdate": "2025-03-07",
      "latitude": 35.59518,
      "name": "DECATURVILLE, TN US",
      "datacoverage": 1,
      "id": "GHCND:USC00402390",
      "elevationUnit": "METERS",
      "longitude": -88.11758
    },
    {
      "elevation": 235,
      "mindate": "1961-06-01",
      "maxdate": "1962-03-31",
      "latitude": 35.26667,
      "name": "DIANA, TN US",
      "datacoverage": 1,
      "id": "GHCND:USC00402473",
      "elevationUnit": "METERS",
      "longitude": -86.85
    },
    {
      "elevation": 289.9,
      "mindate": "1949-01-01",
      "maxdate": "1962-03-31",
      "latitude": 35.8,
      "name": "DIBRELL, TN US",
      "datacoverage": 1,
      "id": "GHCND:USC00402481",
      "elevationUnit": "METERS",
      "longitude": -85.8
    },
    {
      "elevation": 232,
      "mindate": "1900-07-01",
      "maxdate": "2025-03-06",
      "latitude": 36.0747,
      "name": "DICKSON, TN US",
      "datacoverage": 1,
      "id": "GHCND:USC00402489",
      "elevationUnit": "METERS",
      "longitude": -87.3931
    },
    {
      "elevation": 278,
      "mindate": "1948-09-01",
      "maxdate": "1951-09-30",
      "latitude": 34.98333,
      "name": "DOUBLE SPRINGS GAP, GA US",
      "datacoverage": 1,
      "id": "GHCND:USC00402564",
      "elevationUnit": "METERS",
      "longitude": -84.56667
    },
    {
      "elevation": 249.9,
      "mindate": "1949-01-01",
      "maxdate": "1960-03-31",
      "latitude": 35.33333,
      "name": "DOUBLE SPRINGS TVA, TN US",
      "datacoverage": 0.9995,
      "id": "GHCND:USC00402572",
      "elevationUnit": "METERS",
      "longitude": -84.63333
    },
    {
      "elevation": 284.1,
      "mindate": "1949-01-01",
      "maxdate": "1962-03-31",
      "latitude": 35.96667,
      "name": "DOUGLAS DAM, TN US",
      "datacoverage": 1,
      "id": "GHCND:USC00402581",
      "elevationUnit": "METERS",
      "longitude": -83.53333
    },
    {
      "elevation": 115.8,
      "mindate": "2009-01-01",
      "maxdate": "2015-02-27",
      "latitude": 36.4933,
      "name": "DOVER, TN US",
      "datacoverage": 1,
      "id": "GHCND:USC00402583",
      "elevationUnit": "METERS",
      "longitude": -87.7946
    },
    {
      "elevation": 125,
      "mindate": "1949-01-01",
      "maxdate": "1962-03-31",
      "latitude": 36.38333,
      "name": "DOVER FIRE TOWER, TN US",
      "datacoverage": 1,
      "id": "GHCND:USC00402585",
      "elevationUnit": "METERS",
      "longitude": -87.93333
    },
    {
      "elevation": 150,
      "mindate": "1897-12-01",
      "maxdate": "2025-03-07",
      "latitude": 36.48806,
      "name": "DOVER 1 W, TN US",
      "datacoverage": 1,
      "id": "GHCND:USC00402589",
      "elevationUnit": "METERS",
      "longitude": -87.84861
    },
    {
      "elevation": 142.6,
      "mindate": "1924-05-01",
      "maxdate": "2025-03-06",
      "latitude": 36.28556,
      "name": "DRESDEN, TN US",
      "datacoverage": 1,
      "id": "GHCND:USC00402600",
      "elevationUnit": "METERS",
      "longitude": -88.70631
    },
    {
      "elevation": 519.1,
      "mindate": "1948-09-01",
      "maxdate": "1962-03-31",
      "latitude": 35.03333,
      "name": "DUCK TOWN, TN US",
      "datacoverage": 1,
      "id": "GHCND:USC00402627",
      "elevationUnit": "METERS",
      "longitude": -84.38333
    },
    {
      "elevation": 164.9,
      "mindate": "1949-01-01",
      "maxdate": "1962-03-31",
      "latitude": 35.45,
      "name": "DUNBAR, TN US",
      "datacoverage": 1,
      "id": "GHCND:USC00402648",
      "elevationUnit": "METERS",
      "longitude": -88.15
    },
    {
      "elevation": 220.1,
      "mindate": "1909-08-01",
      "maxdate": "1962-03-31",
      "latitude": 35.36667,
      "name": "DUNLAP, TN US",
      "datacoverage": 0.6867,
      "id": "GHCND:USC00402657",
      "elevationUnit": "METERS",
      "longitude": -85.38333
    },
    {
      "elevation": 91.4,
      "mindate": "1893-05-01",
      "maxdate": "2021-02-28",
      "latitude": 35.9986,
      "name": "DYERSBURG, TN US",
      "datacoverage": 0.2659,
      "id": "GHCND:USC00402680",
      "elevationUnit": "METERS",
      "longitude": -89.409
    },
    {
      "elevation": 243.8,
      "mindate": "2001-10-01",
      "maxdate": "2012-01-19",
      "latitude": 35.7285,
      "name": "EAGLEVILLE 1 SW, TN US",
      "datacoverage": 1,
      "id": "GHCND:USC00402711",
      "elevationUnit": "METERS",
      "longitude": -86.6435
    },
    {
      "elevation": 534,
      "mindate": "1949-01-01",
      "maxdate": "1962-03-31",
      "latitude": 35.9,
      "name": "EASTLAND, TN US",
      "datacoverage": 1,
      "id": "GHCND:USC00402742",
      "elevationUnit": "METERS",
      "longitude": -85.25
    },
    {
      "elevation": 453.2,
      "mindate": "1895-04-01",
      "maxdate": "2025-03-07",
      "latitude": 36.354,
      "name": "ELIZABETHTON, TN US",
      "datacoverage": 1,
      "id": "GHCND:USC00402806",
      "elevationUnit": "METERS",
      "longitude": -82.2486
    },
    {
      "elevation": 488,
      "mindate": "1933-06-01",
      "maxdate": "1934-09-30",
      "latitude": 36.35,
      "name": "ELIZABETHTON 2, TN US",
      "datacoverage": 0.501,
      "id": "GHCND:USC00402811",
      "elevationUnit": "METERS",
      "longitude": -82.2
    },
    {
      "elevation": 313.9,
      "mindate": "1961-06-01",
      "maxdate": "1962-03-31",
      "latitude": 35.35,
      "name": "ELKHEAD, TN US",
      "datacoverage": 1,
      "id": "GHCND:USC00402816",
      "elevationUnit": "METERS",
      "longitude": -85.83333
    },
    {
      "elevation": 366.1,
      "mindate": "1896-05-01",
      "maxdate": "1957-08-31",
      "latitude": 36.46667,
      "name": "ELK VALLEY 2 SW, TN US",
      "datacoverage": 0.3696,
      "id": "GHCND:USC00402836",
      "elevationUnit": "METERS",
      "longitude": -84.26667
    },
    {
      "elevation": 668.1,
      "mindate": "1924-12-01",
      "maxdate": "1943-11-30",
      "latitude": 35.65,
      "name": "ELKMONT, TN US",
      "datacoverage": 0.9606,
      "id": "GHCND:USC00402841",
      "elevationUnit": "METERS",
      "longitude": -83.56667
    },
    {
      "elevation": 281,
      "mindate": "1949-01-01",
      "maxdate": "1962-03-31",
      "latitude": 35.01667,
      "name": "ELORA, TN US",
      "datacoverage": 1,
      "id": "GHCND:USC00402856",
      "elevationUnit": "METERS",
      "longitude": -86.35
    },
    {
      "elevation": 484.9,
      "mindate": "1926-05-01",
      "maxdate": "1962-03-31",
      "latitude": 36.18333,
      "name": "EMBREEVILLE, TN US",
      "datacoverage": 0.7772,
      "id": "GHCND:USC00402875",
      "elevationUnit": "METERS",
      "longitude": -82.46667
    },
    {
      "elevation": 249.9,
      "mindate": "1949-01-01",
      "maxdate": "1962-03-31",
      "latitude": 35.4,
      "name": "ENGLEWOOD, TN US",
      "datacoverage": 0.9814,
      "id": "GHCND:USC00402894",
      "elevationUnit": "METERS",
      "longitude": -84.51667
    },
    {
      "elevation": 164.9,
      "mindate": "1949-01-01",
      "maxdate": "1962-03-31",
      "latitude": 35.4,
      "name": "ENVILLE, TN US",
      "datacoverage": 1,
      "id": "GHCND:USC00402913",
      "elevationUnit": "METERS",
      "longitude": -88.43333
    },
    {
      "elevation": 143,
      "mindate": "1949-01-01",
      "maxdate": "1962-03-31",
      "latitude": 36.16667,
      "name": "ERIN, TN US",
      "datacoverage": 1,
      "id": "GHCND:USC00402921",
      "elevationUnit": "METERS",
      "longitude": -87.75
    },
    {
      "elevation": 534,
      "mindate": "1926-11-01",
      "maxdate": "1962-03-31",
      "latitude": 36.16667,
      "name": "ERWIN, TN US",
      "datacoverage": 0.8424,
      "id": "GHCND:USC00402929",
      "elevationUnit": "METERS",
      "longitude": -82.41667
    },
    {
      "elevation": 524.3,
      "mindate": "1979-06-01",
      "maxdate": "2024-09-26",
      "latitude": 36.1422,
      "name": "ERWIN 1 W, TN US",
      "datacoverage": 1,
      "id": "GHCND:USC00402934",
      "elevationUnit": "METERS",
      "longitude": -82.4261
    },
    {
      "elevation": 299,
      "mindate": "1948-09-01",
      "maxdate": "1962-03-31",
      "latitude": 35.31667,
      "name": "ETHRIDGE, TN US",
      "datacoverage": 1,
      "id": "GHCND:USC00402945",
      "elevationUnit": "METERS",
      "longitude": -87.3
    },
    {
      "elevation": 259.1,
      "mindate": "1924-07-01",
      "maxdate": "1946-10-31",
      "latitude": 35.333333,
      "name": "ETOWAH, TN US",
      "datacoverage": 0.9924,
      "id": "GHCND:USC00402957",
      "elevationUnit": "METERS",
      "longitude": -84.533333
    },
    {
      "elevation": 262.1,
      "mindate": "2001-01-01",
      "maxdate": "2025-03-07",
      "latitude": 35.9689,
      "name": "FAIRVIEW BOWIE NATURE CENTER, TN US",
      "datacoverage": 1,
      "id": "GHCND:USC00402989",
      "elevationUnit": "METERS",
      "longitude": -87.1364
    },
    {
      "elevation": 438.9,
      "mindate": "1949-02-01",
      "maxdate": "1952-12-31",
      "latitude": 36.41667,
      "name": "FALL BRANCH, TN US",
      "datacoverage": 1,
      "id": "GHCND:USC00403036",
      "elevationUnit": "METERS",
      "longitude": -82.63333
    },
    {
      "elevation": 545.6,
      "mindate": "1999-10-01",
      "maxdate": "2025-03-07",
      "latitude": 35.6391,
      "name": "FALL CREEK FALLS SP, TN US",
      "datacoverage": 1,
      "id": "GHCND:USC00403040",
      "elevationUnit": "METERS",
      "longitude": -85.3589
    },
    {
      "elevation": 458.1,
      "mindate": "1949-01-01",
      "maxdate": "1970-12-31",
      "latitude": 35.68333,
      "name": "FALLS CREEK PARK, TN US",
      "datacoverage": 1,
      "id": "GHCND:USC00403044",
      "elevationUnit": "METERS",
      "longitude": -85.31667
    },
    {
      "elevation": 488,
      "mindate": "1949-01-01",
      "maxdate": "1962-03-31",
      "latitude": 35.13333,
      "name": "FARNER, TN US",
      "datacoverage": 1,
      "id": "GHCND:USC00403060",
      "elevationUnit": "METERS",
      "longitude": -84.31667
    },
    {
      "elevation": 195.1,
      "mindate": "1952-02-01",
      "maxdate": "1962-03-31",
      "latitude": 35.15,
      "name": "FAYETTEVILLE 2, TN US",
      "datacoverage": 0.9922,
      "id": "GHCND:USC00403069",
      "elevationUnit": "METERS",
      "longitude": -86.56667
    },
    {
      "elevation": 226.2,
      "mindate": "1935-01-01",
      "maxdate": "2025-03-06",
      "latitude": 35.1342,
      "name": "FAYETTEVILLE WATER PLANT, TN US",
      "datacoverage": 1,
      "id": "GHCND:USC00403074",
      "elevationUnit": "METERS",
      "longitude": -86.5419
    },
    {
      "elevation": 91.4,
      "mindate": "1941-06-01",
      "maxdate": "1944-01-31",
      "latitude": 36.033333,
      "name": "FINLEY, TN US",
      "datacoverage": 0.999,
      "id": "GHCND:USC00403125",
      "elevationUnit": "METERS",
      "longitude": -89.483333
    },
    {
      "elevation": 609.9,
      "mindate": "1949-01-01",
      "maxdate": "1962-03-31",
      "latitude": 36.41667,
      "name": "FLAT GAP, TN US",
      "datacoverage": 0.994,
      "id": "GHCND:USC00403139",
      "elevationUnit": "METERS",
      "longitude": -83.21667
    },
    {
      "elevation": 344.4,
      "mindate": "2001-01-01",
      "maxdate": "2008-02-29",
      "latitude": 36.05556,
      "name": "FOREST HILLS DYER OBSERVATORY, TN US",
      "datacoverage": 1,
      "id": "GHCND:USC00403200",
      "elevationUnit": "METERS",
      "longitude": -86.80667
    },
    {
      "elevation": 239.3,
      "mindate": "1948-09-01",
      "maxdate": "1962-03-31",
      "latitude": 35.7875,
      "name": "LENOIR CITY, TN US",
      "datacoverage": 1,
      "id": "GHCND:USC00403229",
      "elevationUnit": "METERS",
      "longitude": -84.2622
    },
    {
      "elevation": 371.9,
      "mindate": "1952-01-01",
      "maxdate": "1954-09-30",
      "latitude": 36.5,
      "name": "FORT PATRICK HENRY D, TN US",
      "datacoverage": 1,
      "id": "GHCND:USC00403234",
      "elevationUnit": "METERS",
      "longitude": -82.51667
    },
    {
      "elevation": 296,
      "mindate": "1949-01-01",
      "maxdate": "1953-10-31",
      "latitude": 36.03333,
      "name": "FOUNTAIN CITY, TN US",
      "datacoverage": 1,
      "id": "GHCND:USC00403240",
      "elevationUnit": "METERS",
      "longitude": -83.93333
    },
    {
      "elevation": 445,
      "mindate": "1949-01-01",
      "maxdate": "1962-03-31",
      "latitude": 36.11667,
      "name": "FRANKFORT, TN US",
      "datacoverage": 1,
      "id": "GHCND:USC00403272",
      "elevationUnit": "METERS",
      "longitude": -84.8
    },
    {
      "elevation": 202.1,
      "mindate": "1891-08-01",
      "maxdate": "2025-03-07",
      "latitude": 35.94145,
      "name": "FRANKLIN SEWAGE PLANT, TN US",
      "datacoverage": 1,
      "id": "GHCND:USC00403280",
      "elevationUnit": "METERS",
      "longitude": -86.86894
    },
    {
      "elevation": 228.9,
      "mindate": "1949-01-01",
      "maxdate": "1962-03-31",
      "latitude": 35.95,
      "name": "FRANKLIN 3 NE, TN US",
      "datacoverage": 0.9806,
      "id": "GHCND:USC00403285",
      "elevationUnit": "METERS",
      "longitude": -86.81667
    },
    {
      "elevation": 232,
      "mindate": "1949-01-01",
      "maxdate": "1962-03-31",
      "latitude": 35.26667,
      "name": "FRIENDSHIP SCHOOL, TN US",
      "datacoverage": 1,
      "id": "GHCND:USC00403311",
      "elevationUnit": "METERS",
      "longitude": -85.08333
    },
    {
      "elevation": 177.1,
      "mindate": "1940-04-01",
      "maxdate": "1975-11-30",
      "latitude": 36.36667,
      "name": "GAINESBORO, TN US",
      "datacoverage": 0.9696,
      "id": "GHCND:USC00403366",
      "elevationUnit": "METERS",
      "longitude": -85.63333
    },
    {
      "elevation": 148.4,
      "mindate": "1975-12-01",
      "maxdate": "2025-03-06",
      "latitude": 36.3661,
      "name": "GAINESBORO, TN US",
      "datacoverage": 1,
      "id": "GHCND:USC00403370",
      "elevationUnit": "METERS",
      "longitude": -85.6552
    },
    {
      "elevation": 143,
      "mindate": "1953-04-01",
      "maxdate": "1962-03-31",
      "latitude": 36.31667,
      "name": "GALLATIN STEAM PLANT, TN US",
      "datacoverage": 1,
      "id": "GHCND:USC00403378",
      "elevationUnit": "METERS",
      "longitude": -86.4
    },
    {
      "elevation": 155.4,
      "mindate": "2007-04-01",
      "maxdate": "2022-04-27",
      "latitude": 36.3911,
      "name": "GALLATIN 2 W, TN US",
      "datacoverage": 0.9998,
      "id": "GHCND:USC00403379",
      "elevationUnit": "METERS",
      "longitude": -86.4823
    },
    {
      "elevation": 443.2,
      "mindate": "1921-12-01",
      "maxdate": "2025-03-07",
      "latitude": 35.6878,
      "name": "GATLINBURG 2 SW, TN US",
      "datacoverage": 1,
      "id": "GHCND:USC00403420",
      "elevationUnit": "METERS",
      "longitude": -83.5373
    },
    {
      "elevation": 112.2,
      "mindate": "2000-01-01",
      "maxdate": "2025-03-07",
      "latitude": 35.05692,
      "name": "GERMANTOWN 4 SE, TN US",
      "datacoverage": 1,
      "id": "GHCND:USC00403447",
      "elevationUnit": "METERS",
      "longitude": -89.7524
    },
    {
      "elevation": 182.9,
      "mindate": "2001-11-01",
      "maxdate": "2025-02-23",
      "latitude": 36.065,
      "name": "GLADEVILLE, TN US",
      "datacoverage": 1,
      "id": "GHCND:USC00403465",
      "elevationUnit": "METERS",
      "longitude": -86.4174
    },
    {
      "elevation": 249.9,
      "mindate": "2000-05-01",
      "maxdate": "2022-03-03",
      "latitude": 36.34083,
      "name": "GOODLETTSVILLE 7 WNW, TN US",
      "datacoverage": 1,
      "id": "GHCND:USC00403636",
      "elevationUnit": "METERS",
      "longitude": -86.8275
    },
    {
      "elevation": 402.3,
      "mindate": "1890-05-01",
      "maxdate": "2025-03-07",
      "latitude": 36.1056,
      "name": "GREENEVILLE EXPERIMENTAL STATION, TN US",
      "datacoverage": 1,
      "id": "GHCND:USC00403679",
      "elevationUnit": "METERS",
      "longitude": -82.8436
    },
    {
      "elevation": 420.9,
      "mindate": "1949-01-01",
      "maxdate": "1962-03-31",
      "latitude": 36.1,
      "name": "GREENEVILLE 5 SSW, TN US",
      "datacoverage": 0.994,
      "id": "GHCND:USC00403684",
      "elevationUnit": "METERS",
      "longitude": -82.83333
    },
    {
      "elevation": 121.9,
      "mindate": "1948-09-01",
      "maxdate": "1951-09-30",
      "latitude": 36.1679,
      "name": "GREENFIELD, TN US",
      "datacoverage": 0.9469,
      "id": "GHCND:USC00403697",
      "elevationUnit": "METERS",
      "longitude": -88.7974
    },
    {
      "elevation": 203.9,
      "mindate": "1940-01-01",
      "maxdate": "1949-10-31",
      "latitude": 35.05,
      "name": "HALES BAR, TN US",
      "datacoverage": 0.9573,
      "id": "GHCND:USC00403783",
      "elevationUnit": "METERS",
      "longitude": -85.55
    },
    {
      "elevation": 198.1,
      "mindate": "1949-01-01",
      "maxdate": "1962-03-31",
      "latitude": 35.05,
      "name": "HALES BAR DAM, TN US",
      "datacoverage": 1,
      "id": "GHCND:USC00403788",
      "elevationUnit": "METERS",
      "longitude": -85.53333
    },
    {
      "elevation": 95.1,
      "mindate": "1926-04-01",
      "maxdate": "1949-04-30",
      "latitude": 35.85,
      "name": "HALLS, TN US",
      "datacoverage": 0.9675,
      "id": "GHCND:USC00403804",
      "elevationUnit": "METERS",
      "longitude": -89.43333
    },
    {
      "elevation": 185.9,
      "mindate": "1902-12-01",
      "maxdate": "1936-09-30",
      "latitude": 35.86667,
      "name": "HALLS HILL, TN US",
      "datacoverage": 1,
      "id": "GHCND:USC00403809",
      "elevationUnit": "METERS",
      "longitude": -86.23333
    },
    {
      "elevation": 558.1,
      "mindate": "1949-01-01",
      "maxdate": "1962-03-31",
      "latitude": 36.28333,
      "name": "HAMPTON, TN US",
      "datacoverage": 1,
      "id": "GHCND:USC00403838",
      "elevationUnit": "METERS",
      "longitude": -82.16667
    },
    {
      "elevation": 235,
      "mindate": "1893-03-01",
      "maxdate": "1962-03-31",
      "latitude": 35.93333,
      "name": "HARRIMAN, TN US",
      "datacoverage": 0.4391,
      "id": "GHCND:USC00403907",
      "elevationUnit": "METERS",
      "longitude": -84.55
    },
    {
      "elevation": 384,
      "mindate": "1949-01-01",
      "maxdate": "1962-03-31",
      "latitude": 35.81667,
      "name": "HARTFORD, TN US",
      "datacoverage": 1,
      "id": "GHCND:USC00403931",
      "elevationUnit": "METERS",
      "longitude": -83.15
    },
    {
      "elevation": 570,
      "mindate": "2010-01-01",
      "maxdate": "2016-04-27",
      "latitude": 35.8325,
      "name": "HARTFORD 2 NE, TN US",
      "datacoverage": 0.9996,
      "id": "GHCND:USC00403932",
      "elevationUnit": "METERS",
      "longitude": -83.1163
    },
    {
      "elevation": 155.8,
      "mindate": "1998-07-01",
      "maxdate": "2015-12-01",
      "latitude": 36.37556,
      "name": "HARTSVILLE, TN US",
      "datacoverage": 1,
      "id": "GHCND:USC00403938",
      "elevationUnit": "METERS",
      "longitude": -86.18083
    },
    {
      "elevation": 1414.9,
      "mindate": "1948-09-01",
      "maxdate": "1962-03-31",
      "latitude": 35.35,
      "name": "HAW KNOB, NC US",
      "datacoverage": 0.9941,
      "id": "GHCND:USC00403963",
      "elevationUnit": "METERS",
      "longitude": -84.03333
    },
    {
      "elevation": 540.1,
      "mindate": "1949-01-01",
      "maxdate": "1962-03-31",
      "latitude": 36.01667,
      "name": "HEBBERTSBURG, TN US",
      "datacoverage": 1,
      "id": "GHCND:USC00403989",
      "elevationUnit": "METERS",
      "longitude": -84.76667
    },
    {
      "elevation": 140.2,
      "mindate": "2002-01-01",
      "maxdate": "2019-07-31",
      "latitude": 35.4442,
      "name": "HENDERSON 4 W, TN US",
      "datacoverage": 1,
      "id": "GHCND:USC00404033",
      "elevationUnit": "METERS",
      "longitude": -88.7244
    },
    {
      "elevation": 515.1,
      "mindate": "1949-01-01",
      "maxdate": "1962-03-31",
      "latitude": 35.76667,
      "name": "HERBERT, TN US",
      "datacoverage": 1,
      "id": "GHCND:USC00404054",
      "elevationUnit": "METERS",
      "longitude": -85.25
    },
    {
      "elevation": 317,
      "mindate": "1949-01-01",
      "maxdate": "1960-03-31",
      "latitude": 35.41667,
      "name": "HICKORY GROVE, TN US",
      "datacoverage": 0.9995,
      "id": "GHCND:USC00404079",
      "elevationUnit": "METERS",
      "longitude": -84.38333
    },
    {
      "elevation": 323.1,
      "mindate": "1950-01-01",
      "maxdate": "1962-03-31",
      "latitude": 35.41667,
      "name": "HILLSBORO, TN US",
      "datacoverage": 1,
      "id": "GHCND:USC00404164",
      "elevationUnit": "METERS",
      "longitude": -85.96667
    },
    {
      "elevation": 298.7,
      "mindate": "1893-01-01",
      "maxdate": "2024-10-08",
      "latitude": 35.5567,
      "name": "HOHENWALD, TN US",
      "datacoverage": 1,
      "id": "GHCND:USC00404223",
      "elevationUnit": "METERS",
      "longitude": -87.5414
    },
    {
      "elevation": 100.9,
      "mindate": "1938-01-01",
      "maxdate": "1951-09-30",
      "latitude": 35.81667,
      "name": "HUMBOLDT, TN US",
      "datacoverage": 0.3516,
      "id": "GHCND:USC00404392",
      "elevationUnit": "METERS",
      "longitude": -88.93333
    },
    {
      "elevation": 128.9,
      "mindate": "1949-01-01",
      "maxdate": "1962-03-31",
      "latitude": 36.00307,
      "name": "HUNTINGDON WATER PLANT, TN US",
      "datacoverage": 1,
      "id": "GHCND:USC00404412",
      "elevationUnit": "METERS",
      "longitude": -88.42448
    },
    {
      "elevation": 128.9,
      "mindate": "1962-01-01",
      "maxdate": "2025-03-07",
      "latitude": 36.00307,
      "name": "HUNTINGDON WATER PLANT, TN US",
      "datacoverage": 1,
      "id": "GHCND:USC00404417",
      "elevationUnit": "METERS",
      "longitude": -88.42448
    },
    {
      "elevation": 129.2,
      "mindate": "1917-08-01",
      "maxdate": "1922-12-31",
      "latitude": 35.966667,
      "name": "HUNTINGDON, TN US",
      "datacoverage": 1,
      "id": "GHCND:USC00404432",
      "elevationUnit": "METERS",
      "longitude": -88.433333
    },
    {
      "elevation": 185.9,
      "mindate": "1949-01-01",
      "maxdate": "1962-03-31",
      "latitude": 35.01667,
      "name": "IRON CITY, TN US",
      "datacoverage": 1,
      "id": "GHCND:USC00404498",
      "elevationUnit": "METERS",
      "longitude": -87.58333
    },
    {
      "elevation": 320,
      "mindate": "1949-01-01",
      "maxdate": "1962-03-31",
      "latitude": 35.58333,
      "name": "IRVING COLLEGE, TN US",
      "datacoverage": 1,
      "id": "GHCND:USC00404509",
      "elevationUnit": "METERS",
      "longitude": -85.73333
    },
    {
      "elevation": 542.8,
      "mindate": "1902-01-01",
      "maxdate": "1951-07-15",
      "latitude": 35.03333,
      "name": "ISABELLA, TN US",
      "datacoverage": 0.1395,
      "id": "GHCND:USC00404517",
      "elevationUnit": "METERS",
      "longitude": -84.36667
    }
  ]
}
