{
  "metadata": {
    "resultset": {
      "offset": 116700,
      "count": 154115,
      "limit": 100
    }
  },
  "results": [
    {
      "elevation": 359.4,
      "mindate": "2022-06-05",
      "maxdate": "2024-05-24",
      "latitude": 30.20404,
      "name": "DRIPPING SPRINGS 4.4 ENE, TX US",
      "datacoverage": 0.9819,
      "id": "GHCND:US1TXHYS267",
      "elevationUnit": "METERS",
      "longitude": -98.017423
    },
    {
      "elevation": 235.9,
      "mindate": "2022-06-22",
      "maxdate": "2025-01-05",
      "latitude": 30.023451,
      "name": "KYLE 2.3 NNW, TX US",
      "datacoverage": 0.4543,
      "id": "GHCND:US1TXHYS268",
      "elevationUnit": "METERS",
      "longitude": -97.888299
    },
    {
      "elevation": 265.8,
      "mindate": "2022-09-10",
      "maxdate": "2025-03-07",
      "latitude": 29.98992,
      "name": "WIMBERLEY 0.5 ESE, TX US",
      "datacoverage": 1,
      "id": "GHCND:US1TXHYS273",
      "elevationUnit": "METERS",
      "longitude": -98.09317
    },
    {
      "elevation": 399.9,
      "mindate": "2022-09-15",
      "maxdate": "2025-03-04",
      "latitude": 30.08063,
      "name": "WIMBERLEY 6.2 NNW, TX US",
      "datacoverage": 0.9335,
      "id": "GHCND:US1TXHYS276",
      "elevationUnit": "METERS",
      "longitude": -98.126574
    },
    {
      "elevation": 231.6,
      "mindate": "2022-09-30",
      "maxdate": "2025-03-07",
      "latitude": 30.104453,
      "name": "BUDA 2.0 NW, TX US",
      "datacoverage": 0.9652,
      "id": "GHCND:US1TXHYS277",
      "elevationUnit": "METERS",
      "longitude": -97.865403
    },
    {
      "elevation": 321.3,
      "mindate": "2023-01-11",
      "maxdate": "2025-03-07",
      "latitude": 30.0117281,
      "name": "WIMBERLEY 5.1 ENE, TX US",
      "datacoverage": 0.5426,
      "id": "GHCND:US1TXHYS278",
      "elevationUnit": "METERS",
      "longitude": -98.0190592
    },
    {
      "elevation": 348.4,
      "mindate": "2021-02-16",
      "maxdate": "2024-06-11",
      "latitude": 30.1474,
      "name": "DRIPPING SPRINGS 3.0 SSW, TX US",
      "datacoverage": 0.8142,
      "id": "GHCND:US1TXHYS279",
      "elevationUnit": "METERS",
      "longitude": -98.10517
    },
    {
      "elevation": 221.9,
      "mindate": "2023-02-07",
      "maxdate": "2025-03-04",
      "latitude": 29.89355,
      "name": "SAN MARCOS 1.5 NW, TX US",
      "datacoverage": 0.9947,
      "id": "GHCND:US1TXHYS281",
      "elevationUnit": "METERS",
      "longitude": -97.94788
    },
    {
      "elevation": 359.4,
      "mindate": "2008-05-19",
      "maxdate": "2025-03-04",
      "latitude": 30.1908214,
      "name": "DRIPPING SPRINGS 2.2 E, TX US",
      "datacoverage": 1,
      "id": "GHCND:US1TXHYS282",
      "elevationUnit": "METERS",
      "longitude": -98.0520424
    },
    {
      "elevation": 195.7,
      "mindate": "2023-03-08",
      "maxdate": "2025-03-07",
      "latitude": 29.95706,
      "name": "SAN MARCOS 5.6 NNE, TX US",
      "datacoverage": 1,
      "id": "GHCND:US1TXHYS284",
      "elevationUnit": "METERS",
      "longitude": -97.90086
    },
    {
      "elevation": 341.7,
      "mindate": "2023-04-01",
      "maxdate": "2025-02-20",
      "latitude": 30.1683363,
      "name": "DRIPPING SPRINGS 4.9 ESE, TX US",
      "datacoverage": 0.9332,
      "id": "GHCND:US1TXHYS285",
      "elevationUnit": "METERS",
      "longitude": -98.0099689
    },
    {
      "elevation": 353,
      "mindate": "2023-03-31",
      "maxdate": "2025-03-07",
      "latitude": 30.026788,
      "name": "WIMBERLEY 5.3 WNW, TX US",
      "datacoverage": 1,
      "id": "GHCND:US1TXHYS286",
      "elevationUnit": "METERS",
      "longitude": -98.181023
    },
    {
      "elevation": 334.7,
      "mindate": "2023-04-16",
      "maxdate": "2025-02-24",
      "latitude": 29.974939,
      "name": "WIMBERLEY 1.6 SE, TX US",
      "datacoverage": 0.9956,
      "id": "GHCND:US1TXHYS287",
      "elevationUnit": "METERS",
      "longitude": -98.084084
    },
    {
      "elevation": 253.6,
      "mindate": "2023-03-19",
      "maxdate": "2025-03-07",
      "latitude": 30.1005893,
      "name": "BUDA 3.9 WNW, TX US",
      "datacoverage": 1,
      "id": "GHCND:US1TXHYS288",
      "elevationUnit": "METERS",
      "longitude": -97.9022853
    },
    {
      "elevation": 391.1,
      "mindate": "2023-03-22",
      "maxdate": "2025-03-04",
      "latitude": 30.090247,
      "name": "WIMBERLEY 7.3 NNE, TX US",
      "datacoverage": 0.731,
      "id": "GHCND:US1TXHYS289",
      "elevationUnit": "METERS",
      "longitude": -98.052499
    },
    {
      "elevation": 258.8,
      "mindate": "2023-03-24",
      "maxdate": "2025-03-04",
      "latitude": 30.1052419,
      "name": "BUDA 3.8 WNW, TX US",
      "datacoverage": 1,
      "id": "GHCND:US1TXHYS290",
      "elevationUnit": "METERS",
      "longitude": -97.8993711
    },
    {
      "elevation": 334.1,
      "mindate": "2023-03-25",
      "maxdate": "2024-09-06",
      "latitude": 30.210225,
      "name": "DRIPPING SPRINGS 6.1 ENE, TX US",
      "datacoverage": 0.997,
      "id": "GHCND:US1TXHYS291",
      "elevationUnit": "METERS",
      "longitude": -97.989163
    },
    {
      "elevation": 326.7,
      "mindate": "2003-10-22",
      "maxdate": "2025-03-04",
      "latitude": 30.02839,
      "name": "WIMBERLEY 2.9 NNE, TX US",
      "datacoverage": 0.0233,
      "id": "GHCND:US1TXHYS292",
      "elevationUnit": "METERS",
      "longitude": -98.0761
    },
    {
      "elevation": 352,
      "mindate": "2023-04-27",
      "maxdate": "2025-03-04",
      "latitude": 30.0270174,
      "name": "WIMBERLEY 5.1 WNW, TX US",
      "datacoverage": 0.2035,
      "id": "GHCND:US1TXHYS293",
      "elevationUnit": "METERS",
      "longitude": -98.1773323
    },
    {
      "elevation": 317.9,
      "mindate": "2023-04-18",
      "maxdate": "2024-04-15",
      "latitude": 30.0342,
      "name": "WIMBERLEY 2.9 N, TX US",
      "datacoverage": 0.8534,
      "id": "GHCND:US1TXHYS294",
      "elevationUnit": "METERS",
      "longitude": -98.1101
    },
    {
      "elevation": 344.4,
      "mindate": "2023-04-17",
      "maxdate": "2023-09-30",
      "latitude": 30.203,
      "name": "DRIPPING SPRINGS 7.2 E, TX US",
      "datacoverage": 0.9461,
      "id": "GHCND:US1TXHYS295",
      "elevationUnit": "METERS",
      "longitude": -97.9694
    },
    {
      "elevation": 251.5,
      "mindate": "2023-03-28",
      "maxdate": "2025-03-02",
      "latitude": 29.896176,
      "name": "SAN MARCOS 2.0 NW, TX US",
      "datacoverage": 0.9646,
      "id": "GHCND:US1TXHYS296",
      "elevationUnit": "METERS",
      "longitude": -97.956523
    },
    {
      "elevation": 247.5,
      "mindate": "2023-05-17",
      "maxdate": "2024-05-10",
      "latitude": 30.11701,
      "name": "BUDA 2.6 NNW, TX US",
      "datacoverage": 0.9947,
      "id": "GHCND:US1TXHYS297",
      "elevationUnit": "METERS",
      "longitude": -97.86326
    },
    {
      "elevation": 324.3,
      "mindate": "2023-05-12",
      "maxdate": "2025-02-23",
      "latitude": 30.060026,
      "name": "DRIFTWOOD 4.4 SSE, TX US",
      "datacoverage": 0.8797,
      "id": "GHCND:US1TXHYS298",
      "elevationUnit": "METERS",
      "longitude": -98.014206
    },
    {
      "elevation": 295,
      "mindate": "2023-02-09",
      "maxdate": "2025-02-28",
      "latitude": 30.035535,
      "name": "WIMBERLEY 3.3 NNW, TX US",
      "datacoverage": 0.9527,
      "id": "GHCND:US1TXHYS299",
      "elevationUnit": "METERS",
      "longitude": -98.127996
    },
    {
      "elevation": 395,
      "mindate": "2021-12-21",
      "maxdate": "2025-03-06",
      "latitude": 30.11337,
      "name": "WIMBERLEY 12.2 NW, TX US",
      "datacoverage": 0.9996,
      "id": "GHCND:US1TXHYS301",
      "elevationUnit": "METERS",
      "longitude": -98.25152
    },
    {
      "elevation": 343.8,
      "mindate": "2023-10-01",
      "maxdate": "2025-03-06",
      "latitude": 30.1645,
      "name": "DRIPPING SPRINGS 5.4 ESE, TX US",
      "datacoverage": 0.5946,
      "id": "GHCND:US1TXHYS304",
      "elevationUnit": "METERS",
      "longitude": -98.00214
    },
    {
      "elevation": 338.9,
      "mindate": "2024-02-06",
      "maxdate": "2025-03-04",
      "latitude": 30.0318277,
      "name": "WIMBERLEY 5.2 ENE, TX US",
      "datacoverage": 0.7023,
      "id": "GHCND:US1TXHYS309",
      "elevationUnit": "METERS",
      "longitude": -98.027894
    },
    {
      "elevation": 370.3,
      "mindate": "2024-02-07",
      "maxdate": "2024-10-06",
      "latitude": 30.206505,
      "name": "DRIPPING SPRINGS 1.3 NNE, TX US",
      "datacoverage": 0.8848,
      "id": "GHCND:US1TXHYS310",
      "elevationUnit": "METERS",
      "longitude": -98.083658
    },
    {
      "elevation": 310.3,
      "mindate": "2024-01-04",
      "maxdate": "2025-03-06",
      "latitude": 29.934994,
      "name": "SAN MARCOS 8.7 WNW, TX US",
      "datacoverage": 1,
      "id": "GHCND:US1TXHYS312",
      "elevationUnit": "METERS",
      "longitude": -98.059991
    },
    {
      "elevation": 316.1,
      "mindate": "2007-08-01",
      "maxdate": "2009-10-30",
      "latitude": 33.32755,
      "name": "JACKSBORO 12.4 NW, TX US",
      "datacoverage": 0.9986,
      "id": "GHCND:US1TXJC0001",
      "elevationUnit": "METERS",
      "longitude": -98.32847
    },
    {
      "elevation": 311.5,
      "mindate": "2003-09-01",
      "maxdate": "2021-12-02",
      "latitude": 33.040152,
      "name": "PERRIN 3.0 ENE, TX US",
      "datacoverage": 0.9992,
      "id": "GHCND:US1TXJC0002",
      "elevationUnit": "METERS",
      "longitude": -98.120732
    },
    {
      "elevation": 365.8,
      "mindate": "2007-09-01",
      "maxdate": "2011-09-18",
      "latitude": 33.172594,
      "name": "JACKSBORO 6.2 SW, TX US",
      "datacoverage": 0.9799,
      "id": "GHCND:US1TXJC0003",
      "elevationUnit": "METERS",
      "longitude": -98.24374
    },
    {
      "elevation": 1769.1,
      "mindate": "2007-10-01",
      "maxdate": "2010-11-19",
      "latitude": 30.5996124,
      "name": "FORT DAVIS 11.6 W, TX US",
      "datacoverage": 0.9997,
      "id": "GHCND:US1TXJD0001",
      "elevationUnit": "METERS",
      "longitude": -104.088989
    },
    {
      "elevation": 1603.2,
      "mindate": "2007-10-01",
      "maxdate": "2011-06-10",
      "latitude": 30.616449,
      "name": "FORT DAVIS 6.3 WNW, TX US",
      "datacoverage": 1,
      "id": "GHCND:US1TXJD0002",
      "elevationUnit": "METERS",
      "longitude": -103.994064
    },
    {
      "elevation": 1456.6,
      "mindate": "2012-03-01",
      "maxdate": "2013-01-02",
      "latitude": 30.606041,
      "name": "FORT DAVIS 4.0 ENE, TX US",
      "datacoverage": 0.9935,
      "id": "GHCND:US1TXJD0004",
      "elevationUnit": "METERS",
      "longitude": -103.829899
    },
    {
      "elevation": 1499.9,
      "mindate": "2012-01-25",
      "maxdate": "2025-03-07",
      "latitude": 30.565231,
      "name": "FORT DAVIS 1.7 SSE, TX US",
      "datacoverage": 0.9734,
      "id": "GHCND:US1TXJD0005",
      "elevationUnit": "METERS",
      "longitude": -103.884153
    },
    {
      "elevation": 1503,
      "mindate": "2017-03-01",
      "maxdate": "2025-03-07",
      "latitude": 30.592978,
      "name": "FORT DAVIS 0.3 NNW, TX US",
      "datacoverage": 1,
      "id": "GHCND:US1TXJD0008",
      "elevationUnit": "METERS",
      "longitude": -103.895849
    },
    {
      "elevation": 1264.3,
      "mindate": "2017-09-01",
      "maxdate": "2025-03-04",
      "latitude": 31.060993,
      "name": "KENT 4.6 E, TX US",
      "datacoverage": 1,
      "id": "GHCND:US1TXJD0009",
      "elevationUnit": "METERS",
      "longitude": -104.140699
    },
    {
      "elevation": 1801.1,
      "mindate": "2021-02-01",
      "maxdate": "2025-01-07",
      "latitude": 30.6301965,
      "name": "FORT DAVIS 12.6 WNW, TX US",
      "datacoverage": 0.6835,
      "id": "GHCND:US1TXJD0010",
      "elevationUnit": "METERS",
      "longitude": -104.1001825
    },
    {
      "elevation": 1918.4,
      "mindate": "2023-07-01",
      "maxdate": "2024-12-08",
      "latitude": 30.624319,
      "name": "FORT DAVIS 14.3 W, TX US",
      "datacoverage": 0.9819,
      "id": "GHCND:US1TXJD0011",
      "elevationUnit": "METERS",
      "longitude": -104.131002
    },
    {
      "elevation": 209.1,
      "mindate": "2012-12-01",
      "maxdate": "2014-01-07",
      "latitude": 27.22027778,
      "name": "HEBBRONVILLE 17.6 WSW, TX US",
      "datacoverage": 0.998,
      "id": "GHCND:US1TXJH0002",
      "elevationUnit": "METERS",
      "longitude": -98.95194444
    },
    {
      "elevation": 179.2,
      "mindate": "2018-03-08",
      "maxdate": "2025-02-23",
      "latitude": 27.322805,
      "name": "HEBBRONVILLE 0.7 ENE, TX US",
      "datacoverage": 0.4998,
      "id": "GHCND:US1TXJH0003",
      "elevationUnit": "METERS",
      "longitude": -98.676804
    },
    {
      "elevation": 164.6,
      "mindate": "2018-03-30",
      "maxdate": "2025-03-06",
      "latitude": 27.26095,
      "name": "HEBBRONVILLE 4.3 SSE, TX US",
      "datacoverage": 0.927,
      "id": "GHCND:US1TXJH0004",
      "elevationUnit": "METERS",
      "longitude": -98.65711667
    },
    {
      "elevation": 138.1,
      "mindate": "2018-03-29",
      "maxdate": "2018-10-29",
      "latitude": 27.076,
      "name": "HEBBRONVILLE 17.5 SSE, TX US",
      "datacoverage": 0.9819,
      "id": "GHCND:US1TXJH0006",
      "elevationUnit": "METERS",
      "longitude": -98.602
    },
    {
      "elevation": 196.6,
      "mindate": "2018-03-30",
      "maxdate": "2020-07-29",
      "latitude": 27.044136,
      "name": "HEBBRONVILLE 22.1 SSW, TX US",
      "datacoverage": 0.9925,
      "id": "GHCND:US1TXJH0007",
      "elevationUnit": "METERS",
      "longitude": -98.871367
    },
    {
      "elevation": 123.7,
      "mindate": "2018-04-01",
      "maxdate": "2025-03-07",
      "latitude": 27.04287,
      "name": "HEBBRONVILLE 21.2 SSE JONES RANCH, TX US",
      "datacoverage": 0.964,
      "id": "GHCND:US1TXJH0008",
      "elevationUnit": "METERS",
      "longitude": -98.53089
    },
    {
      "elevation": 168.2,
      "mindate": "2018-04-13",
      "maxdate": "2025-03-07",
      "latitude": 26.84847,
      "name": "HEBBRONVILLE 32.4 S BORREGOS RANCH, TX US",
      "datacoverage": 0.9634,
      "id": "GHCND:US1TXJH0009",
      "elevationUnit": "METERS",
      "longitude": -98.69926
    },
    {
      "elevation": 170.4,
      "mindate": "2018-04-10",
      "maxdate": "2025-03-07",
      "latitude": 26.900345,
      "name": "HEBBRONVILLE 32.3 SSW, TX US",
      "datacoverage": 0.9756,
      "id": "GHCND:US1TXJH0010",
      "elevationUnit": "METERS",
      "longitude": -98.921266
    },
    {
      "elevation": 254.5,
      "mindate": "2018-06-28",
      "maxdate": "2020-05-29",
      "latitude": 27.242052,
      "name": "HEBBRONVILLE 13.2 WSW, TX US",
      "datacoverage": 0.9987,
      "id": "GHCND:US1TXJH0011",
      "elevationUnit": "METERS",
      "longitude": -98.88421
    },
    {
      "elevation": 149,
      "mindate": "2019-06-07",
      "maxdate": "2025-03-07",
      "latitude": 27.114,
      "name": "HEBBRONVILLE 14.8 SSE SUGAR CAMP, TX US",
      "datacoverage": 0.9558,
      "id": "GHCND:US1TXJH0012",
      "elevationUnit": "METERS",
      "longitude": -98.6115
    },
    {
      "elevation": 0.9,
      "mindate": "2007-10-01",
      "maxdate": "2012-03-28",
      "latitude": 29.9536,
      "name": "NEDERLAND 1.9 SE, TX US",
      "datacoverage": 0.9998,
      "id": "GHCND:US1TXJJ0001",
      "elevationUnit": "METERS",
      "longitude": -93.9705
    },
    {
      "elevation": 7,
      "mindate": "2007-10-01",
      "maxdate": "2008-09-11",
      "latitude": 29.8678,
      "name": "PORT ARTHUR 2.9 NNE, TX US",
      "datacoverage": 0.998,
      "id": "GHCND:US1TXJJ0002",
      "elevationUnit": "METERS",
      "longitude": -93.92305
    },
    {
      "elevation": 7.9,
      "mindate": "2007-11-01",
      "maxdate": "2025-03-05",
      "latitude": 29.974667,
      "name": "PORT NECHES 1.0 W, TX US",
      "datacoverage": 0.9407,
      "id": "GHCND:US1TXJJ0003",
      "elevationUnit": "METERS",
      "longitude": -93.957817
    },
    {
      "elevation": 2.1,
      "mindate": "2007-12-01",
      "maxdate": "2010-01-22",
      "latitude": 29.9642,
      "name": "GROVES 1.6 NE, TX US",
      "datacoverage": 0.6525,
      "id": "GHCND:US1TXJJ0004",
      "elevationUnit": "METERS",
      "longitude": -93.9015
    },
    {
      "elevation": 5.8,
      "mindate": "2008-02-01",
      "maxdate": "2016-02-11",
      "latitude": 30.094412,
      "name": "BEAUMONT 1.1 ENE, TX US",
      "datacoverage": 1,
      "id": "GHCND:US1TXJJ0005",
      "elevationUnit": "METERS",
      "longitude": -94.127965
    },
    {
      "elevation": 7.3,
      "mindate": "2008-05-01",
      "maxdate": "2019-10-08",
      "latitude": 30.0725,
      "name": "BEAUMONT 1.8 SW, TX US",
      "datacoverage": 0.9367,
      "id": "GHCND:US1TXJJ0007",
      "elevationUnit": "METERS",
      "longitude": -94.1692
    },
    {
      "elevation": 5.5,
      "mindate": "2010-01-01",
      "maxdate": "2023-07-11",
      "latitude": 30.087384,
      "name": "BEAUMONT 0.3 E, TX US",
      "datacoverage": 0.8803,
      "id": "GHCND:US1TXJJ0008",
      "elevationUnit": "METERS",
      "longitude": -94.138878
    },
    {
      "elevation": 6.7,
      "mindate": "2011-10-01",
      "maxdate": "2025-03-07",
      "latitude": 30.052703,
      "name": "BEAUMONT 3.3 SW, TX US",
      "datacoverage": 0.9998,
      "id": "GHCND:US1TXJJ0009",
      "elevationUnit": "METERS",
      "longitude": -94.181985
    },
    {
      "elevation": 1.5,
      "mindate": "2012-04-01",
      "maxdate": "2017-08-27",
      "latitude": 29.9526,
      "name": "PORT ARTHUR 9.1 NNW, TX US",
      "datacoverage": 0.7636,
      "id": "GHCND:US1TXJJ0010",
      "elevationUnit": "METERS",
      "longitude": -93.9727
    },
    {
      "elevation": 3.7,
      "mindate": "2012-01-01",
      "maxdate": "2018-03-31",
      "latitude": 30.022459,
      "name": "BEAUMONT 4.6 S, TX US",
      "datacoverage": 1,
      "id": "GHCND:US1TXJJ0011",
      "elevationUnit": "METERS",
      "longitude": -94.155461
    },
    {
      "elevation": 2.4,
      "mindate": "2018-09-25",
      "maxdate": "2019-11-16",
      "latitude": 29.8685,
      "name": "PORT ARTHUR 3.0 NNE, TX US",
      "datacoverage": 0.7632,
      "id": "GHCND:US1TXJJ0013",
      "elevationUnit": "METERS",
      "longitude": -93.9228
    },
    {
      "elevation": 2.1,
      "mindate": "2019-01-05",
      "maxdate": "2025-03-07",
      "latitude": 29.927883,
      "name": "PORT ARTHUR 7.0 N, TX US",
      "datacoverage": 0.8975,
      "id": "GHCND:US1TXJJ0014",
      "elevationUnit": "METERS",
      "longitude": -93.924003
    },
    {
      "elevation": 5.2,
      "mindate": "2018-11-19",
      "maxdate": "2025-03-05",
      "latitude": 29.96651,
      "name": "NEDERLAND 1.8 W, TX US",
      "datacoverage": 0.8726,
      "id": "GHCND:US1TXJJ0015",
      "elevationUnit": "METERS",
      "longitude": -94.02509
    },
    {
      "elevation": 14,
      "mindate": "2019-10-01",
      "maxdate": "2025-01-31",
      "latitude": 30.085802,
      "name": "BEAUMONT 0.3 ESE, TX US",
      "datacoverage": 0.7445,
      "id": "GHCND:US1TXJJ0017",
      "elevationUnit": "METERS",
      "longitude": -94.14018
    },
    {
      "elevation": 6.7,
      "mindate": "2020-04-21",
      "maxdate": "2025-03-07",
      "latitude": 30.098688,
      "name": "BEAUMONT 0.8 NNE, TX US",
      "datacoverage": 1,
      "id": "GHCND:US1TXJJ0018",
      "elevationUnit": "METERS",
      "longitude": -94.138662
    },
    {
      "elevation": 4.3,
      "mindate": "2020-09-08",
      "maxdate": "2025-03-07",
      "latitude": 29.96349,
      "name": "NEDERLAND 0.5 SSE, TX US",
      "datacoverage": 0.963,
      "id": "GHCND:US1TXJJ0019",
      "elevationUnit": "METERS",
      "longitude": -93.99415
    },
    {
      "elevation": 7.6,
      "mindate": "2019-01-09",
      "maxdate": "2025-03-06",
      "latitude": 30.100589,
      "name": "BEAUMONT 1.2 NW, TX US",
      "datacoverage": 0.9986,
      "id": "GHCND:US1TXJJ0020",
      "elevationUnit": "METERS",
      "longitude": -94.157264
    },
    {
      "elevation": 8.2,
      "mindate": "2022-07-08",
      "maxdate": "2024-12-31",
      "latitude": 30.112316,
      "name": "BEAUMONT 1.8 NNW, TX US",
      "datacoverage": 0.8293,
      "id": "GHCND:US1TXJJ0022",
      "elevationUnit": "METERS",
      "longitude": -94.156043
    },
    {
      "elevation": 4.3,
      "mindate": "2023-05-15",
      "maxdate": "2025-03-06",
      "latitude": 29.9243852,
      "name": "BEAUMONT 13.1 SSW, TX US",
      "datacoverage": 0.4819,
      "id": "GHCND:US1TXJJ0023",
      "elevationUnit": "METERS",
      "longitude": -94.2568988
    },
    {
      "elevation": 7.9,
      "mindate": "2023-07-01",
      "maxdate": "2025-03-07",
      "latitude": 30.079059,
      "name": "BEAUMONT 2.6 WSW, TX US",
      "datacoverage": 0.8347,
      "id": "GHCND:US1TXJJ0026",
      "elevationUnit": "METERS",
      "longitude": -94.186018
    },
    {
      "elevation": 6.7,
      "mindate": "2024-03-01",
      "maxdate": "2025-03-06",
      "latitude": 30.095373,
      "name": "BEAUMONT 1.6 WNW, TX US",
      "datacoverage": 0.7669,
      "id": "GHCND:US1TXJJ0028",
      "elevationUnit": "METERS",
      "longitude": -94.169918
    },
    {
      "elevation": 7.9,
      "mindate": "2024-04-19",
      "maxdate": "2025-03-07",
      "latitude": 30.153165,
      "name": "BEAUMONT 4.8 NNW, TX US",
      "datacoverage": 0.8638,
      "id": "GHCND:US1TXJJ0029",
      "elevationUnit": "METERS",
      "longitude": -94.169714
    },
    {
      "elevation": 7,
      "mindate": "2024-05-09",
      "maxdate": "2025-02-28",
      "latitude": 30.092492,
      "name": "BEAUMONT 0.6 WNW, TX US",
      "datacoverage": 0.8953,
      "id": "GHCND:US1TXJJ0030",
      "elevationUnit": "METERS",
      "longitude": -94.153262
    },
    {
      "elevation": 18,
      "mindate": "2008-03-01",
      "maxdate": "2015-11-09",
      "latitude": 28.9099,
      "name": "EDNA 4.6 SSE, TX US",
      "datacoverage": 0.9999,
      "id": "GHCND:US1TXJK0001",
      "elevationUnit": "METERS",
      "longitude": -96.6286
    },
    {
      "elevation": 36.6,
      "mindate": "2012-01-01",
      "maxdate": "2024-02-03",
      "latitude": 29.1833,
      "name": "EDNA 14.5 N, TX US",
      "datacoverage": 0.9999,
      "id": "GHCND:US1TXJK0003",
      "elevationUnit": "METERS",
      "longitude": -96.6499
    },
    {
      "elevation": 17.7,
      "mindate": "2012-01-01",
      "maxdate": "2014-10-30",
      "latitude": 28.9607638,
      "name": "EDNA 1.3 SE, TX US",
      "datacoverage": 0.9999,
      "id": "GHCND:US1TXJK0004",
      "elevationUnit": "METERS",
      "longitude": -96.6328691
    },
    {
      "elevation": 19.8,
      "mindate": "2014-02-01",
      "maxdate": "2025-03-07",
      "latitude": 29.04321,
      "name": "GANADO 1.5 W, TX US",
      "datacoverage": 1,
      "id": "GHCND:US1TXJK0005",
      "elevationUnit": "METERS",
      "longitude": -96.53674
    },
    {
      "elevation": 23.5,
      "mindate": "2019-06-12",
      "maxdate": "2025-03-05",
      "latitude": 29.0267,
      "name": "EDNA 3.8 NNW, TX US",
      "datacoverage": 1,
      "id": "GHCND:US1TXJK0006",
      "elevationUnit": "METERS",
      "longitude": -96.66599
    },
    {
      "elevation": 207.9,
      "mindate": "2007-01-01",
      "maxdate": "2007-06-22",
      "latitude": 32.545,
      "name": "MANSFIELD 5.0 WSW, TX US",
      "datacoverage": 1,
      "id": "GHCND:US1TXJN0001",
      "elevationUnit": "METERS",
      "longitude": -97.2
    },
    {
      "elevation": 232,
      "mindate": "2007-06-01",
      "maxdate": "2019-04-01",
      "latitude": 32.541,
      "name": "BURLESON 1.1 WNW, TX US",
      "datacoverage": 0.9904,
      "id": "GHCND:US1TXJN0002",
      "elevationUnit": "METERS",
      "longitude": -97.3458
    },
    {
      "elevation": 239,
      "mindate": "2008-04-01",
      "maxdate": "2020-09-30",
      "latitude": 32.32772,
      "name": "CLEBURNE 1.5 S, TX US",
      "datacoverage": 1,
      "id": "GHCND:US1TXJN0003",
      "elevationUnit": "METERS",
      "longitude": -97.406193
    },
    {
      "elevation": 190.8,
      "mindate": "2008-05-01",
      "maxdate": "2012-08-18",
      "latitude": 32.25551,
      "name": "GRANDVIEW 1.4 SE, TX US",
      "datacoverage": 1,
      "id": "GHCND:US1TXJN0004",
      "elevationUnit": "METERS",
      "longitude": -97.157488
    },
    {
      "elevation": 301.4,
      "mindate": "2009-10-01",
      "maxdate": "2025-03-03",
      "latitude": 32.472473,
      "name": "GODLEY 2.6 NW, TX US",
      "datacoverage": 0.9488,
      "id": "GHCND:US1TXJN0006",
      "elevationUnit": "METERS",
      "longitude": -97.561028
    },
    {
      "elevation": 234.1,
      "mindate": "2011-01-01",
      "maxdate": "2013-02-12",
      "latitude": 32.530494,
      "name": "BURLESON 1.6 W, TX US",
      "datacoverage": 0.9247,
      "id": "GHCND:US1TXJN0010",
      "elevationUnit": "METERS",
      "longitude": -97.356339
    },
    {
      "elevation": 271,
      "mindate": "2011-07-01",
      "maxdate": "2025-03-04",
      "latitude": 32.441603,
      "name": "JOSHUA 5.2 WSW, TX US",
      "datacoverage": 0.9994,
      "id": "GHCND:US1TXJN0012",
      "elevationUnit": "METERS",
      "longitude": -97.46567
    },
    {
      "elevation": 236.2,
      "mindate": "2011-10-01",
      "maxdate": "2014-11-22",
      "latitude": 32.475439,
      "name": "BURLESON 5.7 SE, TX US",
      "datacoverage": 0.9734,
      "id": "GHCND:US1TXJN0013",
      "elevationUnit": "METERS",
      "longitude": -97.257805
    },
    {
      "elevation": 231.3,
      "mindate": "2014-03-01",
      "maxdate": "2017-01-25",
      "latitude": 32.3369583,
      "name": "CLEBURNE 0.9 SSE, TX US",
      "datacoverage": 0.9986,
      "id": "GHCND:US1TXJN0014",
      "elevationUnit": "METERS",
      "longitude": -97.3991444
    },
    {
      "elevation": 270.1,
      "mindate": "2014-08-01",
      "maxdate": "2025-02-11",
      "latitude": 32.34,
      "name": "CLEBURNE 5.8 E, TX US",
      "datacoverage": 0.9996,
      "id": "GHCND:US1TXJN0016",
      "elevationUnit": "METERS",
      "longitude": -97.30696
    },
    {
      "elevation": 232.6,
      "mindate": "2014-09-01",
      "maxdate": "2017-03-29",
      "latitude": 32.531521,
      "name": "BURLESON 0.7 W, TX US",
      "datacoverage": 1,
      "id": "GHCND:US1TXJN0018",
      "elevationUnit": "METERS",
      "longitude": -97.340393
    },
    {
      "elevation": 25,
      "mindate": "2014-09-01",
      "maxdate": "2025-03-06",
      "latitude": 32.412228,
      "name": "CLEBURNE 4.8 NNE, TX US",
      "datacoverage": 1,
      "id": "GHCND:US1TXJN0019",
      "elevationUnit": "METERS",
      "longitude": -97.370735
    },
    {
      "elevation": 234.7,
      "mindate": "2015-10-23",
      "maxdate": "2021-06-01",
      "latitude": 32.316223,
      "name": "CLEBURNE 3.3 SW, TX US",
      "datacoverage": 0.1352,
      "id": "GHCND:US1TXJN0025",
      "elevationUnit": "METERS",
      "longitude": -97.448036
    },
    {
      "elevation": 229.8,
      "mindate": "2018-05-08",
      "maxdate": "2021-05-02",
      "latitude": 32.310864,
      "name": "GRANDVIEW 4.9 NW, TX US",
      "datacoverage": 1,
      "id": "GHCND:US1TXJN0027",
      "elevationUnit": "METERS",
      "longitude": -97.243921
    },
    {
      "elevation": 220.1,
      "mindate": "2019-04-01",
      "maxdate": "2025-03-07",
      "latitude": 32.5111,
      "name": "BURLESON 4.9 ESE, TX US",
      "datacoverage": 1,
      "id": "GHCND:US1TXJN0030",
      "elevationUnit": "METERS",
      "longitude": -97.24852
    },
    {
      "elevation": 271.6,
      "mindate": "2020-09-01",
      "maxdate": "2025-03-04",
      "latitude": 32.450943,
      "name": "JOSHUA 2.5 ESE, TX US",
      "datacoverage": 0.9995,
      "id": "GHCND:US1TXJN0031",
      "elevationUnit": "METERS",
      "longitude": -97.339957
    },
    {
      "elevation": 273.7,
      "mindate": "2024-02-01",
      "maxdate": "2025-03-04",
      "latitude": 32.39037,
      "name": "KEENE 0.3 SE, TX US",
      "datacoverage": 0.998,
      "id": "GHCND:US1TXJN0033",
      "elevationUnit": "METERS",
      "longitude": -97.327608
    },
    {
      "elevation": 524,
      "mindate": "2009-02-01",
      "maxdate": "2009-10-06",
      "latitude": 32.7776,
      "name": "ANSON 3.5 WNW, TX US",
      "datacoverage": 1,
      "id": "GHCND:US1TXJO0001",
      "elevationUnit": "METERS",
      "longitude": -99.9521
    },
    {
      "elevation": 490.7,
      "mindate": "2012-08-01",
      "maxdate": "2019-09-24",
      "latitude": 32.944496,
      "name": "STAMFORD 0.2 ESE, TX US",
      "datacoverage": 1,
      "id": "GHCND:US1TXJO0003",
      "elevationUnit": "METERS",
      "longitude": -99.799623
    },
    {
      "elevation": 483.7,
      "mindate": "2012-08-01",
      "maxdate": "2022-10-31",
      "latitude": 32.9373845458031,
      "name": "STAMFORD 2.4 E, TX US",
      "datacoverage": 1,
      "id": "GHCND:US1TXJO0004",
      "elevationUnit": "METERS",
      "longitude": -99.7707965970039
    },
    {
      "elevation": 504.4,
      "mindate": "2013-07-01",
      "maxdate": "2025-03-04",
      "latitude": 32.6167,
      "name": "ABILENE 13.0 NNE, TX US",
      "datacoverage": 0.9692,
      "id": "GHCND:US1TXJO0005",
      "elevationUnit": "METERS",
      "longitude": -99.6251
    }
  ]
}
