{
  "metadata": {
    "resultset": {
      "offset": 57300,
      "count": 154115,
      "limit": 100
    }
  },
  "results": [
    {
      "elevation": 10,
      "mindate": "1951-01-01",
      "maxdate": "2025-01-31",
      "latitude": 54.0681,
      "name": "TRIBSEES, GM",
      "datacoverage": 0.9986,
      "id": "GHCND:GME00129418",
      "elevationUnit": "METERS",
      "longitude": 12.7689
    },
    {
      "elevation": 132,
      "mindate": "1907-05-01",
      "maxdate": "2025-01-31",
      "latitude": 49.7325,
      "name": "TRIER ZEWEN, GM",
      "datacoverage": 0.9031,
      "id": "GHCND:GME00129430",
      "elevationUnit": "METERS",
      "longitude": 6.6131
    },
    {
      "elevation": 700,
      "mindate": "1941-01-01",
      "maxdate": "1973-02-28",
      "latitude": 48.3142,
      "name": "TROCHTELFINGEN, GM",
      "datacoverage": 0.938,
      "id": "GHCND:GME00129442",
      "elevationUnit": "METERS",
      "longitude": 9.2481
    },
    {
      "elevation": 769,
      "mindate": "1988-06-01",
      "maxdate": "2017-12-31",
      "latitude": 48.2819,
      "name": "TROCHTELFINGEN WILSINGEN, GM",
      "datacoverage": 1,
      "id": "GHCND:GME00129454",
      "elevationUnit": "METERS",
      "longitude": 9.3144
    },
    {
      "elevation": 559,
      "mindate": "1941-01-01",
      "maxdate": "2025-01-31",
      "latitude": 48.0317,
      "name": "TROSTBERG, GM",
      "datacoverage": 1,
      "id": "GHCND:GME00129478",
      "elevationUnit": "METERS",
      "longitude": 12.5408
    },
    {
      "elevation": 370,
      "mindate": "1950-01-01",
      "maxdate": "1982-04-30",
      "latitude": 48.5206,
      "name": "TUBINGEN, GM",
      "datacoverage": 1,
      "id": "GHCND:GME00129490",
      "elevationUnit": "METERS",
      "longitude": 9.0525
    },
    {
      "elevation": 649,
      "mindate": "1888-02-01",
      "maxdate": "2017-10-31",
      "latitude": 48.0092,
      "name": "TUTTLINGEN, GM",
      "datacoverage": 0.9994,
      "id": "GHCND:GME00129502",
      "elevationUnit": "METERS",
      "longitude": 8.8189
    },
    {
      "elevation": 675,
      "mindate": "1981-06-01",
      "maxdate": "2025-01-31",
      "latitude": 47.9558,
      "name": "TUTTLINGEN MOHRINGEN, GM",
      "datacoverage": 0.5192,
      "id": "GHCND:GME00129514",
      "elevationUnit": "METERS",
      "longitude": 8.7575
    },
    {
      "elevation": 295,
      "mindate": "1931-01-01",
      "maxdate": "2025-01-31",
      "latitude": 51.3356,
      "name": "TWISTETAL MUHLHAUSEN, GM",
      "datacoverage": 0.9894,
      "id": "GHCND:GME00129526",
      "elevationUnit": "METERS",
      "longitude": 8.9142
    },
    {
      "elevation": 446,
      "mindate": "1946-01-01",
      "maxdate": "2012-06-30",
      "latitude": 47.7719,
      "name": "UBERLINGEN BODENSEE, GM",
      "datacoverage": 0.9838,
      "id": "GHCND:GME00129538",
      "elevationUnit": "METERS",
      "longitude": 9.1569
    },
    {
      "elevation": 1,
      "mindate": "1890-06-07",
      "maxdate": "2025-01-31",
      "latitude": 53.7458,
      "name": "UECKERMUNDE, GM",
      "datacoverage": 0.9725,
      "id": "GHCND:GME00129550",
      "elevationUnit": "METERS",
      "longitude": 14.0694
    },
    {
      "elevation": 50,
      "mindate": "1951-01-01",
      "maxdate": "2025-01-31",
      "latitude": 52.9428,
      "name": "UELZEN, GM",
      "datacoverage": 0.8954,
      "id": "GHCND:GME00129562",
      "elevationUnit": "METERS",
      "longitude": 10.53
    },
    {
      "elevation": 308,
      "mindate": "1899-01-01",
      "maxdate": "2025-01-31",
      "latitude": 49.5753,
      "name": "GOLLHOFEN, GM",
      "datacoverage": 0.8702,
      "id": "GHCND:GME00129574",
      "elevationUnit": "METERS",
      "longitude": 10.1928
    },
    {
      "elevation": 567,
      "mindate": "1893-10-13",
      "maxdate": "2014-08-31",
      "latitude": 48.3844,
      "name": "ULM, GM",
      "datacoverage": 0.9821,
      "id": "GHCND:GME00129586",
      "elevationUnit": "METERS",
      "longitude": 9.9539
    },
    {
      "elevation": 162,
      "mindate": "1987-12-01",
      "maxdate": "2025-01-31",
      "latitude": 52.1617,
      "name": "UMMENDORF, GM",
      "datacoverage": 0.9602,
      "id": "GHCND:GME00129598",
      "elevationUnit": "METERS",
      "longitude": 11.1767
    },
    {
      "elevation": 95,
      "mindate": "1941-01-01",
      "maxdate": "2006-12-31",
      "latitude": 52.8514,
      "name": "UNTERLUSS, GM",
      "datacoverage": 0.9697,
      "id": "GHCND:GME00129610",
      "elevationUnit": "METERS",
      "longitude": 10.2908
    },
    {
      "elevation": 291,
      "mindate": "1971-11-01",
      "maxdate": "2006-12-31",
      "latitude": 49.5942,
      "name": "UTTENREUTH, GM",
      "datacoverage": 1,
      "id": "GHCND:GME00129622",
      "elevationUnit": "METERS",
      "longitude": 11.0717
    },
    {
      "elevation": 720,
      "mindate": "1947-01-01",
      "maxdate": "2025-01-31",
      "latitude": 48.0458,
      "name": "VILLINGEN SCHWENNINGEN, GM",
      "datacoverage": 1,
      "id": "GHCND:GME00129634",
      "elevationUnit": "METERS",
      "longitude": 8.4617
    },
    {
      "elevation": 51,
      "mindate": "1959-01-01",
      "maxdate": "1979-12-31",
      "latitude": 52.8331,
      "name": "VISBEK, GM",
      "datacoverage": 1,
      "id": "GHCND:GME00129646",
      "elevationUnit": "METERS",
      "longitude": 8.3119
    },
    {
      "elevation": 220,
      "mindate": "1961-01-01",
      "maxdate": "1982-02-28",
      "latitude": 49.2592,
      "name": "VOLKLINGEN STADT, GM",
      "datacoverage": 0.9845,
      "id": "GHCND:GME00129658",
      "elevationUnit": "METERS",
      "longitude": 6.8617
    },
    {
      "elevation": 223,
      "mindate": "1931-01-01",
      "maxdate": "2005-08-31",
      "latitude": 48.0917,
      "name": "VOGTSBURG OBERROTWEIL, GM",
      "datacoverage": 0.9732,
      "id": "GHCND:GME00129670",
      "elevationUnit": "METERS",
      "longitude": 7.6358
    },
    {
      "elevation": 100,
      "mindate": "1947-01-01",
      "maxdate": "1957-12-31",
      "latitude": 52.1042,
      "name": "VOLDAGSEN, GM",
      "datacoverage": 1,
      "id": "GHCND:GME00129682",
      "elevationUnit": "METERS",
      "longitude": 9.5856
    },
    {
      "elevation": 86,
      "mindate": "1963-06-01",
      "maxdate": "1975-12-31",
      "latitude": 52.0733,
      "name": "WACKERSLEBEN, GM",
      "datacoverage": 1,
      "id": "GHCND:GME00129698",
      "elevationUnit": "METERS",
      "longitude": 11.0233
    },
    {
      "elevation": 254,
      "mindate": "1882-02-01",
      "maxdate": "2018-05-31",
      "latitude": 50.675,
      "name": "BAD BLANKENBURG, GM",
      "datacoverage": 0.9224,
      "id": "GHCND:GME00129710",
      "elevationUnit": "METERS",
      "longitude": 11.2817
    },
    {
      "elevation": 105,
      "mindate": "1951-01-01",
      "maxdate": "2025-01-31",
      "latitude": 49.2456,
      "name": "WAGHAUSEL KIRRLACH, GM",
      "datacoverage": 1,
      "id": "GHCND:GME00129718",
      "elevationUnit": "METERS",
      "longitude": 8.5381
    },
    {
      "elevation": 349,
      "mindate": "1998-01-01",
      "maxdate": "2009-06-30",
      "latitude": 50.8125,
      "name": "WAHLEN, GM",
      "datacoverage": 0.9991,
      "id": "GHCND:GME00129730",
      "elevationUnit": "METERS",
      "longitude": 9.1283
    },
    {
      "elevation": 176,
      "mindate": "1931-01-01",
      "maxdate": "2025-01-31",
      "latitude": 51.6194,
      "name": "WAHLSBURG LIPPOLDSBERG, GM",
      "datacoverage": 0.9336,
      "id": "GHCND:GME00129742",
      "elevationUnit": "METERS",
      "longitude": 9.5769
    },
    {
      "elevation": 39,
      "mindate": "1981-04-01",
      "maxdate": "2025-01-31",
      "latitude": 53.9214,
      "name": "WITTENBORN, GM",
      "datacoverage": 1,
      "id": "GHCND:GME00129754",
      "elevationUnit": "METERS",
      "longitude": 10.2306
    },
    {
      "elevation": 224,
      "mindate": "1978-01-01",
      "maxdate": "1991-12-31",
      "latitude": 48.8289,
      "name": "WAIBLINGEN, GM",
      "datacoverage": 1,
      "id": "GHCND:GME00129766",
      "elevationUnit": "METERS",
      "longitude": 9.3239
    },
    {
      "elevation": 1005,
      "mindate": "1948-01-01",
      "maxdate": "1961-12-31",
      "latitude": 47.9767,
      "name": "WALDAU JOSTAL, GM",
      "datacoverage": 1,
      "id": "GHCND:GME00129778",
      "elevationUnit": "METERS",
      "longitude": 8.1567
    },
    {
      "elevation": 376,
      "mindate": "1947-01-01",
      "maxdate": "1989-04-30",
      "latitude": 51.2081,
      "name": "WALDECK, GM",
      "datacoverage": 1,
      "id": "GHCND:GME00129790",
      "elevationUnit": "METERS",
      "longitude": 9.0667
    },
    {
      "elevation": 46,
      "mindate": "1973-01-01",
      "maxdate": "2001-12-31",
      "latitude": 53.6639,
      "name": "AHRENSBURG WULFSDORF, GM",
      "datacoverage": 1,
      "id": "GHCND:GME00129802",
      "elevationUnit": "METERS",
      "longitude": 10.2003
    },
    {
      "elevation": 380,
      "mindate": "1931-01-01",
      "maxdate": "2025-01-31",
      "latitude": 50.2608,
      "name": "WALDEMS REINBORN, GM",
      "datacoverage": 0.9416,
      "id": "GHCND:GME00129814",
      "elevationUnit": "METERS",
      "longitude": 8.3608
    },
    {
      "elevation": 940,
      "mindate": "1951-01-01",
      "maxdate": "2003-12-31",
      "latitude": 48.9303,
      "name": "WALDHAUSER NATIONAL PARK, GM",
      "datacoverage": 1,
      "id": "GHCND:GME00129826",
      "elevationUnit": "METERS",
      "longitude": 13.4656
    },
    {
      "elevation": 509,
      "mindate": "1941-01-01",
      "maxdate": "2017-04-30",
      "latitude": 50.0106,
      "name": "WALDSASSEN, GM",
      "datacoverage": 0.9739,
      "id": "GHCND:GME00129838",
      "elevationUnit": "METERS",
      "longitude": 12.2992
    },
    {
      "elevation": 330,
      "mindate": "1953-01-01",
      "maxdate": "1991-06-30",
      "latitude": 47.6181,
      "name": "WALDSHUT, GM",
      "datacoverage": 1,
      "id": "GHCND:GME00129850",
      "elevationUnit": "METERS",
      "longitude": 8.2394
    },
    {
      "elevation": 353,
      "mindate": "1945-01-01",
      "maxdate": "2025-01-31",
      "latitude": 50.8975,
      "name": "WALTERSHAUSEN, GM",
      "datacoverage": 0.9136,
      "id": "GHCND:GME00129862",
      "elevationUnit": "METERS",
      "longitude": 10.5494
    },
    {
      "elevation": 3,
      "mindate": "1885-06-01",
      "maxdate": "2025-01-31",
      "latitude": 53.7883,
      "name": "WANGEROOGE, GM",
      "datacoverage": 0.9278,
      "id": "GHCND:GME00129874",
      "elevationUnit": "METERS",
      "longitude": 7.9075
    },
    {
      "elevation": 236,
      "mindate": "1998-01-01",
      "maxdate": "2025-01-31",
      "latitude": 51.5053,
      "name": "WARBURG, GM",
      "datacoverage": 0.9874,
      "id": "GHCND:GME00129886",
      "elevationUnit": "METERS",
      "longitude": 9.1128
    },
    {
      "elevation": 70,
      "mindate": "1889-07-01",
      "maxdate": "2025-01-31",
      "latitude": 53.5214,
      "name": "WAREN, GM",
      "datacoverage": 0.9545,
      "id": "GHCND:GME00129898",
      "elevationUnit": "METERS",
      "longitude": 12.6692
    },
    {
      "elevation": 417,
      "mindate": "1931-01-01",
      "maxdate": "2025-01-31",
      "latitude": 50.0367,
      "name": "BLANKENRATH, GM",
      "datacoverage": 0.9459,
      "id": "GHCND:GME00129910",
      "elevationUnit": "METERS",
      "longitude": 7.3056
    },
    {
      "elevation": 270,
      "mindate": "1949-01-01",
      "maxdate": "2005-12-31",
      "latitude": 50.6281,
      "name": "WARTENBERG ANGERSBACH, GM",
      "datacoverage": 1,
      "id": "GHCND:GME00129922",
      "elevationUnit": "METERS",
      "longitude": 9.4431
    },
    {
      "elevation": 443,
      "mindate": "1949-01-01",
      "maxdate": "1993-12-31",
      "latitude": 48.0581,
      "name": "WASSERBURG, GM",
      "datacoverage": 0.9778,
      "id": "GHCND:GME00129934",
      "elevationUnit": "METERS",
      "longitude": 12.2217
    },
    {
      "elevation": 1923,
      "mindate": "1948-01-01",
      "maxdate": "1953-09-30",
      "latitude": 47.5719,
      "name": "WATZMANNHAUS, GM",
      "datacoverage": 1,
      "id": "GHCND:GME00129946",
      "elevationUnit": "METERS",
      "longitude": 12.9353
    },
    {
      "elevation": 425,
      "mindate": "1931-01-01",
      "maxdate": "2005-12-31",
      "latitude": 49.1975,
      "name": "KR.ANSBACH WEIDENBACH, GM",
      "datacoverage": 0.9734,
      "id": "GHCND:GME00129958",
      "elevationUnit": "METERS",
      "longitude": 10.65
    },
    {
      "elevation": 309,
      "mindate": "1991-11-01",
      "maxdate": "2004-12-31",
      "latitude": 49.5908,
      "name": "WEIGENHEIM REUSCH, GM",
      "datacoverage": 1,
      "id": "GHCND:GME00129970",
      "elevationUnit": "METERS",
      "longitude": 10.26
    },
    {
      "elevation": 150,
      "mindate": "1947-01-01",
      "maxdate": "2004-12-31",
      "latitude": 50.4742,
      "name": "WEILBURG KLARANLAGE, GM",
      "datacoverage": 1,
      "id": "GHCND:GME00129994",
      "elevationUnit": "METERS",
      "longitude": 8.2594
    },
    {
      "elevation": 264,
      "mindate": "1890-05-01",
      "maxdate": "2007-06-30",
      "latitude": 50.9756,
      "name": "WEIMAR, GM",
      "datacoverage": 0.8777,
      "id": "GHCND:GME00130006",
      "elevationUnit": "METERS",
      "longitude": 11.3092
    },
    {
      "elevation": 325,
      "mindate": "1947-05-01",
      "maxdate": "2025-01-31",
      "latitude": 51.0192,
      "name": "WEIMAR SCHONDORF, GM",
      "datacoverage": 0.9997,
      "id": "GHCND:GME00130018",
      "elevationUnit": "METERS",
      "longitude": 11.3556
    },
    {
      "elevation": 219,
      "mindate": "1931-01-01",
      "maxdate": "1984-06-30",
      "latitude": 49.1519,
      "name": "WEINSBERG, GM",
      "datacoverage": 0.9814,
      "id": "GHCND:GME00130042",
      "elevationUnit": "METERS",
      "longitude": 9.2931
    },
    {
      "elevation": 380,
      "mindate": "1957-01-01",
      "maxdate": "2025-01-31",
      "latitude": 49.555,
      "name": "WEISKIRCHEN SAAR, GM",
      "datacoverage": 0.9955,
      "id": "GHCND:GME00130054",
      "elevationUnit": "METERS",
      "longitude": 6.8125
    },
    {
      "elevation": 317,
      "mindate": "1941-01-01",
      "maxdate": "1992-05-31",
      "latitude": 50.0867,
      "name": "WEISMAIN, GM",
      "datacoverage": 0.9612,
      "id": "GHCND:GME00130066",
      "elevationUnit": "METERS",
      "longitude": 11.2378
    },
    {
      "elevation": 455,
      "mindate": "1981-01-01",
      "maxdate": "2025-01-31",
      "latitude": 48.8467,
      "name": "WEISSACH, GM",
      "datacoverage": 0.9073,
      "id": "GHCND:GME00130078",
      "elevationUnit": "METERS",
      "longitude": 8.9089
    },
    {
      "elevation": 115,
      "mindate": "1897-09-01",
      "maxdate": "2025-01-31",
      "latitude": 51.2178,
      "name": "WEISSENFELS, GM",
      "datacoverage": 0.8836,
      "id": "GHCND:GME00130102",
      "elevationUnit": "METERS",
      "longitude": 11.9725
    },
    {
      "elevation": 165,
      "mindate": "1983-01-01",
      "maxdate": "2025-01-31",
      "latitude": 51.2131,
      "name": "WEISSENSEE OTTENHAUSEN, GM",
      "datacoverage": 0.9625,
      "id": "GHCND:GME00130114",
      "elevationUnit": "METERS",
      "longitude": 10.9967
    },
    {
      "elevation": 173,
      "mindate": "1992-06-01",
      "maxdate": "2025-01-31",
      "latitude": 48.1892,
      "name": "WEISWEIL WALDECKHOF, GM",
      "datacoverage": 0.9945,
      "id": "GHCND:GME00130126",
      "elevationUnit": "METERS",
      "longitude": 7.6983
    },
    {
      "elevation": 655,
      "mindate": "1978-12-01",
      "maxdate": "1984-07-31",
      "latitude": 48.1483,
      "name": "WELLENDINGEN, GM",
      "datacoverage": 1,
      "id": "GHCND:GME00130138",
      "elevationUnit": "METERS",
      "longitude": 8.6964
    },
    {
      "elevation": 58,
      "mindate": "1994-12-01",
      "maxdate": "2000-01-31",
      "latitude": 52.0667,
      "name": "WELLMITZ, GM",
      "datacoverage": 0.7579,
      "id": "GHCND:GME00130150",
      "elevationUnit": "METERS",
      "longitude": 14.6917
    },
    {
      "elevation": 216,
      "mindate": "1949-01-01",
      "maxdate": "1986-03-31",
      "latitude": 49.9631,
      "name": "KR. SCHWEINFURT MUHLHAUSEN, GM",
      "datacoverage": 0.9733,
      "id": "GHCND:GME00130174",
      "elevationUnit": "METERS",
      "longitude": 10.0492
    },
    {
      "elevation": 234,
      "mindate": "1947-01-01",
      "maxdate": "2025-01-31",
      "latitude": 51.8478,
      "name": "WERNIGERODE, GM",
      "datacoverage": 0.985,
      "id": "GHCND:GME00130186",
      "elevationUnit": "METERS",
      "longitude": 10.7694
    },
    {
      "elevation": 140,
      "mindate": "1947-07-01",
      "maxdate": "2004-11-30",
      "latitude": 49.7678,
      "name": "WERTHEIM EICHEL, GM",
      "datacoverage": 1,
      "id": "GHCND:GME00130198",
      "elevationUnit": "METERS",
      "longitude": 9.5439
    },
    {
      "elevation": 337,
      "mindate": "1994-05-01",
      "maxdate": "2025-01-31",
      "latitude": 50.9056,
      "name": "BOBECK, GM",
      "datacoverage": 1,
      "id": "GHCND:GME00130210",
      "elevationUnit": "METERS",
      "longitude": 11.7992
    },
    {
      "elevation": 3,
      "mindate": "1936-01-01",
      "maxdate": "2006-12-31",
      "latitude": 54.9006,
      "name": "WESTERLAND, GM",
      "datacoverage": 0.9566,
      "id": "GHCND:GME00130222",
      "elevationUnit": "METERS",
      "longitude": 8.3131
    },
    {
      "elevation": 550,
      "mindate": "1999-02-01",
      "maxdate": "2025-01-31",
      "latitude": 47.8833,
      "name": "WIELENBACH DEMOLLSTR., GM",
      "datacoverage": 0.9999,
      "id": "GHCND:GME00130234",
      "elevationUnit": "METERS",
      "longitude": 11.1589
    },
    {
      "elevation": 25,
      "mindate": "1941-01-01",
      "maxdate": "1974-08-31",
      "latitude": 51.8392,
      "name": "BOCHOLT MARIENSCHULE, GM",
      "datacoverage": 0.7327,
      "id": "GHCND:GME00130246",
      "elevationUnit": "METERS",
      "longitude": 6.6114
    },
    {
      "elevation": 263,
      "mindate": "1987-06-01",
      "maxdate": "2025-01-31",
      "latitude": 50.1331,
      "name": "WIESBADEN AURINGEN, GM",
      "datacoverage": 1,
      "id": "GHCND:GME00130258",
      "elevationUnit": "METERS",
      "longitude": 8.3178
    },
    {
      "elevation": 235,
      "mindate": "1960-01-01",
      "maxdate": "1986-07-31",
      "latitude": 50.0875,
      "name": "WIESBADEN DOTZHEIM, GM",
      "datacoverage": 1,
      "id": "GHCND:GME00130270",
      "elevationUnit": "METERS",
      "longitude": 8.1881
    },
    {
      "elevation": 187,
      "mindate": "1964-11-01",
      "maxdate": "2025-01-31",
      "latitude": 52.1219,
      "name": "WIESENBURG, GM",
      "datacoverage": 0.7704,
      "id": "GHCND:GME00130282",
      "elevationUnit": "METERS",
      "longitude": 12.46
    },
    {
      "elevation": 21,
      "mindate": "1941-01-01",
      "maxdate": "2025-01-31",
      "latitude": 51.8308,
      "name": "BOCHOLT, GM",
      "datacoverage": 0.8781,
      "id": "GHCND:GME00130294",
      "elevationUnit": "METERS",
      "longitude": 6.5358
    },
    {
      "elevation": 385,
      "mindate": "1949-01-01",
      "maxdate": "2025-01-31",
      "latitude": 48.7856,
      "name": "BAD CALMBACH WILDBAD, GM",
      "datacoverage": 0.9157,
      "id": "GHCND:GME00130306",
      "elevationUnit": "METERS",
      "longitude": 8.5769
    },
    {
      "elevation": 101,
      "mindate": "1931-01-01",
      "maxdate": "2025-01-31",
      "latitude": 51.4803,
      "name": "BOCHUM, GM",
      "datacoverage": 0.6204,
      "id": "GHCND:GME00130318",
      "elevationUnit": "METERS",
      "longitude": 7.2706
    },
    {
      "elevation": 570,
      "mindate": "1995-04-01",
      "maxdate": "2025-01-31",
      "latitude": 48.6525,
      "name": "NEUBULACH OBERHAUGSTETT, GM",
      "datacoverage": 0.8853,
      "id": "GHCND:GME00130330",
      "elevationUnit": "METERS",
      "longitude": 8.6808
    },
    {
      "elevation": 310,
      "mindate": "1947-01-01",
      "maxdate": "2001-03-31",
      "latitude": 51.1067,
      "name": "BAD WILDUNGEN, GM",
      "datacoverage": 0.9355,
      "id": "GHCND:GME00130342",
      "elevationUnit": "METERS",
      "longitude": 9.1092
    },
    {
      "elevation": 1,
      "mindate": "1941-01-01",
      "maxdate": "1998-06-30",
      "latitude": 53.5917,
      "name": "WILHELMSHAVEN, GM",
      "datacoverage": 1,
      "id": "GHCND:GME00130354",
      "elevationUnit": "METERS",
      "longitude": 8.1067
    },
    {
      "elevation": 240,
      "mindate": "1931-01-01",
      "maxdate": "2025-01-31",
      "latitude": 48.8042,
      "name": "REMS MURR KREIS WINTERBACH, GM",
      "datacoverage": 0.971,
      "id": "GHCND:GME00130378",
      "elevationUnit": "METERS",
      "longitude": 9.4706
    },
    {
      "elevation": 25,
      "mindate": "1947-01-01",
      "maxdate": "2025-01-31",
      "latitude": 53.8944,
      "name": "WISMAR, GM",
      "datacoverage": 0.7652,
      "id": "GHCND:GME00130390",
      "elevationUnit": "METERS",
      "longitude": 11.4253
    },
    {
      "elevation": 105,
      "mindate": "1890-09-01",
      "maxdate": "2025-01-31",
      "latitude": 51.8903,
      "name": "WITTENBERG, GM",
      "datacoverage": 0.9876,
      "id": "GHCND:GME00130402",
      "elevationUnit": "METERS",
      "longitude": 12.6464
    },
    {
      "elevation": 8,
      "mindate": "2001-04-01",
      "maxdate": "2025-01-31",
      "latitude": 53.55,
      "name": "WITTMUNDHAFEN, GM",
      "datacoverage": 0.9809,
      "id": "GHCND:GME00130414",
      "elevationUnit": "METERS",
      "longitude": 7.6667
    },
    {
      "elevation": 72,
      "mindate": "2001-04-02",
      "maxdate": "2001-09-28",
      "latitude": 53.1831,
      "name": "WITTSTOCK, GM",
      "datacoverage": 0.6611,
      "id": "GHCND:GME00130427",
      "elevationUnit": "METERS",
      "longitude": 12.5167
    },
    {
      "elevation": 66,
      "mindate": "1890-01-01",
      "maxdate": "2025-01-31",
      "latitude": 53.1875,
      "name": "WITTSTOCK ROTE MUHLE, GM",
      "datacoverage": 0.9584,
      "id": "GHCND:GME00130438",
      "elevationUnit": "METERS",
      "longitude": 12.4964
    },
    {
      "elevation": 133,
      "mindate": "1948-01-01",
      "maxdate": "1999-08-31",
      "latitude": 51.3506,
      "name": "WITZENHAUSEN, GM",
      "datacoverage": 0.9993,
      "id": "GHCND:GME00130450",
      "elevationUnit": "METERS",
      "longitude": 9.845
    },
    {
      "elevation": 464,
      "mindate": "1948-07-01",
      "maxdate": "2007-12-31",
      "latitude": 49.2189,
      "name": "WORNITZ BOTTENWEILER, GM",
      "datacoverage": 1,
      "id": "GHCND:GME00130462",
      "elevationUnit": "METERS",
      "longitude": 10.2306
    },
    {
      "elevation": 118,
      "mindate": "1951-01-01",
      "maxdate": "1990-12-31",
      "latitude": 53.4631,
      "name": "WOLDEGK, GM",
      "datacoverage": 1,
      "id": "GHCND:GME00130474",
      "elevationUnit": "METERS",
      "longitude": 13.6117
    },
    {
      "elevation": 291,
      "mindate": "1958-01-01",
      "maxdate": "2025-01-31",
      "latitude": 48.2958,
      "name": "WOLFACH, GM",
      "datacoverage": 1,
      "id": "GHCND:GME00130486",
      "elevationUnit": "METERS",
      "longitude": 8.24
    },
    {
      "elevation": 56,
      "mindate": "1961-01-01",
      "maxdate": "1981-03-31",
      "latitude": 52.4425,
      "name": "WOLFSBURG, GM",
      "datacoverage": 1,
      "id": "GHCND:GME00130498",
      "elevationUnit": "METERS",
      "longitude": 10.76
    },
    {
      "elevation": 82,
      "mindate": "1931-01-01",
      "maxdate": "2024-01-01",
      "latitude": 52.3975,
      "name": "WOLFSBURG SUDWEST, GM",
      "datacoverage": 0.9775,
      "id": "GHCND:GME00130510",
      "elevationUnit": "METERS",
      "longitude": 10.6908
    },
    {
      "elevation": 200,
      "mindate": "1931-01-01",
      "maxdate": "1998-12-31",
      "latitude": 49.5819,
      "name": "WOLFSTEIN PFALZ, GM",
      "datacoverage": 0.9706,
      "id": "GHCND:GME00130522",
      "elevationUnit": "METERS",
      "longitude": 7.6242
    },
    {
      "elevation": 88,
      "mindate": "1936-01-01",
      "maxdate": "2025-01-31",
      "latitude": 49.6056,
      "name": "WORMS, GM",
      "datacoverage": 0.8551,
      "id": "GHCND:GME00130534",
      "elevationUnit": "METERS",
      "longitude": 8.3667
    },
    {
      "elevation": 170,
      "mindate": "1951-01-01",
      "maxdate": "1986-01-31",
      "latitude": 49.7975,
      "name": "WURZBURG KLARWERK, GM",
      "datacoverage": 0.993,
      "id": "GHCND:GME00130546",
      "elevationUnit": "METERS",
      "longitude": 9.8958
    },
    {
      "elevation": 175,
      "mindate": "1901-01-01",
      "maxdate": "1953-01-31",
      "latitude": 49.8006,
      "name": "WURZBURG PHYSIKALISCHES INSTI, GM",
      "datacoverage": 0.576,
      "id": "GHCND:GME00130558",
      "elevationUnit": "METERS",
      "longitude": 9.9292
    },
    {
      "elevation": 57,
      "mindate": "1941-01-01",
      "maxdate": "2025-01-31",
      "latitude": 52.4581,
      "name": "WUNSTORF, GM",
      "datacoverage": 0.9733,
      "id": "GHCND:GME00130570",
      "elevationUnit": "METERS",
      "longitude": 9.4281
    },
    {
      "elevation": 130,
      "mindate": "1937-01-01",
      "maxdate": "2025-01-31",
      "latitude": 51.2258,
      "name": "WUPPERTAL BUCHENHOFEN, GM",
      "datacoverage": 0.9432,
      "id": "GHCND:GME00130582",
      "elevationUnit": "METERS",
      "longitude": 7.1058
    },
    {
      "elevation": 235,
      "mindate": "1941-01-01",
      "maxdate": "2009-12-09",
      "latitude": 51.2064,
      "name": "REMSCHEID, GM",
      "datacoverage": 0.4814,
      "id": "GHCND:GME00130594",
      "elevationUnit": "METERS",
      "longitude": 7.2006
    },
    {
      "elevation": 35,
      "mindate": "1952-04-01",
      "maxdate": "1996-12-31",
      "latitude": 52.8053,
      "name": "WUSTRAU ZIETHENHORST, GM",
      "datacoverage": 0.6648,
      "id": "GHCND:GME00130606",
      "elevationUnit": "METERS",
      "longitude": 12.8731
    },
    {
      "elevation": 398,
      "mindate": "1961-01-01",
      "maxdate": "2025-01-31",
      "latitude": 47.6789,
      "name": "WUTOSCHINGEN OFTERINGEN, GM",
      "datacoverage": 1,
      "id": "GHCND:GME00130618",
      "elevationUnit": "METERS",
      "longitude": 8.3806
    },
    {
      "elevation": 8,
      "mindate": "1887-07-01",
      "maxdate": "2025-01-31",
      "latitude": 54.6942,
      "name": "WRIXUM FOHR, GM",
      "datacoverage": 0.9767,
      "id": "GHCND:GME00130630",
      "elevationUnit": "METERS",
      "longitude": 8.5281
    },
    {
      "elevation": 51,
      "mindate": "1948-07-01",
      "maxdate": "2025-01-31",
      "latitude": 52.9681,
      "name": "ZEHDENICK, GM",
      "datacoverage": 0.9996,
      "id": "GHCND:GME00130642",
      "elevationUnit": "METERS",
      "longitude": 13.3281
    },
    {
      "elevation": 170,
      "mindate": "1952-09-01",
      "maxdate": "2025-01-31",
      "latitude": 51.0539,
      "name": "ZEITZ, GM",
      "datacoverage": 1,
      "id": "GHCND:GME00130654",
      "elevationUnit": "METERS",
      "longitude": 12.1442
    },
    {
      "elevation": 69,
      "mindate": "1887-01-01",
      "maxdate": "2006-12-31",
      "latitude": 51.9656,
      "name": "ZERBST, GM",
      "datacoverage": 0.9111,
      "id": "GHCND:GME00130666",
      "elevationUnit": "METERS",
      "longitude": 12.1008
    },
    {
      "elevation": 445,
      "mindate": "1987-08-01",
      "maxdate": "2004-12-31",
      "latitude": 48.6767,
      "name": "BOBLINGEN, GM",
      "datacoverage": 1,
      "id": "GHCND:GME00130678",
      "elevationUnit": "METERS",
      "longitude": 8.9742
    }
  ]
}
