{
  "metadata": {
    "resultset": {
      "offset": 50400,
      "count": 154115,
      "limit": 100
    }
  },
  "results": [
    {
      "elevation": 427,
      "mindate": "1961-05-01",
      "maxdate": "1972-11-21",
      "latitude": 45.3333,
      "name": "ALGONQUIN PARK WEST, CA",
      "datacoverage": 0.9638,
      "id": "GHCND:CA006080193",
      "elevationUnit": "METERS",
      "longitude": -78.85
    },
    {
      "elevation": 294,
      "mindate": "1916-05-01",
      "maxdate": "1962-05-31",
      "latitude": 46.9833,
      "name": "BEAR ISLAND, CA",
      "datacoverage": 0.8101,
      "id": "GHCND:CA006080577",
      "elevationUnit": "METERS",
      "longitude": -80.0833
    },
    {
      "elevation": 294,
      "mindate": "1918-05-01",
      "maxdate": "1933-04-30",
      "latitude": 46.15,
      "name": "BIG CHAUDIERE FALLS, CA",
      "datacoverage": 0.9994,
      "id": "GHCND:CA006080729",
      "elevationUnit": "METERS",
      "longitude": -80.0167
    },
    {
      "elevation": 265,
      "mindate": "1983-09-01",
      "maxdate": "1992-02-29",
      "latitude": 46.2167,
      "name": "BONFIELD, CA",
      "datacoverage": 0.9995,
      "id": "GHCND:CA006080HB6",
      "elevationUnit": "METERS",
      "longitude": -79.1333
    },
    {
      "elevation": 227,
      "mindate": "1922-05-01",
      "maxdate": "1988-01-31",
      "latitude": 46.45,
      "name": "CRYSTAL FALLS, CA",
      "datacoverage": 0.9796,
      "id": "GHCND:CA006081928",
      "elevationUnit": "METERS",
      "longitude": -79.8667
    },
    {
      "elevation": 235,
      "mindate": "2004-11-01",
      "maxdate": "2006-02-03",
      "latitude": 46.45,
      "name": "CRYSTAL FALLS, CA",
      "datacoverage": 1,
      "id": "GHCND:CA006081930",
      "elevationUnit": "METERS",
      "longitude": -79.9
    },
    {
      "elevation": 404,
      "mindate": "1973-01-01",
      "maxdate": "2005-12-31",
      "latitude": 45.3833,
      "name": "DWIGHT, CA",
      "datacoverage": 1,
      "id": "GHCND:CA006082178",
      "elevationUnit": "METERS",
      "longitude": -78.9
    },
    {
      "elevation": 198,
      "mindate": "1969-12-01",
      "maxdate": "2003-12-31",
      "latitude": 46.1333,
      "name": "FRENCH R CHAUDIERE DAM, CA",
      "datacoverage": 0.9976,
      "id": "GHCND:CA006082612",
      "elevationUnit": "METERS",
      "longitude": -80.0167
    },
    {
      "elevation": 172,
      "mindate": "1950-05-01",
      "maxdate": "1975-12-31",
      "latitude": 46.3667,
      "name": "LA CAVE, CA",
      "datacoverage": 0.9577,
      "id": "GHCND:CA006084278",
      "elevationUnit": "METERS",
      "longitude": -78.7333
    },
    {
      "elevation": 403,
      "mindate": "1962-05-01",
      "maxdate": "1989-08-31",
      "latitude": 45.6333,
      "name": "LAKE OPEONGO, CA",
      "datacoverage": 0.4433,
      "id": "GHCND:CA006084300",
      "elevationUnit": "METERS",
      "longitude": -78.3667
    },
    {
      "elevation": 236,
      "mindate": "1965-07-01",
      "maxdate": "1987-01-31",
      "latitude": 45.95,
      "name": "LAKE TRAVERSE, CA",
      "datacoverage": 0.9998,
      "id": "GHCND:CA006084307",
      "elevationUnit": "METERS",
      "longitude": -78.0667
    },
    {
      "elevation": 316,
      "mindate": "1915-08-01",
      "maxdate": "2000-11-30",
      "latitude": 45.5,
      "name": "MADAWASKA, CA",
      "datacoverage": 1,
      "id": "GHCND:CA006084770",
      "elevationUnit": "METERS",
      "longitude": -77.9833
    },
    {
      "elevation": 171,
      "mindate": "1882-07-01",
      "maxdate": "1899-09-30",
      "latitude": 46.25,
      "name": "MATTAWA, CA",
      "datacoverage": 0.8744,
      "id": "GHCND:CA006085023",
      "elevationUnit": "METERS",
      "longitude": -78.6833
    },
    {
      "elevation": 201,
      "mindate": "1887-12-01",
      "maxdate": "1982-02-28",
      "latitude": 46.3167,
      "name": "NORTH BAY, CA",
      "datacoverage": 0.7542,
      "id": "GHCND:CA006085682",
      "elevationUnit": "METERS",
      "longitude": -79.4667
    },
    {
      "elevation": 370,
      "mindate": "1939-01-01",
      "maxdate": "2025-03-06",
      "latitude": 46.3667,
      "name": "NORTH BAY A, CA",
      "datacoverage": 1,
      "id": "GHCND:CA006085700",
      "elevationUnit": "METERS",
      "longitude": -79.4167
    },
    {
      "elevation": 370,
      "mindate": "2013-01-01",
      "maxdate": "2014-05-28",
      "latitude": 46.3667,
      "name": "NORTH BAY A, CA",
      "datacoverage": 1,
      "id": "GHCND:CA006085701",
      "elevationUnit": "METERS",
      "longitude": -79.4167
    },
    {
      "elevation": 204,
      "mindate": "1994-12-01",
      "maxdate": "1998-03-31",
      "latitude": 46.3167,
      "name": "NORTH BAY NIPISSING AUT, CA",
      "datacoverage": 0.6002,
      "id": "GHCND:CA006085703",
      "elevationUnit": "METERS",
      "longitude": -79.4833
    },
    {
      "elevation": 198,
      "mindate": "1960-11-01",
      "maxdate": "1971-04-30",
      "latitude": 46.3,
      "name": "NORTH BAY OWRC, CA",
      "datacoverage": 0.937,
      "id": "GHCND:CA006085704",
      "elevationUnit": "METERS",
      "longitude": -79.4667
    },
    {
      "elevation": 270,
      "mindate": "1950-06-01",
      "maxdate": "1954-09-30",
      "latitude": 46.6833,
      "name": "RED CEDAR LAKE DAM, CA",
      "datacoverage": 1,
      "id": "GHCND:CA006086930",
      "elevationUnit": "METERS",
      "longitude": -80.0167
    },
    {
      "elevation": 241,
      "mindate": "1891-04-01",
      "maxdate": "1940-09-30",
      "latitude": 46.25,
      "name": "RUTHERGLEN, CA",
      "datacoverage": 0.9579,
      "id": "GHCND:CA006087255",
      "elevationUnit": "METERS",
      "longitude": -79.0667
    },
    {
      "elevation": 201,
      "mindate": "1883-12-01",
      "maxdate": "2002-12-31",
      "latitude": 46.3667,
      "name": "STURGEON FALLS, CA",
      "datacoverage": 0.2064,
      "id": "GHCND:CA006088144",
      "elevationUnit": "METERS",
      "longitude": -79.9333
    },
    {
      "elevation": 351,
      "mindate": "1966-08-01",
      "maxdate": "1973-10-31",
      "latitude": 47.0833,
      "name": "TIMAGAMI, CA",
      "datacoverage": 0.8388,
      "id": "GHCND:CA006088271",
      "elevationUnit": "METERS",
      "longitude": -79.85
    },
    {
      "elevation": 198,
      "mindate": "1981-05-01",
      "maxdate": "1985-03-31",
      "latitude": 46.3833,
      "name": "CACHE BAY, CA",
      "datacoverage": 0.9997,
      "id": "GHCND:CA00608A06G",
      "elevationUnit": "METERS",
      "longitude": -80.0167
    },
    {
      "elevation": 186,
      "mindate": "1897-10-01",
      "maxdate": "1910-03-31",
      "latitude": 45.95,
      "name": "COCKBURN ISLAND, CA",
      "datacoverage": 1,
      "id": "GHCND:CA006091718",
      "elevationUnit": "METERS",
      "longitude": -83.3
    },
    {
      "elevation": 191,
      "mindate": "1881-03-01",
      "maxdate": "1983-10-31",
      "latitude": 45.9167,
      "name": "GORE BAY, CA",
      "datacoverage": 0.8949,
      "id": "GHCND:CA006092915",
      "elevationUnit": "METERS",
      "longitude": -82.4667
    },
    {
      "elevation": 189,
      "mindate": "1977-07-01",
      "maxdate": "2024-04-28",
      "latitude": 45.8833,
      "name": "GORE BAY CLIMATE, CA",
      "datacoverage": 0.9758,
      "id": "GHCND:CA006092920",
      "elevationUnit": "METERS",
      "longitude": -82.5667
    },
    {
      "elevation": 194,
      "mindate": "1947-07-01",
      "maxdate": "2006-03-31",
      "latitude": 45.8833,
      "name": "GORE BAY A, CA",
      "datacoverage": 1,
      "id": "GHCND:CA006092925",
      "elevationUnit": "METERS",
      "longitude": -82.5667
    },
    {
      "elevation": 194,
      "mindate": "2005-01-01",
      "maxdate": "2011-07-06",
      "latitude": 45.8833,
      "name": "GORE BAY AWOS, CA",
      "datacoverage": 0.988,
      "id": "GHCND:CA006092930",
      "elevationUnit": "METERS",
      "longitude": -82.5667
    },
    {
      "elevation": 183,
      "mindate": "1966-08-01",
      "maxdate": "1985-11-27",
      "latitude": 45.65,
      "name": "GREAT DUCK ISLAND, CA",
      "datacoverage": 0.6982,
      "id": "GHCND:CA006093004",
      "elevationUnit": "METERS",
      "longitude": -82.9667
    },
    {
      "elevation": 183,
      "mindate": "1995-05-01",
      "maxdate": "2021-05-11",
      "latitude": 45.6333,
      "name": "GREAT DUCK ISLAND AUT, CA",
      "datacoverage": 0.7409,
      "id": "GHCND:CA006093005",
      "elevationUnit": "METERS",
      "longitude": -82.95
    },
    {
      "elevation": 180,
      "mindate": "1951-01-01",
      "maxdate": "1961-09-30",
      "latitude": 45.9167,
      "name": "KAGAWONG, CA",
      "datacoverage": 1,
      "id": "GHCND:CA006093900",
      "elevationUnit": "METERS",
      "longitude": -82.2667
    },
    {
      "elevation": 191,
      "mindate": "1986-06-01",
      "maxdate": "1989-12-31",
      "latitude": 45.9667,
      "name": "LITTLE CURRENT, CA",
      "datacoverage": 0.9991,
      "id": "GHCND:CA006094449",
      "elevationUnit": "METERS",
      "longitude": -81.9167
    },
    {
      "elevation": 188,
      "mindate": "1871-08-01",
      "maxdate": "1895-07-27",
      "latitude": 45.9333,
      "name": "LITTLE CURRENT, CA",
      "datacoverage": 0.6488,
      "id": "GHCND:CA006094450",
      "elevationUnit": "METERS",
      "longitude": -81.9
    },
    {
      "elevation": 192,
      "mindate": "1897-07-01",
      "maxdate": "1940-04-30",
      "latitude": 45.6667,
      "name": "PROVIDENCE BAY, CA",
      "datacoverage": 0.8113,
      "id": "GHCND:CA006096755",
      "elevationUnit": "METERS",
      "longitude": -82.2333
    },
    {
      "elevation": 231,
      "mindate": "1998-04-01",
      "maxdate": "2018-05-31",
      "latitude": 45.6833,
      "name": "SANDFIELD, CA",
      "datacoverage": 1,
      "id": "GHCND:CA006097426",
      "elevationUnit": "METERS",
      "longitude": -81.9833
    },
    {
      "elevation": 182,
      "mindate": "1954-08-01",
      "maxdate": "1993-09-30",
      "latitude": 45.5833,
      "name": "SOUTH BAYMOUTH, CA",
      "datacoverage": 0.9957,
      "id": "GHCND:CA006097915",
      "elevationUnit": "METERS",
      "longitude": -82.0167
    },
    {
      "elevation": 77,
      "mindate": "2003-10-01",
      "maxdate": "2006-05-23",
      "latitude": 45.3167,
      "name": "ALEXANDRIA, CA",
      "datacoverage": 1,
      "id": "GHCND:CA006100166",
      "elevationUnit": "METERS",
      "longitude": -74.6167
    },
    {
      "elevation": 54,
      "mindate": "1984-09-01",
      "maxdate": "1986-03-31",
      "latitude": 45.55,
      "name": "ALFRED, CA",
      "datacoverage": 0.8968,
      "id": "GHCND:CA006100172",
      "elevationUnit": "METERS",
      "longitude": -74.8833
    },
    {
      "elevation": 54,
      "mindate": "1989-01-01",
      "maxdate": "1989-10-31",
      "latitude": 45.55,
      "name": "ALFRED AUTOMATIC CLIMATE STATI, CA",
      "datacoverage": 0.4005,
      "id": "GHCND:CA006100174",
      "elevationUnit": "METERS",
      "longitude": -74.8833
    },
    {
      "elevation": 57,
      "mindate": "2003-10-01",
      "maxdate": "2007-06-13",
      "latitude": 45.55,
      "name": "ALFRED, CA",
      "datacoverage": 1,
      "id": "GHCND:CA006100176",
      "elevationUnit": "METERS",
      "longitude": -74.8833
    },
    {
      "elevation": 125,
      "mindate": "1912-02-01",
      "maxdate": "1980-02-29",
      "latitude": 45.1833,
      "name": "ALMONTE, CA",
      "datacoverage": 0.4137,
      "id": "GHCND:CA006100226",
      "elevationUnit": "METERS",
      "longitude": -76.2333
    },
    {
      "elevation": 91,
      "mindate": "1950-11-01",
      "maxdate": "1961-11-30",
      "latitude": 45.2167,
      "name": "APPLE HILL, CA",
      "datacoverage": 0.9324,
      "id": "GHCND:CA006100284",
      "elevationUnit": "METERS",
      "longitude": -74.75
    },
    {
      "elevation": 133,
      "mindate": "1992-03-01",
      "maxdate": "2024-04-01",
      "latitude": 45.1833,
      "name": "APPLETON, CA",
      "datacoverage": 0.9964,
      "id": "GHCND:CA006100285",
      "elevationUnit": "METERS",
      "longitude": -76.1167
    },
    {
      "elevation": 133,
      "mindate": "1895-08-01",
      "maxdate": "1911-01-31",
      "latitude": 44.7,
      "name": "ARDEN, CA",
      "datacoverage": 0.9999,
      "id": "GHCND:CA006100310",
      "elevationUnit": "METERS",
      "longitude": -76.95
    },
    {
      "elevation": 99,
      "mindate": "1959-09-01",
      "maxdate": "1964-01-30",
      "latitude": 45.4333,
      "name": "ARNPRIOR, CA",
      "datacoverage": 0.9618,
      "id": "GHCND:CA006100340",
      "elevationUnit": "METERS",
      "longitude": -76.3833
    },
    {
      "elevation": 107,
      "mindate": "1959-10-01",
      "maxdate": "1999-09-30",
      "latitude": 45.4167,
      "name": "ARNPRIOR GRANDON, CA",
      "datacoverage": 0.975,
      "id": "GHCND:CA006100345",
      "elevationUnit": "METERS",
      "longitude": -76.3667
    },
    {
      "elevation": 137,
      "mindate": "1959-08-01",
      "maxdate": "1973-12-31",
      "latitude": 45.1667,
      "name": "ASHTON STATION SESIA FARM, CA",
      "datacoverage": 0.9766,
      "id": "GHCND:CA006100363",
      "elevationUnit": "METERS",
      "longitude": -76.0667
    },
    {
      "elevation": 122,
      "mindate": "1969-06-01",
      "maxdate": "1978-01-31",
      "latitude": 44.65,
      "name": "ATHENS, CA",
      "datacoverage": 0.9995,
      "id": "GHCND:CA006100375",
      "elevationUnit": "METERS",
      "longitude": -75.9167
    },
    {
      "elevation": 91,
      "mindate": "1976-05-01",
      "maxdate": "2006-06-30",
      "latitude": 45.1667,
      "name": "AVONMORE, CA",
      "datacoverage": 0.9973,
      "id": "GHCND:CA006100398",
      "elevationUnit": "METERS",
      "longitude": -74.9667
    },
    {
      "elevation": 335,
      "mindate": "1950-01-01",
      "maxdate": "1971-10-31",
      "latitude": 45.4167,
      "name": "BARK LAKE DAM, CA",
      "datacoverage": 0.9924,
      "id": "GHCND:CA006100493",
      "elevationUnit": "METERS",
      "longitude": -77.8
    },
    {
      "elevation": 160,
      "mindate": "1950-05-01",
      "maxdate": "1968-10-31",
      "latitude": 45.25,
      "name": "BARRETT CHUTE, CA",
      "datacoverage": 0.9998,
      "id": "GHCND:CA006100521",
      "elevationUnit": "METERS",
      "longitude": -76.7667
    },
    {
      "elevation": 290,
      "mindate": "1976-10-01",
      "maxdate": "1982-09-30",
      "latitude": 45.4333,
      "name": "BARRY S BAY, CA",
      "datacoverage": 1,
      "id": "GHCND:CA006100558",
      "elevationUnit": "METERS",
      "longitude": -77.6667
    },
    {
      "elevation": 146,
      "mindate": "1957-05-01",
      "maxdate": "1978-08-31",
      "latitude": 44.4833,
      "name": "BELLROCK, CA",
      "datacoverage": 0.9882,
      "id": "GHCND:CA006100720",
      "elevationUnit": "METERS",
      "longitude": -76.7667
    },
    {
      "elevation": 66,
      "mindate": "1950-11-01",
      "maxdate": "1951-05-31",
      "latitude": 45.4667,
      "name": "BOURGET, CA",
      "datacoverage": 0.8614,
      "id": "GHCND:CA006100828",
      "elevationUnit": "METERS",
      "longitude": -75.1667
    },
    {
      "elevation": 91,
      "mindate": "1871-10-01",
      "maxdate": "1980-08-31",
      "latitude": 44.6,
      "name": "BROCKVILLE, CA",
      "datacoverage": 0.6802,
      "id": "GHCND:CA006100969",
      "elevationUnit": "METERS",
      "longitude": -75.7
    },
    {
      "elevation": 120,
      "mindate": "2008-11-01",
      "maxdate": "2024-04-28",
      "latitude": 44.6333,
      "name": "BROCKVILLE CLIMATE, CA",
      "datacoverage": 1,
      "id": "GHCND:CA006100970",
      "elevationUnit": "METERS",
      "longitude": -75.75
    },
    {
      "elevation": 96,
      "mindate": "1965-08-01",
      "maxdate": "2023-02-01",
      "latitude": 44.6,
      "name": "BROCKVILLE PCC, CA",
      "datacoverage": 0.9985,
      "id": "GHCND:CA006100971",
      "elevationUnit": "METERS",
      "longitude": -75.6667
    },
    {
      "elevation": 155,
      "mindate": "1950-01-01",
      "maxdate": "1956-03-31",
      "latitude": 45.25,
      "name": "CALABOGIE, CA",
      "datacoverage": 1,
      "id": "GHCND:CA006101077",
      "elevationUnit": "METERS",
      "longitude": -76.7333
    },
    {
      "elevation": 52,
      "mindate": "1970-10-01",
      "maxdate": "2000-10-31",
      "latitude": 44.8,
      "name": "CARDINAL, CA",
      "datacoverage": 0.2437,
      "id": "GHCND:CA006101200",
      "elevationUnit": "METERS",
      "longitude": -75.3667
    },
    {
      "elevation": 137,
      "mindate": "1948-08-01",
      "maxdate": "1976-02-29",
      "latitude": 45.15,
      "name": "CARLETON PLACE, CA",
      "datacoverage": 0.9548,
      "id": "GHCND:CA006101249",
      "elevationUnit": "METERS",
      "longitude": -76.1667
    },
    {
      "elevation": 145,
      "mindate": "1984-04-01",
      "maxdate": "1999-02-28",
      "latitude": 45.15,
      "name": "CARLETON PLACE, CA",
      "datacoverage": 0.9835,
      "id": "GHCND:CA006101250",
      "elevationUnit": "METERS",
      "longitude": -76.2
    },
    {
      "elevation": 114,
      "mindate": "1960-05-01",
      "maxdate": "1975-03-31",
      "latitude": 45.3,
      "name": "CARP, CA",
      "datacoverage": 0.8771,
      "id": "GHCND:CA006101260",
      "elevationUnit": "METERS",
      "longitude": -75.9833
    },
    {
      "elevation": 145,
      "mindate": "1960-08-01",
      "maxdate": "1995-04-30",
      "latitude": 44.3667,
      "name": "CATARAQUI TS, CA",
      "datacoverage": 0.9929,
      "id": "GHCND:CA006101265",
      "elevationUnit": "METERS",
      "longitude": -76.6167
    },
    {
      "elevation": 122,
      "mindate": "1960-11-01",
      "maxdate": "2024-04-14",
      "latitude": 46.05,
      "name": "CHALK RIVER AECL, CA",
      "datacoverage": 0.9594,
      "id": "GHCND:CA006101335",
      "elevationUnit": "METERS",
      "longitude": -77.3667
    },
    {
      "elevation": 94,
      "mindate": "1950-06-01",
      "maxdate": "1992-06-30",
      "latitude": 45.4667,
      "name": "CHATS FALLS, CA",
      "datacoverage": 0.9762,
      "id": "GHCND:CA006101440",
      "elevationUnit": "METERS",
      "longitude": -76.2333
    },
    {
      "elevation": 84,
      "mindate": "1950-06-01",
      "maxdate": "1990-12-31",
      "latitude": 45.5833,
      "name": "CHENAUX, CA",
      "datacoverage": 0.9917,
      "id": "GHCND:CA006101494",
      "elevationUnit": "METERS",
      "longitude": -76.6833
    },
    {
      "elevation": 70,
      "mindate": "1965-12-01",
      "maxdate": "1983-06-30",
      "latitude": 45.1,
      "name": "CHESTERVILLE, CA",
      "datacoverage": 0.9812,
      "id": "GHCND:CA006101500",
      "elevationUnit": "METERS",
      "longitude": -75.2333
    },
    {
      "elevation": 85,
      "mindate": "1983-09-01",
      "maxdate": "1997-10-31",
      "latitude": 45.0167,
      "name": "CHESTERVILLE 2, CA",
      "datacoverage": 0.9999,
      "id": "GHCND:CA006101502",
      "elevationUnit": "METERS",
      "longitude": -75.2
    },
    {
      "elevation": 88,
      "mindate": "1953-10-01",
      "maxdate": "1960-01-31",
      "latitude": 45.35,
      "name": "CITY VIEW, CA",
      "datacoverage": 0.9999,
      "id": "GHCND:CA006101521",
      "elevationUnit": "METERS",
      "longitude": -75.7333
    },
    {
      "elevation": 107,
      "mindate": "1961-07-01",
      "maxdate": "1994-09-30",
      "latitude": 45.4167,
      "name": "CLAYBANK, CA",
      "datacoverage": 0.9799,
      "id": "GHCND:CA006101555",
      "elevationUnit": "METERS",
      "longitude": -76.4
    },
    {
      "elevation": 245,
      "mindate": "1882-06-01",
      "maxdate": "1957-12-31",
      "latitude": 45.3833,
      "name": "CLONTARF, CA",
      "datacoverage": 0.903,
      "id": "GHCND:CA006101658",
      "elevationUnit": "METERS",
      "longitude": -77.15
    },
    {
      "elevation": 140,
      "mindate": "1983-05-01",
      "maxdate": "1986-11-30",
      "latitude": 45.6333,
      "name": "COBDEN ONTARIO HYDRO, CA",
      "datacoverage": 0.8829,
      "id": "GHCND:CA006101675",
      "elevationUnit": "METERS",
      "longitude": -76.8667
    },
    {
      "elevation": 287,
      "mindate": "1956-01-01",
      "maxdate": "2006-12-31",
      "latitude": 45.3667,
      "name": "COMBERMERE, CA",
      "datacoverage": 0.9559,
      "id": "GHCND:CA006101820",
      "elevationUnit": "METERS",
      "longitude": -77.6167
    },
    {
      "elevation": 53,
      "mindate": "1867-01-01",
      "maxdate": "1887-12-31",
      "latitude": 45.0167,
      "name": "CORNWALL, CA",
      "datacoverage": 0.8651,
      "id": "GHCND:CA006101872",
      "elevationUnit": "METERS",
      "longitude": -74.7333
    },
    {
      "elevation": 59,
      "mindate": "1948-04-01",
      "maxdate": "1950-05-31",
      "latitude": 45.0333,
      "name": "CORNWALL, CA",
      "datacoverage": 0.962,
      "id": "GHCND:CA006101873",
      "elevationUnit": "METERS",
      "longitude": -74.7
    },
    {
      "elevation": 64,
      "mindate": "1950-11-01",
      "maxdate": "2024-04-28",
      "latitude": 45.0167,
      "name": "CORNWALL, CA",
      "datacoverage": 0.9975,
      "id": "GHCND:CA006101874",
      "elevationUnit": "METERS",
      "longitude": -74.75
    },
    {
      "elevation": 58,
      "mindate": "2003-10-01",
      "maxdate": "2007-06-13",
      "latitude": 45.0333,
      "name": "CORNWALL, CA",
      "datacoverage": 1,
      "id": "GHCND:CA006101875",
      "elevationUnit": "METERS",
      "longitude": -74.6833
    },
    {
      "elevation": 55,
      "mindate": "1959-10-01",
      "maxdate": "1963-08-31",
      "latitude": 45.0333,
      "name": "CORNWALL COLLEGE, CA",
      "datacoverage": 0.9784,
      "id": "GHCND:CA006101880",
      "elevationUnit": "METERS",
      "longitude": -74.7167
    },
    {
      "elevation": 59,
      "mindate": "1960-05-01",
      "maxdate": "1966-07-31",
      "latitude": 45.05,
      "name": "CORNWALL CUMBERLAND ST, CA",
      "datacoverage": 0.7599,
      "id": "GHCND:CA006101885",
      "elevationUnit": "METERS",
      "longitude": -74.75
    },
    {
      "elevation": 76,
      "mindate": "1954-12-01",
      "maxdate": "1995-03-31",
      "latitude": 45.0333,
      "name": "CORNWALL ONT HYDRO, CA",
      "datacoverage": 0.9711,
      "id": "GHCND:CA006101901",
      "elevationUnit": "METERS",
      "longitude": -74.8
    },
    {
      "elevation": 53,
      "mindate": "1958-01-01",
      "maxdate": "1963-11-30",
      "latitude": 45.0333,
      "name": "CORNWALL ST LHS, CA",
      "datacoverage": 0.5637,
      "id": "GHCND:CA006101909",
      "elevationUnit": "METERS",
      "longitude": -74.7167
    },
    {
      "elevation": 174,
      "mindate": "1972-07-01",
      "maxdate": "1991-07-31",
      "latitude": 44.7333,
      "name": "CROW LAKE, CA",
      "datacoverage": 0.9957,
      "id": "GHCND:CA006101920",
      "elevationUnit": "METERS",
      "longitude": -76.6
    },
    {
      "elevation": 91,
      "mindate": "1973-08-01",
      "maxdate": "1980-02-29",
      "latitude": 45.5,
      "name": "CUMBERLAND, CA",
      "datacoverage": 1,
      "id": "GHCND:CA006101935",
      "elevationUnit": "METERS",
      "longitude": -75.45
    },
    {
      "elevation": 221,
      "mindate": "1926-05-01",
      "maxdate": "1936-08-31",
      "latitude": 45.3833,
      "name": "DACRE, CA",
      "datacoverage": 0.4595,
      "id": "GHCND:CA006101943",
      "elevationUnit": "METERS",
      "longitude": -76.9167
    },
    {
      "elevation": 160,
      "mindate": "1923-09-01",
      "maxdate": "1983-06-30",
      "latitude": 44.9667,
      "name": "DALHOUSIE L HIGH FALLS, CA",
      "datacoverage": 0.9792,
      "id": "GHCND:CA006101955",
      "elevationUnit": "METERS",
      "longitude": -76.6167
    },
    {
      "elevation": 69,
      "mindate": "1968-04-01",
      "maxdate": "2004-10-31",
      "latitude": 45.3167,
      "name": "DALHOUSIE MILLS, CA",
      "datacoverage": 0.9908,
      "id": "GHCND:CA006101958",
      "elevationUnit": "METERS",
      "longitude": -74.4667
    },
    {
      "elevation": 67,
      "mindate": "1961-06-01",
      "maxdate": "1978-08-31",
      "latitude": 45.4333,
      "name": "DALKEITH, CA",
      "datacoverage": 0.9661,
      "id": "GHCND:CA006101960",
      "elevationUnit": "METERS",
      "longitude": -74.6167
    },
    {
      "elevation": 76,
      "mindate": "1978-08-01",
      "maxdate": "1987-04-30",
      "latitude": 45.4333,
      "name": "DALKEITH PYM, CA",
      "datacoverage": 1,
      "id": "GHCND:CA006101962",
      "elevationUnit": "METERS",
      "longitude": -74.5833
    },
    {
      "elevation": 98,
      "mindate": "1969-06-01",
      "maxdate": "1994-11-30",
      "latitude": 44.6167,
      "name": "DELTA, CA",
      "datacoverage": 0.9771,
      "id": "GHCND:CA006101986",
      "elevationUnit": "METERS",
      "longitude": -76.1333
    },
    {
      "elevation": 130,
      "mindate": "1950-05-01",
      "maxdate": "1977-11-30",
      "latitude": 46.1833,
      "name": "DES JOACHIMS, CA",
      "datacoverage": 0.9938,
      "id": "GHCND:CA006102009",
      "elevationUnit": "METERS",
      "longitude": -77.7
    },
    {
      "elevation": 115,
      "mindate": "1948-02-01",
      "maxdate": "1954-08-31",
      "latitude": 44.7833,
      "name": "DOMVILLE, CA",
      "datacoverage": 0.9995,
      "id": "GHCND:CA006102054",
      "elevationUnit": "METERS",
      "longitude": -75.5333
    },
    {
      "elevation": 66,
      "mindate": "1990-11-01",
      "maxdate": "1991-05-31",
      "latitude": 45.4333,
      "name": "DUNROBIN, CA",
      "datacoverage": 1,
      "id": "GHCND:CA006102150",
      "elevationUnit": "METERS",
      "longitude": -76.0333
    },
    {
      "elevation": 69,
      "mindate": "1947-10-01",
      "maxdate": "1949-08-31",
      "latitude": 45.3333,
      "name": "DUNVEGAN, CA",
      "datacoverage": 0.9552,
      "id": "GHCND:CA006102153",
      "elevationUnit": "METERS",
      "longitude": -74.7833
    },
    {
      "elevation": 165,
      "mindate": "1956-01-01",
      "maxdate": "1956-05-31",
      "latitude": 45.55,
      "name": "EGANVILLE, CA",
      "datacoverage": 1,
      "id": "GHCND:CA006102250",
      "elevationUnit": "METERS",
      "longitude": -77.1
    },
    {
      "elevation": 185,
      "mindate": "2004-10-01",
      "maxdate": "2006-03-31",
      "latitude": 45.55,
      "name": "EGANVILLE 2, CA",
      "datacoverage": 1,
      "id": "GHCND:CA006102252",
      "elevationUnit": "METERS",
      "longitude": -77.1
    },
    {
      "elevation": 74,
      "mindate": "1870-04-01",
      "maxdate": "1906-10-31",
      "latitude": 45.4667,
      "name": "FITZROY HARBOUR, CA",
      "datacoverage": 0.8565,
      "id": "GHCND:CA006102417",
      "elevationUnit": "METERS",
      "longitude": -76.2167
    },
    {
      "elevation": 65,
      "mindate": "1957-05-01",
      "maxdate": "1959-02-28",
      "latitude": 45.4333,
      "name": "FOURNIER, CA",
      "datacoverage": 0.9099,
      "id": "GHCND:CA006102516",
      "elevationUnit": "METERS",
      "longitude": -74.9
    },
    {
      "elevation": 427,
      "mindate": "1956-04-01",
      "maxdate": "1974-05-31",
      "latitude": 45.3333,
      "name": "FOYMOUNT, CA",
      "datacoverage": 0.7773,
      "id": "GHCND:CA006102531",
      "elevationUnit": "METERS",
      "longitude": -77.3
    },
    {
      "elevation": 114,
      "mindate": "1972-05-01",
      "maxdate": "1999-01-31",
      "latitude": 44.3333,
      "name": "GLENBURNIE, CA",
      "datacoverage": 0.9999,
      "id": "GHCND:CA006102808",
      "elevationUnit": "METERS",
      "longitude": -76.5
    },
    {
      "elevation": 53,
      "mindate": "1967-12-01",
      "maxdate": "1999-09-30",
      "latitude": 45.1667,
      "name": "GLEN GORDON, CA",
      "datacoverage": 0.9993,
      "id": "GHCND:CA006102832",
      "elevationUnit": "METERS",
      "longitude": -74.5333
    }
  ]
}
