{
  "metadata": {
    "resultset": {
      "offset": 152700,
      "count": 154115,
      "limit": 100
    }
  },
  "results": [
    {
      "elevation": 1.8,
      "mindate": "1948-01-01",
      "maxdate": "2025-03-08",
      "latitude": 41.259,
      "name": "NEW HAVEN TWEED AIRPORT, CT US",
      "datacoverage": 0.8,
      "id": "WBAN:14758",
      "elevationUnit": "METERS",
      "longitude": -72.88911
    },
    {
      "elevation": 591.9,
      "mindate": "1948-01-01",
      "maxdate": "1986-08-27",
      "latitude": 40.9,
      "name": "PHILIPSBURG MID STATE AIRPORT, PA US",
      "datacoverage": 0.62,
      "id": "WBAN:14761",
      "elevationUnit": "METERS",
      "longitude": -78.08333
    },
    {
      "elevation": 379.2,
      "mindate": "1945-01-01",
      "maxdate": "2025-03-08",
      "latitude": 40.3551,
      "name": "PITTSBURGH ALLEGHENY CO AIRPORT, PA US",
      "datacoverage": 0.87,
      "id": "WBAN:14762",
      "elevationUnit": "METERS",
      "longitude": -79.92145
    },
    {
      "elevation": 351.2,
      "mindate": "1948-01-01",
      "maxdate": "2025-03-08",
      "latitude": 42.42686,
      "name": "PITTSFIELD MUNICIPAL AIRPORT, MA US",
      "datacoverage": 0.44,
      "id": "WBAN:14763",
      "elevationUnit": "METERS",
      "longitude": -73.28907
    },
    {
      "elevation": 13.5,
      "mindate": "1948-01-01",
      "maxdate": "2025-03-08",
      "latitude": 43.64244,
      "name": "PORTLAND JETPORT, ME US",
      "datacoverage": 1,
      "id": "WBAN:14764",
      "elevationUnit": "METERS",
      "longitude": -70.30443
    },
    {
      "elevation": 15.4,
      "mindate": "1942-08-01",
      "maxdate": "2025-03-08",
      "latitude": 41.72252,
      "name": "RHODE ISLAND T.F. GREEN INTERNATIONAL AIRPORT, RI US",
      "datacoverage": 1,
      "id": "WBAN:14765",
      "elevationUnit": "METERS",
      "longitude": -71.43248
    },
    {
      "elevation": 164.5,
      "mindate": "1948-01-01",
      "maxdate": "2025-03-08",
      "latitude": 43.11723,
      "name": "FREDERICK DOUGLASS GREATER ROCHESTER INTERNATIONAL AIRPORT, NY US",
      "datacoverage": 1,
      "id": "WBAN:14768",
      "elevationUnit": "METERS",
      "longitude": -77.67539
    },
    {
      "elevation": 135.3,
      "mindate": "1949-02-01",
      "maxdate": "2025-03-08",
      "latitude": 40.81929,
      "name": "SELINSGROVE PENN VALLEY AIRPORT, PA US",
      "datacoverage": 0.5,
      "id": "WBAN:14770",
      "elevationUnit": "METERS",
      "longitude": -76.86581
    },
    {
      "elevation": 124.9,
      "mindate": "1942-10-01",
      "maxdate": "2025-03-08",
      "latitude": 43.1111,
      "name": "SYRACUSE HANCOCK INTERNATIONAL AIRPORT, NY US",
      "datacoverage": 1,
      "id": "WBAN:14771",
      "elevationUnit": "METERS",
      "longitude": -76.10384
    },
    {
      "elevation": 80.6,
      "mindate": "1949-01-01",
      "maxdate": "2025-03-08",
      "latitude": 42.16005,
      "name": "WESTFIELD BARNES REGIONAL AIRPORT, MA US",
      "datacoverage": 0.73,
      "id": "WBAN:14775",
      "elevationUnit": "METERS",
      "longitude": -72.71246
    },
    {
      "elevation": 289.9,
      "mindate": "1949-01-01",
      "maxdate": "2025-03-08",
      "latitude": 41.33349,
      "name": "WILKES BARRE SCRANTON INTERNATIONAL AIRPORT, PA US",
      "datacoverage": 1,
      "id": "WBAN:14777",
      "elevationUnit": "METERS",
      "longitude": -75.72273
    },
    {
      "elevation": 159.8,
      "mindate": "1948-07-01",
      "maxdate": "2025-03-08",
      "latitude": 41.24295,
      "name": "WILLIAMSPORT REGIONAL AIRPORT, PA US",
      "datacoverage": 1,
      "id": "WBAN:14778",
      "elevationUnit": "METERS",
      "longitude": -76.92173
    },
    {
      "elevation": 34.1,
      "mindate": "1945-02-01",
      "maxdate": "2025-03-08",
      "latitude": 40.03333,
      "name": "LAKEHURST NAS, NJ US",
      "datacoverage": 0.77,
      "id": "WBAN:14780",
      "elevationUnit": "METERS",
      "longitude": -74.35
    },
    {
      "elevation": 45.1,
      "mindate": "2005-01-01",
      "maxdate": "2025-03-08",
      "latitude": 41.52991,
      "name": "NEWPORT STATE AIRPORT, RI US",
      "datacoverage": 1,
      "id": "WBAN:14787",
      "elevationUnit": "METERS",
      "longitude": -71.28331
    },
    {
      "elevation": 49.1,
      "mindate": "1946-04-01",
      "maxdate": "1996-10-01",
      "latitude": 42.15,
      "name": "SOUTH WEYMOUTH NAS, MA US",
      "datacoverage": 0.83,
      "id": "WBAN:14790",
      "elevationUnit": "METERS",
      "longitude": -70.93333
    },
    {
      "elevation": 57.9,
      "mindate": "1945-02-20",
      "maxdate": "2025-03-08",
      "latitude": 40.27681,
      "name": "TRENTON MERCER AIRPORT, NJ US",
      "datacoverage": 0.68,
      "id": "WBAN:14792",
      "elevationUnit": "METERS",
      "longitude": -74.81587
    },
    {
      "elevation": 110,
      "mindate": "1945-02-01",
      "maxdate": "2011-04-12",
      "latitude": 40.2,
      "name": "WILLOW GROVE NAS, PA US",
      "datacoverage": 0.88,
      "id": "WBAN:14793",
      "elevationUnit": "METERS",
      "longitude": -75.15
    },
    {
      "elevation": 19.8,
      "mindate": "2005-01-01",
      "maxdate": "2025-03-08",
      "latitude": 41.35092,
      "name": "WESTERLY STATE AIRPORT, RI US",
      "datacoverage": 1,
      "id": "WBAN:14794",
      "elevationUnit": "METERS",
      "longitude": -71.80555
    },
    {
      "elevation": 176.8,
      "mindate": "1936-12-01",
      "maxdate": "2025-03-08",
      "latitude": 42.6083,
      "name": "MOUNT CLEMENS ANG BASE, MI US",
      "datacoverage": 1,
      "id": "WBAN:14804",
      "elevationUnit": "METERS",
      "longitude": -82.8183
    },
    {
      "elevation": 192.9,
      "mindate": "1943-07-01",
      "maxdate": "2025-03-08",
      "latitude": 44.45,
      "name": "OSCODA WURTSMITH AIRPORT, MI US",
      "datacoverage": 1,
      "id": "WBAN:14808",
      "elevationUnit": "METERS",
      "longitude": -83.4
    },
    {
      "elevation": 318.1,
      "mindate": "1948-01-01",
      "maxdate": "2025-03-08",
      "latitude": 41.03732,
      "name": "AKRON FULTON INTERNATIONAL AIRPORT, OH US",
      "datacoverage": 0.42,
      "id": "WBAN:14813",
      "elevationUnit": "METERS",
      "longitude": -81.46341
    },
    {
      "elevation": 282.5,
      "mindate": "1942-10-01",
      "maxdate": "2025-03-08",
      "latitude": 42.31192,
      "name": "BATTLE CREEK KELLOGG AIRPORT, MI US",
      "datacoverage": 0.8,
      "id": "WBAN:14815",
      "elevationUnit": "METERS",
      "longitude": -85.24147
    },
    {
      "elevation": 397.8,
      "mindate": "1948-12-01",
      "maxdate": "2025-03-08",
      "latitude": 44.28333,
      "name": "CADILLAC WEXFORD CO AIRPORT, MI US",
      "datacoverage": 1,
      "id": "WBAN:14817",
      "elevationUnit": "METERS",
      "longitude": -85.41667
    },
    {
      "elevation": 185.8,
      "mindate": "1948-01-01",
      "maxdate": "2025-03-08",
      "latitude": 41.78412,
      "name": "CHICAGO MIDWAY AIRPORT, IL US",
      "datacoverage": 1,
      "id": "WBAN:14819",
      "elevationUnit": "METERS",
      "longitude": -87.75514
    },
    {
      "elevation": 236.8,
      "mindate": "1948-01-01",
      "maxdate": "2025-03-08",
      "latitude": 41.40568,
      "name": "CLEVELAND HOPKINS INTERNATIONAL AIRPORT, OH US",
      "datacoverage": 1,
      "id": "WBAN:14820",
      "elevationUnit": "METERS",
      "longitude": -81.85191
    },
    {
      "elevation": 246.8,
      "mindate": "1945-04-01",
      "maxdate": "2025-03-08",
      "latitude": 39.99068,
      "name": "JOHN GLENN INTERNATIONAL AIRPORT, OH US",
      "datacoverage": 1,
      "id": "WBAN:14821",
      "elevationUnit": "METERS",
      "longitude": -82.87703
    },
    {
      "elevation": 189.8,
      "mindate": "1948-01-01",
      "maxdate": "2025-03-08",
      "latitude": 42.40725,
      "name": "DETROIT CITY AIRPORT, MI US",
      "datacoverage": 1,
      "id": "WBAN:14822",
      "elevationUnit": "METERS",
      "longitude": -83.00899
    },
    {
      "elevation": 246.5,
      "mindate": "1948-12-01",
      "maxdate": "2025-03-08",
      "latitude": 41.01369,
      "name": "FINDLAY AIRPORT, OH US",
      "datacoverage": 0.94,
      "id": "WBAN:14825",
      "elevationUnit": "METERS",
      "longitude": -83.66814
    },
    {
      "elevation": 234.8,
      "mindate": "1948-12-01",
      "maxdate": "2025-03-07",
      "latitude": 42.96684,
      "name": "FLINT FCWOS, MI US",
      "datacoverage": 1,
      "id": "WBAN:14826",
      "elevationUnit": "METERS",
      "longitude": -83.74996
    },
    {
      "elevation": 243,
      "mindate": "1941-11-01",
      "maxdate": "2025-03-08",
      "latitude": 40.97248,
      "name": "FORT WAYNE INTERNATIONAL AIRPORT, IN US",
      "datacoverage": 1,
      "id": "WBAN:14827",
      "elevationUnit": "METERS",
      "longitude": -85.20636
    },
    {
      "elevation": 251.2,
      "mindate": "1948-12-01",
      "maxdate": "2025-03-08",
      "latitude": 41.52651,
      "name": "GOSHEN MUNICIPAL AIRPORT, IN US",
      "datacoverage": 0.51,
      "id": "WBAN:14829",
      "elevationUnit": "METERS",
      "longitude": -85.78721
    },
    {
      "elevation": 295.9,
      "mindate": "1949-01-01",
      "maxdate": "2025-03-08",
      "latitude": 42.26373,
      "name": "JACKSON REYNOLDS FIELD, MI US",
      "datacoverage": 0.93,
      "id": "WBAN:14833",
      "elevationUnit": "METERS",
      "longitude": -84.45644
    },
    {
      "elevation": 181.1,
      "mindate": "1946-01-01",
      "maxdate": "2025-03-08",
      "latitude": 41.5,
      "name": "JOLIET, IL US",
      "datacoverage": 0.88,
      "id": "WBAN:14834",
      "elevationUnit": "METERS",
      "longitude": -88.16667
    },
    {
      "elevation": 181.7,
      "mindate": "1948-12-01",
      "maxdate": "2025-03-08",
      "latitude": 40.41236,
      "name": "LAFAYETTE PURDUE UNIVERSITY AIRPORT, IN US",
      "datacoverage": 1,
      "id": "WBAN:14835",
      "elevationUnit": "METERS",
      "longitude": -86.94739
    },
    {
      "elevation": 261.2,
      "mindate": "1948-01-01",
      "maxdate": "2025-03-08",
      "latitude": 42.77609,
      "name": "LANSING CAPITAL CITY AIRPORT, MI US",
      "datacoverage": 1,
      "id": "WBAN:14836",
      "elevationUnit": "METERS",
      "longitude": -84.59972
    },
    {
      "elevation": 261.7,
      "mindate": "1948-01-01",
      "maxdate": "2025-03-08",
      "latitude": 43.14069,
      "name": "MADISON DANE CO REGIONAL AIRPORT, WI US",
      "datacoverage": 1,
      "id": "WBAN:14837",
      "elevationUnit": "METERS",
      "longitude": -89.34521
    },
    {
      "elevation": 203.3,
      "mindate": "1948-01-01",
      "maxdate": "2025-03-08",
      "latitude": 42.95489,
      "name": "MILWAUKEE MITCHELL AIRPORT, WI US",
      "datacoverage": 1,
      "id": "WBAN:14839",
      "elevationUnit": "METERS",
      "longitude": -87.9045
    },
    {
      "elevation": 190.3,
      "mindate": "1948-01-01",
      "maxdate": "2025-03-08",
      "latitude": 43.17111,
      "name": "MUSKEGON CO AIRPORT, MI US",
      "datacoverage": 1,
      "id": "WBAN:14840",
      "elevationUnit": "METERS",
      "longitude": -86.23685
    },
    {
      "elevation": 215.3,
      "mindate": "1948-01-01",
      "maxdate": "2025-03-08",
      "latitude": 45.5644,
      "name": "PELLSTON REGIONAL AIRPORT, MI US",
      "datacoverage": 1,
      "id": "WBAN:14841",
      "elevationUnit": "METERS",
      "longitude": -84.79291
    },
    {
      "elevation": 199.7,
      "mindate": "1948-01-01",
      "maxdate": "2025-03-08",
      "latitude": 40.66747,
      "name": "GENERAL WAYNE A. DOWNING INTERNATIONAL AIRPORT, IL US",
      "datacoverage": 1,
      "id": "WBAN:14842",
      "elevationUnit": "METERS",
      "longitude": -89.68418
    },
    {
      "elevation": 201.7,
      "mindate": "1948-12-01",
      "maxdate": "2025-03-08",
      "latitude": 43.52808,
      "name": "SAGINAW MBS INTERNATIONAL AIRPORT, MI US",
      "datacoverage": 1,
      "id": "WBAN:14845",
      "elevationUnit": "METERS",
      "longitude": -84.08133
    },
    {
      "elevation": 219.8,
      "mindate": "1948-01-01",
      "maxdate": "2025-03-08",
      "latitude": 46.47998,
      "name": "SAULT STE MARIE SANDERSON FIELD, MI US",
      "datacoverage": 1,
      "id": "WBAN:14847",
      "elevationUnit": "METERS",
      "longitude": -84.35809
    },
    {
      "elevation": 235.4,
      "mindate": "1948-01-01",
      "maxdate": "2025-03-08",
      "latitude": 41.70722,
      "name": "SOUTH BEND AIRPORT, IN US",
      "datacoverage": 1,
      "id": "WBAN:14848",
      "elevationUnit": "METERS",
      "longitude": -86.31628
    },
    {
      "elevation": 185.2,
      "mindate": "1948-12-01",
      "maxdate": "2025-03-08",
      "latitude": 44.73895,
      "name": "TRAVERSE CITY CHERRY CAPITAL AIRPORT, MI US",
      "datacoverage": 1,
      "id": "WBAN:14850",
      "elevationUnit": "METERS",
      "longitude": -85.5679
    },
    {
      "elevation": 355.6,
      "mindate": "1948-01-01",
      "maxdate": "2025-03-08",
      "latitude": 41.25478,
      "name": "YOUNGSTOWN WARREN REGIONAL AIRPORT, OH US",
      "datacoverage": 1,
      "id": "WBAN:14852",
      "elevationUnit": "METERS",
      "longitude": -80.67361
    },
    {
      "elevation": 215.7,
      "mindate": "1948-01-01",
      "maxdate": "2025-03-08",
      "latitude": 42.23666,
      "name": "DETROIT WILLOW RUN AIRPORT, MI US",
      "datacoverage": 1,
      "id": "WBAN:14853",
      "elevationUnit": "METERS",
      "longitude": -83.52638
    },
    {
      "elevation": 196.9,
      "mindate": "1945-03-15",
      "maxdate": "2022-12-13",
      "latitude": 42.08333,
      "name": "GLENVIEW NAS, IL US",
      "datacoverage": 0.64,
      "id": "WBAN:14855",
      "elevationUnit": "METERS",
      "longitude": -87.83333
    },
    {
      "elevation": 323.9,
      "mindate": "1948-01-01",
      "maxdate": "2025-03-08",
      "latitude": 47.16594,
      "name": "HANCOCK HOUGHTON CO AIRPORT, MI US",
      "datacoverage": 1,
      "id": "WBAN:14858",
      "elevationUnit": "METERS",
      "longitude": -88.48076
    },
    {
      "elevation": 222.2,
      "mindate": "1948-01-01",
      "maxdate": "2025-03-08",
      "latitude": 42.08026,
      "name": "ERIE INTERNATIONAL AIRPORT, PA US",
      "datacoverage": 1,
      "id": "WBAN:14860",
      "elevationUnit": "METERS",
      "longitude": -80.18236
    },
    {
      "elevation": 282.9,
      "mindate": "2005-01-01",
      "maxdate": "2025-03-08",
      "latitude": 43.71667,
      "name": "BIG RAPIDS ROBEN HOOD AIRPORT, MI US",
      "datacoverage": 1,
      "id": "WBAN:14864",
      "elevationUnit": "METERS",
      "longitude": -85.5
    },
    {
      "elevation": 216.5,
      "mindate": "2005-01-01",
      "maxdate": "2025-03-08",
      "latitude": 42.42546,
      "name": "CHICAGO WAUKEGAN REGIONAL AIRPORT, IL US",
      "datacoverage": 1,
      "id": "WBAN:14880",
      "elevationUnit": "METERS",
      "longitude": -87.8634
    },
    {
      "elevation": 519.4,
      "mindate": "2006-01-01",
      "maxdate": "2025-03-08",
      "latitude": 46.15,
      "name": "KINGS LAND O LAKES AIRPORT, WI US",
      "datacoverage": 1,
      "id": "WBAN:14886",
      "elevationUnit": "METERS",
      "longitude": -89.21667
    },
    {
      "elevation": 392.8,
      "mindate": "1948-12-01",
      "maxdate": "2025-03-08",
      "latitude": 40.8204,
      "name": "MANSFIELD LAHM REGIONAL AIRPORT, OH US",
      "datacoverage": 1,
      "id": "WBAN:14891",
      "elevationUnit": "METERS",
      "longitude": -82.51769
    },
    {
      "elevation": 364.3,
      "mindate": "1949-02-01",
      "maxdate": "2025-03-08",
      "latitude": 40.16994,
      "name": "WHEELING OHIO CO AIRPORT, WV US",
      "datacoverage": 0.81,
      "id": "WBAN:14894",
      "elevationUnit": "METERS",
      "longitude": -80.64406
    },
    {
      "elevation": 368.8,
      "mindate": "1948-07-01",
      "maxdate": "2025-03-08",
      "latitude": 40.91811,
      "name": "AKRON CANTON AIRPORT, OH US",
      "datacoverage": 1,
      "id": "WBAN:14895",
      "elevationUnit": "METERS",
      "longitude": -81.44342
    },
    {
      "elevation": 366,
      "mindate": "1949-11-11",
      "maxdate": "2025-03-08",
      "latitude": 44.927497,
      "name": "WAUSAU ASOS, WI US",
      "datacoverage": 1,
      "id": "WBAN:14897",
      "elevationUnit": "METERS",
      "longitude": -89.625279
    },
    {
      "elevation": 208.6,
      "mindate": "1949-09-01",
      "maxdate": "2025-03-08",
      "latitude": 44.47958,
      "name": "GREEN BAY A S INTERNATIONAL AIRPORT, WI US",
      "datacoverage": 1,
      "id": "WBAN:14898",
      "elevationUnit": "METERS",
      "longitude": -88.1371
    },
    {
      "elevation": 649.2,
      "mindate": "2005-01-01",
      "maxdate": "2025-03-08",
      "latitude": 40.73333,
      "name": "KEARNEY MUNICIPAL AIRPORT, NE US",
      "datacoverage": 1,
      "id": "WBAN:14905",
      "elevationUnit": "METERS",
      "longitude": -99
    },
    {
      "elevation": 432.8,
      "mindate": "1948-12-01",
      "maxdate": "2025-03-08",
      "latitude": 45.86801,
      "name": "ALEXANDRIA CHANDLER FIELD, MN US",
      "datacoverage": 0.99,
      "id": "WBAN:14910",
      "elevationUnit": "METERS",
      "longitude": -95.39399
    },
    {
      "elevation": 433.4,
      "mindate": "1948-01-01",
      "maxdate": "2025-03-08",
      "latitude": 46.8436,
      "name": "DULUTH INTERNATIONAL AIRPORT, MN US",
      "datacoverage": 1,
      "id": "WBAN:14913",
      "elevationUnit": "METERS",
      "longitude": -92.18658
    },
    {
      "elevation": 272.8,
      "mindate": "1948-01-01",
      "maxdate": "2025-03-08",
      "latitude": 46.92424,
      "name": "FARGO HECTOR INTERNATIONAL AIRPORT, ND US",
      "datacoverage": 1,
      "id": "WBAN:14914",
      "elevationUnit": "METERS",
      "longitude": -96.81186
    },
    {
      "elevation": 255.5,
      "mindate": "1948-12-01",
      "maxdate": "2025-03-08",
      "latitude": 47.94281,
      "name": "GRAND FORKS INTERNATIONAL AIRPORT, ND US",
      "datacoverage": 1,
      "id": "WBAN:14916",
      "elevationUnit": "METERS",
      "longitude": -97.18294
    },
    {
      "elevation": 352.6,
      "mindate": "1948-01-01",
      "maxdate": "2025-03-08",
      "latitude": 48.55943,
      "name": "INTERNATIONAL FALLS INTERNATIONAL AIRPORT, MN US",
      "datacoverage": 1,
      "id": "WBAN:14918",
      "elevationUnit": "METERS",
      "longitude": -93.39554
    },
    {
      "elevation": 455.7,
      "mindate": "1948-12-01",
      "maxdate": "2025-03-08",
      "latitude": 46.92586,
      "name": "JAMESTOWN MUNICIPAL AIRPORT, ND US",
      "datacoverage": 0.91,
      "id": "WBAN:14919",
      "elevationUnit": "METERS",
      "longitude": -98.67037
    },
    {
      "elevation": 198.2,
      "mindate": "1948-01-01",
      "maxdate": "2025-03-08",
      "latitude": 43.87922,
      "name": "LA CROSSE REGIONAL AIRPORT, WI US",
      "datacoverage": 1,
      "id": "WBAN:14920",
      "elevationUnit": "METERS",
      "longitude": -91.25301
    },
    {
      "elevation": 218,
      "mindate": "1948-12-01",
      "maxdate": "2025-03-08",
      "latitude": 43.21106,
      "name": "LONE ROCK TRI CO AIRPORT, WI US",
      "datacoverage": 0.68,
      "id": "WBAN:14921",
      "elevationUnit": "METERS",
      "longitude": -90.18739
    },
    {
      "elevation": 254.5,
      "mindate": "1945-01-01",
      "maxdate": "2025-03-08",
      "latitude": 44.88523,
      "name": "MINNEAPOLIS ST. PAUL INTERNATIONAL AIRPORT, MN US",
      "datacoverage": 1,
      "id": "WBAN:14922",
      "elevationUnit": "METERS",
      "longitude": -93.23133
    },
    {
      "elevation": 175.5,
      "mindate": "1948-02-09",
      "maxdate": "2025-03-08",
      "latitude": 41.44816,
      "name": "MOLINE QUAD CITY INTERNATIONAL AIRPORT, IL US",
      "datacoverage": 1,
      "id": "WBAN:14923",
      "elevationUnit": "METERS",
      "longitude": -90.52365
    },
    {
      "elevation": 397.9,
      "mindate": "1948-01-01",
      "maxdate": "2025-03-08",
      "latitude": 43.904,
      "name": "ROCHESTER INTERNATIONAL AIRPORT, MN US",
      "datacoverage": 1,
      "id": "WBAN:14925",
      "elevationUnit": "METERS",
      "longitude": -92.49207
    },
    {
      "elevation": 310.2,
      "mindate": "1948-01-01",
      "maxdate": "2025-03-08",
      "latitude": 45.54416,
      "name": "ST. CLOUD REGIONAL AIRPORT, MN US",
      "datacoverage": 1,
      "id": "WBAN:14926",
      "elevationUnit": "METERS",
      "longitude": -94.0516
    },
    {
      "elevation": 213.3,
      "mindate": "1948-01-01",
      "maxdate": "2025-03-08",
      "latitude": 44.93234,
      "name": "ST. PAUL DOWNTOWN AIRPORT, MN US",
      "datacoverage": 0.65,
      "id": "WBAN:14927",
      "elevationUnit": "METERS",
      "longitude": -93.05586
    },
    {
      "elevation": 345,
      "mindate": "1948-12-01",
      "maxdate": "2009-05-14",
      "latitude": 45.11667,
      "name": "WILLMAR, MN US",
      "datacoverage": 0.3,
      "id": "WBAN:14928",
      "elevationUnit": "METERS",
      "longitude": -95.08333
    },
    {
      "elevation": 395.6,
      "mindate": "1948-01-01",
      "maxdate": "2025-03-08",
      "latitude": 45.44358,
      "name": "ABERDEEN REGIONAL AIRPORT, SD US",
      "datacoverage": 1,
      "id": "WBAN:14929",
      "elevationUnit": "METERS",
      "longitude": -98.41384
    },
    {
      "elevation": 360.3,
      "mindate": "2005-01-01",
      "maxdate": "2025-03-08",
      "latitude": 41.40722,
      "name": "ATLANTIC MUNICIPAL AIRPORT, IA US",
      "datacoverage": 1,
      "id": "WBAN:14930",
      "elevationUnit": "METERS",
      "longitude": -95.04667
    },
    {
      "elevation": 208.2,
      "mindate": "1948-01-01",
      "maxdate": "2025-03-08",
      "latitude": 40.77291,
      "name": "BURLINGTON MUNICIPAL AIRPORT, IA US",
      "datacoverage": 1,
      "id": "WBAN:14931",
      "elevationUnit": "METERS",
      "longitude": -91.12546
    },
    {
      "elevation": 286.3,
      "mindate": "1945-01-01",
      "maxdate": "2025-03-08",
      "latitude": 41.53395,
      "name": "DES MOINES INTERNATIONAL AIRPORT, IA US",
      "datacoverage": 1,
      "id": "WBAN:14933",
      "elevationUnit": "METERS",
      "longitude": -93.65313
    },
    {
      "elevation": 561.7,
      "mindate": "1944-03-01",
      "maxdate": "2025-03-08",
      "latitude": 40.96146,
      "name": "GRAND ISLAND CENTRAL NE REGIONAL AIRPORT, NE US",
      "datacoverage": 1,
      "id": "WBAN:14935",
      "elevationUnit": "METERS",
      "longitude": -98.31304
    },
    {
      "elevation": 390.7,
      "mindate": "1940-01-01",
      "maxdate": "2025-03-08",
      "latitude": 44.37916,
      "name": "HURON REGIONAL AIRPORT, SD US",
      "datacoverage": 1,
      "id": "WBAN:14936",
      "elevationUnit": "METERS",
      "longitude": -98.22275
    },
    {
      "elevation": 198.7,
      "mindate": "1949-01-01",
      "maxdate": "2025-03-08",
      "latitude": 41.6394,
      "name": "IOWA CITY MUNICIPAL AIRPORT, IA US",
      "datacoverage": 0.45,
      "id": "WBAN:14937",
      "elevationUnit": "METERS",
      "longitude": -91.54455
    },
    {
      "elevation": 291.4,
      "mindate": "1948-01-01",
      "maxdate": "2025-03-08",
      "latitude": 40.09661,
      "name": "KIRKSVILLE REGIONAL AIRPORT, MO US",
      "datacoverage": 0.75,
      "id": "WBAN:14938",
      "elevationUnit": "METERS",
      "longitude": -92.54696
    },
    {
      "elevation": 356.7,
      "mindate": "1942-10-01",
      "maxdate": "2025-03-08",
      "latitude": 40.84781,
      "name": "LINCOLN AIRPORT, NE US",
      "datacoverage": 1,
      "id": "WBAN:14939",
      "elevationUnit": "METERS",
      "longitude": -96.76467
    },
    {
      "elevation": 362.1,
      "mindate": "1948-01-01",
      "maxdate": "2025-03-08",
      "latitude": 43.1544,
      "name": "MASON CITY MUNICIPAL AIRPORT, IA US",
      "datacoverage": 1,
      "id": "WBAN:14940",
      "elevationUnit": "METERS",
      "longitude": -93.32611
    },
    {
      "elevation": 476.2,
      "mindate": "1948-01-01",
      "maxdate": "2025-03-08",
      "latitude": 41.97988,
      "name": "NORFOLK KARL STEFAN MEMORIAL AIRPORT, NE US",
      "datacoverage": 1,
      "id": "WBAN:14941",
      "elevationUnit": "METERS",
      "longitude": -97.4335
    },
    {
      "elevation": 298.8,
      "mindate": "1948-01-01",
      "maxdate": "2025-03-08",
      "latitude": 41.31186,
      "name": "OMAHA EPPLEY AIRFIELD, NE US",
      "datacoverage": 1,
      "id": "WBAN:14942",
      "elevationUnit": "METERS",
      "longitude": -95.90186
    },
    {
      "elevation": 332.8,
      "mindate": "1942-10-01",
      "maxdate": "2025-03-08",
      "latitude": 42.39169,
      "name": "SIOUX CITY AIRPORT, IA US",
      "datacoverage": 1,
      "id": "WBAN:14943",
      "elevationUnit": "METERS",
      "longitude": -96.37948
    },
    {
      "elevation": 432.4,
      "mindate": "1942-10-01",
      "maxdate": "2025-03-08",
      "latitude": 43.57751,
      "name": "SIOUX FALLS FOSS FIELD, SD US",
      "datacoverage": 1,
      "id": "WBAN:14944",
      "elevationUnit": "METERS",
      "longitude": -96.75387
    },
    {
      "elevation": 530.6,
      "mindate": "1948-01-01",
      "maxdate": "2025-03-08",
      "latitude": 44.90452,
      "name": "WATERTOWN REGIONAL AIRPORT, SD US",
      "datacoverage": 0.96,
      "id": "WBAN:14946",
      "elevationUnit": "METERS",
      "longitude": -97.14957
    },
    {
      "elevation": 319.1,
      "mindate": "1948-01-12",
      "maxdate": "2025-03-08",
      "latitude": 41.11667,
      "name": "BELLEVUE OFFUTT AFB, NE US",
      "datacoverage": 1,
      "id": "WBAN:14949",
      "elevationUnit": "METERS",
      "longitude": -95.91667
    },
    {
      "elevation": 254.3,
      "mindate": "1948-01-01",
      "maxdate": "2025-03-08",
      "latitude": 41.10079,
      "name": "OTTUMWA INDUSTRIAL AIRPORT, IA US",
      "datacoverage": 0.97,
      "id": "WBAN:14950",
      "elevationUnit": "METERS",
      "longitude": -92.44453
    },
    {
      "elevation": 311.2,
      "mindate": "2005-01-01",
      "maxdate": "2025-03-08",
      "latitude": 44.21667,
      "name": "MANKATO MUNICIPAL AIRPORT, MN US",
      "datacoverage": 1,
      "id": "WBAN:14954",
      "elevationUnit": "METERS",
      "longitude": -93.91667
    },
    {
      "elevation": 424.3,
      "mindate": "2005-01-01",
      "maxdate": "2025-03-08",
      "latitude": 47.5,
      "name": "BEMIDJI MUNICIPAL AIRPORT, MN US",
      "datacoverage": 1,
      "id": "WBAN:14958",
      "elevationUnit": "METERS",
      "longitude": -94.93333
    },
    {
      "elevation": 342.9,
      "mindate": "2005-01-01",
      "maxdate": "2025-03-08",
      "latitude": 43.072504,
      "name": "NORTHEAST IOWA REGIONAL AIRPORT, IA US",
      "datacoverage": 1,
      "id": "WBAN:14966",
      "elevationUnit": "METERS",
      "longitude": -92.610809
    },
    {
      "elevation": 407.5,
      "mindate": "2005-01-01",
      "maxdate": "2025-03-08",
      "latitude": 43.16822,
      "name": "SPENCER MUNICIPAL AIRPORT, IA US",
      "datacoverage": 1,
      "id": "WBAN:14972",
      "elevationUnit": "METERS",
      "longitude": -95.21011
    },
    {
      "elevation": 307.2,
      "mindate": "2006-08-31",
      "maxdate": "2025-03-08",
      "latitude": 41.70916,
      "name": "GRINNELL, IA US",
      "datacoverage": 1,
      "id": "WBAN:14976",
      "elevationUnit": "METERS",
      "longitude": -92.73491
    },
    {
      "elevation": 507.2,
      "mindate": "2005-01-01",
      "maxdate": "2025-03-08",
      "latitude": 40.89417,
      "name": "YORK, NE US",
      "datacoverage": 1,
      "id": "WBAN:14989",
      "elevationUnit": "METERS",
      "longitude": -97.62583
    },
    {
      "elevation": 256,
      "mindate": "1973-01-01",
      "maxdate": "2025-03-08",
      "latitude": 41.882917,
      "name": "CEDAR RAPIDS MUNICIPAL AIRPORT, IA US",
      "datacoverage": 1,
      "id": "WBAN:14990",
      "elevationUnit": "METERS",
      "longitude": -91.724591
    },
    {
      "elevation": 269.4,
      "mindate": "1949-10-01",
      "maxdate": "2025-03-08",
      "latitude": 44.86654,
      "name": "CHIPPEWA VALLEY REGIONAL AIRPORT, WI US",
      "datacoverage": 1,
      "id": "WBAN:14991",
      "elevationUnit": "METERS",
      "longitude": -91.48809
    },
    {
      "elevation": 312.7,
      "mindate": "2000-01-01",
      "maxdate": "2025-03-08",
      "latitude": 44.54827,
      "name": "REDWOOD FALLS MUNICIPAL AIRPORT, MN US",
      "datacoverage": 1,
      "id": "WBAN:14992",
      "elevationUnit": "METERS",
      "longitude": -95.08042
    },
    {
      "elevation": 733,
      "mindate": "1951-01-01",
      "maxdate": "2025-03-08",
      "latitude": 40.78861,
      "name": "LEXINGTON JIM KELLY FIELD, NE US",
      "datacoverage": 0.86,
      "id": "WBAN:14994",
      "elevationUnit": "METERS",
      "longitude": -99.77083
    },
    {
      "elevation": 52.1,
      "mindate": "1942-10-01",
      "maxdate": "2025-03-07",
      "latitude": 63.96667,
      "name": "KEFLAVIK, IC",
      "datacoverage": 1,
      "id": "WBAN:16201",
      "elevationUnit": "METERS",
      "longitude": -22.6
    }
  ]
}
