{
  "metadata": {
    "resultset": {
      "offset": 61300,
      "count": 154115,
      "limit": 100
    }
  },
  "results": [
    {
      "elevation": 200,
      "mindate": "1901-01-01",
      "maxdate": "1968-12-31",
      "latitude": 25.47,
      "name": "ALLAHABAD CHAILK, IN",
      "datacoverage": 0.9694,
      "id": "GHCND:IN023031000",
      "elevationUnit": "METERS",
      "longitude": 81.83
    },
    {
      "elevation": 93,
      "mindate": "1901-01-01",
      "maxdate": "1968-12-31",
      "latitude": 25.55,
      "name": "PHULPUR, IN",
      "datacoverage": 0.9706,
      "id": "GHCND:IN023031500",
      "elevationUnit": "METERS",
      "longitude": 82.08
    },
    {
      "elevation": 1638,
      "mindate": "1901-01-01",
      "maxdate": "1968-12-31",
      "latitude": 29.33,
      "name": "CHAMPAWAT, IN",
      "datacoverage": 0.9412,
      "id": "GHCND:IN023040300",
      "elevationUnit": "METERS",
      "longitude": 80.08
    },
    {
      "elevation": 1585,
      "mindate": "1901-01-01",
      "maxdate": "1968-12-31",
      "latitude": 29.6,
      "name": "ALMORA, IN",
      "datacoverage": 0.9559,
      "id": "GHCND:IN023040900",
      "elevationUnit": "METERS",
      "longitude": 79.67
    },
    {
      "elevation": 1951,
      "mindate": "1901-01-01",
      "maxdate": "1968-12-31",
      "latitude": 29.63,
      "name": "RANIKHET, IN",
      "datacoverage": 0.9547,
      "id": "GHCND:IN023041000",
      "elevationUnit": "METERS",
      "longitude": 79.43
    },
    {
      "elevation": 1981,
      "mindate": "1951-01-01",
      "maxdate": "1964-06-30",
      "latitude": 29.75,
      "name": "KAUSANI, IN",
      "datacoverage": 0.9817,
      "id": "GHCND:IN023041100",
      "elevationUnit": "METERS",
      "longitude": 79.75
    },
    {
      "elevation": 76,
      "mindate": "1901-01-01",
      "maxdate": "1968-12-31",
      "latitude": 26.08,
      "name": "MAHUL PNULPUR, IN",
      "datacoverage": 0.9645,
      "id": "GHCND:IN023050400",
      "elevationUnit": "METERS",
      "longitude": 82.87
    },
    {
      "elevation": 76,
      "mindate": "1901-01-01",
      "maxdate": "1968-12-31",
      "latitude": 26.05,
      "name": "AZAMGARH, IN",
      "datacoverage": 0.9387,
      "id": "GHCND:IN023050700",
      "elevationUnit": "METERS",
      "longitude": 83.18
    },
    {
      "elevation": 75,
      "mindate": "1901-01-01",
      "maxdate": "1968-12-31",
      "latitude": 26.15,
      "name": "JIWANPUR SAGRI, IN",
      "datacoverage": 0.9657,
      "id": "GHCND:IN023050800",
      "elevationUnit": "METERS",
      "longitude": 83.33
    },
    {
      "elevation": 75,
      "mindate": "1901-01-01",
      "maxdate": "1968-12-31",
      "latitude": 26.03,
      "name": "MUHAMMADPUR, IN",
      "datacoverage": 0.9645,
      "id": "GHCND:IN023050900",
      "elevationUnit": "METERS",
      "longitude": 83.38
    },
    {
      "elevation": 72,
      "mindate": "1905-02-01",
      "maxdate": "1968-12-31",
      "latitude": 26.1,
      "name": "GHOSI, IN",
      "datacoverage": 0.9622,
      "id": "GHCND:IN023051000",
      "elevationUnit": "METERS",
      "longitude": 83.53
    },
    {
      "elevation": 81,
      "mindate": "1901-01-01",
      "maxdate": "1968-12-31",
      "latitude": 25.73,
      "name": "DEOGAON LALGANJ, IN",
      "datacoverage": 0.9645,
      "id": "GHCND:IN023051201",
      "elevationUnit": "METERS",
      "longitude": 82.98
    },
    {
      "elevation": 118,
      "mindate": "1901-01-01",
      "maxdate": "1968-12-31",
      "latitude": 27.25,
      "name": "KAISERGANJ, IN",
      "datacoverage": 0.9657,
      "id": "GHCND:IN023060400",
      "elevationUnit": "METERS",
      "longitude": 81.55
    },
    {
      "elevation": 133,
      "mindate": "1901-01-01",
      "maxdate": "1970-12-31",
      "latitude": 27.87,
      "name": "NANPARA, IN",
      "datacoverage": 0.9607,
      "id": "GHCND:IN023060500",
      "elevationUnit": "METERS",
      "longitude": 81.5
    },
    {
      "elevation": 124,
      "mindate": "1901-01-01",
      "maxdate": "2025-03-06",
      "latitude": 27.567,
      "name": "BAHRAICH, IN",
      "datacoverage": 0.6349,
      "id": "GHCND:IN023060800",
      "elevationUnit": "METERS",
      "longitude": 81.6
    },
    {
      "elevation": 59,
      "mindate": "1901-01-01",
      "maxdate": "1968-12-31",
      "latitude": 25.73,
      "name": "BALLIA, IN",
      "datacoverage": 0.9596,
      "id": "GHCND:IN023071500",
      "elevationUnit": "METERS",
      "longitude": 84.17
    },
    {
      "elevation": 64,
      "mindate": "1901-01-01",
      "maxdate": "1968-12-30",
      "latitude": 25.87,
      "name": "RASRA, IN",
      "datacoverage": 0.9473,
      "id": "GHCND:IN023071501",
      "elevationUnit": "METERS",
      "longitude": 83.85
    },
    {
      "elevation": 29,
      "mindate": "1901-01-01",
      "maxdate": "1968-12-31",
      "latitude": 25.88,
      "name": "BANSDIH, IN",
      "datacoverage": 0.9387,
      "id": "GHCND:IN023071600",
      "elevationUnit": "METERS",
      "longitude": 84.23
    },
    {
      "elevation": 64,
      "mindate": "1956-08-01",
      "maxdate": "1970-12-31",
      "latitude": 25.75,
      "name": "BALLIA OBSERVATORY, IN",
      "datacoverage": 0.9994,
      "id": "GHCND:IN023071800",
      "elevationUnit": "METERS",
      "longitude": 84.17
    },
    {
      "elevation": 61,
      "mindate": "1937-06-01",
      "maxdate": "1968-12-31",
      "latitude": 26.05,
      "name": "SIKANDERPUR, IN",
      "datacoverage": 0.7677,
      "id": "GHCND:IN023071900",
      "elevationUnit": "METERS",
      "longitude": 84.05
    },
    {
      "elevation": 128,
      "mindate": "1901-01-01",
      "maxdate": "1968-12-31",
      "latitude": 25.48,
      "name": "BANDA, IN",
      "datacoverage": 0.9706,
      "id": "GHCND:IN023080500",
      "elevationUnit": "METERS",
      "longitude": 80.35
    },
    {
      "elevation": 119,
      "mindate": "1901-01-01",
      "maxdate": "1968-12-31",
      "latitude": 25.75,
      "name": "PAILANI, IN",
      "datacoverage": 0.951,
      "id": "GHCND:IN023080600",
      "elevationUnit": "METERS",
      "longitude": 80.43
    },
    {
      "elevation": 149,
      "mindate": "1901-01-01",
      "maxdate": "1967-12-31",
      "latitude": 25.3,
      "name": "GIRWAN NARAINI, IN",
      "datacoverage": 0.9702,
      "id": "GHCND:IN023080700",
      "elevationUnit": "METERS",
      "longitude": 80.4
    },
    {
      "elevation": 94,
      "mindate": "1901-01-01",
      "maxdate": "1968-12-31",
      "latitude": 25.27,
      "name": "MAU, IN",
      "datacoverage": 0.9706,
      "id": "GHCND:IN023080701",
      "elevationUnit": "METERS",
      "longitude": 81.38
    },
    {
      "elevation": 114,
      "mindate": "1901-01-01",
      "maxdate": "1968-12-31",
      "latitude": 25.55,
      "name": "BEBERU, IN",
      "datacoverage": 0.9706,
      "id": "GHCND:IN023080800",
      "elevationUnit": "METERS",
      "longitude": 80.72
    },
    {
      "elevation": 232,
      "mindate": "1907-01-01",
      "maxdate": "1968-12-31",
      "latitude": 25.03,
      "name": "MANIKPUR, IN",
      "datacoverage": 0.9422,
      "id": "GHCND:IN023080801",
      "elevationUnit": "METERS",
      "longitude": 81.12
    },
    {
      "elevation": 131,
      "mindate": "1901-01-01",
      "maxdate": "1968-12-31",
      "latitude": 25.23,
      "name": "BADAUSA, IN",
      "datacoverage": 0.9669,
      "id": "GHCND:IN023080900",
      "elevationUnit": "METERS",
      "longitude": 80.65
    },
    {
      "elevation": 110,
      "mindate": "1901-01-01",
      "maxdate": "1968-12-31",
      "latitude": 25.52,
      "name": "KAMASIN, IN",
      "datacoverage": 0.9645,
      "id": "GHCND:IN023081000",
      "elevationUnit": "METERS",
      "longitude": 80.92
    },
    {
      "elevation": 130,
      "mindate": "1901-01-01",
      "maxdate": "1968-12-31",
      "latitude": 25.2,
      "name": "KARWI, IN",
      "datacoverage": 0.9706,
      "id": "GHCND:IN023081100",
      "elevationUnit": "METERS",
      "longitude": 80.92
    },
    {
      "elevation": 121,
      "mindate": "1949-06-01",
      "maxdate": "1970-12-31",
      "latitude": 25.47,
      "name": "BANDA OBSERVATORY, IN",
      "datacoverage": 0.9999,
      "id": "GHCND:IN023081300",
      "elevationUnit": "METERS",
      "longitude": 80.37
    },
    {
      "elevation": 125,
      "mindate": "1901-01-01",
      "maxdate": "1967-12-31",
      "latitude": 27.17,
      "name": "FATEHPUR, IN",
      "datacoverage": 0.9702,
      "id": "GHCND:IN023090600",
      "elevationUnit": "METERS",
      "longitude": 81.22
    },
    {
      "elevation": 107,
      "mindate": "1901-01-01",
      "maxdate": "1962-12-31",
      "latitude": 26.9,
      "name": "NAWABGANJ, IN",
      "datacoverage": 0.9839,
      "id": "GHCND:IN023090900",
      "elevationUnit": "METERS",
      "longitude": 81.2
    },
    {
      "elevation": 106,
      "mindate": "1901-01-01",
      "maxdate": "1967-12-31",
      "latitude": 26.8,
      "name": "SANEHIGHAT, IN",
      "datacoverage": 0.9702,
      "id": "GHCND:IN023091000",
      "elevationUnit": "METERS",
      "longitude": 81.53
    },
    {
      "elevation": 117,
      "mindate": "1901-01-01",
      "maxdate": "1967-12-31",
      "latitude": 26.6,
      "name": "HAIDARGARH, IN",
      "datacoverage": 0.9702,
      "id": "GHCND:IN023091100",
      "elevationUnit": "METERS",
      "longitude": 81.37
    },
    {
      "elevation": 180,
      "mindate": "1901-01-01",
      "maxdate": "1967-12-31",
      "latitude": 28.37,
      "name": "BAREILLY SADAR, IN",
      "datacoverage": 0.9378,
      "id": "GHCND:IN023100100",
      "elevationUnit": "METERS",
      "longitude": 79.43
    },
    {
      "elevation": 177,
      "mindate": "1901-01-01",
      "maxdate": "1967-12-31",
      "latitude": 28.55,
      "name": "NAWABGANJ, IN",
      "datacoverage": 0.9839,
      "id": "GHCND:IN023100200",
      "elevationUnit": "METERS",
      "longitude": 79.63
    },
    {
      "elevation": 173,
      "mindate": "1901-01-01",
      "maxdate": "1967-12-31",
      "latitude": 28.28,
      "name": "AONLA, IN",
      "datacoverage": 0.9378,
      "id": "GHCND:IN023100300",
      "elevationUnit": "METERS",
      "longitude": 79.13
    },
    {
      "elevation": 175,
      "mindate": "1901-01-01",
      "maxdate": "1967-12-31",
      "latitude": 28.22,
      "name": "FARIDPUR, IN",
      "datacoverage": 0.9378,
      "id": "GHCND:IN023100400",
      "elevationUnit": "METERS",
      "longitude": 79.55
    },
    {
      "elevation": 182,
      "mindate": "1901-01-01",
      "maxdate": "1967-12-31",
      "latitude": 28.17,
      "name": "PANDHERA, IN",
      "datacoverage": 0.9801,
      "id": "GHCND:IN023100500",
      "elevationUnit": "METERS",
      "longitude": 79.5
    },
    {
      "elevation": 209,
      "mindate": "1901-01-01",
      "maxdate": "1967-12-31",
      "latitude": 28.78,
      "name": "DEBIABHOJ DIYABH, IN",
      "datacoverage": 0.9839,
      "id": "GHCND:IN023100600",
      "elevationUnit": "METERS",
      "longitude": 79.67
    },
    {
      "elevation": 184,
      "mindate": "1901-01-01",
      "maxdate": "1967-12-31",
      "latitude": 28.7,
      "name": "KUNDHRA, IN",
      "datacoverage": 0.9839,
      "id": "GHCND:IN023100700",
      "elevationUnit": "METERS",
      "longitude": 79.67
    },
    {
      "elevation": 191,
      "mindate": "1901-01-01",
      "maxdate": "1967-12-31",
      "latitude": 28.78,
      "name": "BAHERI, IN",
      "datacoverage": 0.9366,
      "id": "GHCND:IN023100800",
      "elevationUnit": "METERS",
      "longitude": 79.5
    },
    {
      "elevation": 169,
      "mindate": "1901-01-01",
      "maxdate": "2025-03-06",
      "latitude": 28.367,
      "name": "BAREILLY, IN",
      "datacoverage": 0.8887,
      "id": "GHCND:IN023101700",
      "elevationUnit": "METERS",
      "longitude": 79.4
    },
    {
      "elevation": 90,
      "mindate": "1901-01-01",
      "maxdate": "1968-12-31",
      "latitude": 27.22,
      "name": "DOMERIAGANJ SR, IN",
      "datacoverage": 0.9706,
      "id": "GHCND:IN023110100",
      "elevationUnit": "METERS",
      "longitude": 82.67
    },
    {
      "elevation": 87,
      "mindate": "1901-01-01",
      "maxdate": "1968-12-31",
      "latitude": 26.78,
      "name": "BASTI, IN",
      "datacoverage": 0.9706,
      "id": "GHCND:IN023110200",
      "elevationUnit": "METERS",
      "longitude": 82.72
    },
    {
      "elevation": 90,
      "mindate": "1901-01-01",
      "maxdate": "1968-12-31",
      "latitude": 27.17,
      "name": "BANSI, IN",
      "datacoverage": 0.9706,
      "id": "GHCND:IN023110201",
      "elevationUnit": "METERS",
      "longitude": 82.93
    },
    {
      "elevation": 91,
      "mindate": "1901-01-01",
      "maxdate": "1968-12-31",
      "latitude": 26.8,
      "name": "HARAIYA, IN",
      "datacoverage": 0.9706,
      "id": "GHCND:IN023110300",
      "elevationUnit": "METERS",
      "longitude": 82.47
    },
    {
      "elevation": 79,
      "mindate": "1901-01-01",
      "maxdate": "1968-12-31",
      "latitude": 26.78,
      "name": "KHALILABAD, IN",
      "datacoverage": 0.9706,
      "id": "GHCND:IN023110600",
      "elevationUnit": "METERS",
      "longitude": 83.07
    },
    {
      "elevation": 268,
      "mindate": "1901-01-01",
      "maxdate": "1968-12-31",
      "latitude": 29.37,
      "name": "BIJNOR, IN",
      "datacoverage": 0.9706,
      "id": "GHCND:IN023120200",
      "elevationUnit": "METERS",
      "longitude": 78.13
    },
    {
      "elevation": 250,
      "mindate": "1901-01-01",
      "maxdate": "1968-12-31",
      "latitude": 29.45,
      "name": "NAGINA, IN",
      "datacoverage": 0.9706,
      "id": "GHCND:IN023120300",
      "elevationUnit": "METERS",
      "longitude": 78.43
    },
    {
      "elevation": 235,
      "mindate": "1901-01-01",
      "maxdate": "1968-12-31",
      "latitude": 29.3,
      "name": "DHAMPUR, IN",
      "datacoverage": 0.9706,
      "id": "GHCND:IN023120400",
      "elevationUnit": "METERS",
      "longitude": 78.52
    },
    {
      "elevation": 240,
      "mindate": "1901-01-01",
      "maxdate": "1968-12-31",
      "latitude": 29.62,
      "name": "NAJIBABAD, IN",
      "datacoverage": 0.9706,
      "id": "GHCND:IN023120500",
      "elevationUnit": "METERS",
      "longitude": 78.35
    },
    {
      "elevation": 270,
      "mindate": "1952-03-01",
      "maxdate": "1970-12-31",
      "latitude": 29.617,
      "name": "NAJIBABAD, IN",
      "datacoverage": 0.9821,
      "id": "GHCND:IN023121100",
      "elevationUnit": "METERS",
      "longitude": 78.383
    },
    {
      "elevation": 187,
      "mindate": "1901-01-01",
      "maxdate": "1967-12-31",
      "latitude": 28.3,
      "name": "BISAULI, IN",
      "datacoverage": 0.9702,
      "id": "GHCND:IN023130300",
      "elevationUnit": "METERS",
      "longitude": 78.93
    },
    {
      "elevation": 180,
      "mindate": "1901-01-01",
      "maxdate": "1967-12-31",
      "latitude": 28.23,
      "name": "GUNNAUR, IN",
      "datacoverage": 0.9702,
      "id": "GHCND:IN023130400",
      "elevationUnit": "METERS",
      "longitude": 78.43
    },
    {
      "elevation": 168,
      "mindate": "1901-01-01",
      "maxdate": "1967-12-31",
      "latitude": 28.07,
      "name": "SAHASWAN, IN",
      "datacoverage": 0.9702,
      "id": "GHCND:IN023130500",
      "elevationUnit": "METERS",
      "longitude": 78.75
    },
    {
      "elevation": 164,
      "mindate": "1901-01-01",
      "maxdate": "1967-12-31",
      "latitude": 28.05,
      "name": "BUDAUN, IN",
      "datacoverage": 0.9702,
      "id": "GHCND:IN023130900",
      "elevationUnit": "METERS",
      "longitude": 79.12
    },
    {
      "elevation": 155,
      "mindate": "1901-01-01",
      "maxdate": "1967-12-31",
      "latitude": 28.03,
      "name": "DATAGANJ, IN",
      "datacoverage": 0.9702,
      "id": "GHCND:IN023131000",
      "elevationUnit": "METERS",
      "longitude": 79.4
    },
    {
      "elevation": 182,
      "mindate": "1901-01-01",
      "maxdate": "1968-12-31",
      "latitude": 28.35,
      "name": "ANUPSHAHR, IN",
      "datacoverage": 0.9706,
      "id": "GHCND:IN023140100",
      "elevationUnit": "METERS",
      "longitude": 78.27
    },
    {
      "elevation": 222,
      "mindate": "1901-01-01",
      "maxdate": "1968-12-31",
      "latitude": 28.4,
      "name": "BULANDSHAHR, IN",
      "datacoverage": 0.9706,
      "id": "GHCND:IN023140500",
      "elevationUnit": "METERS",
      "longitude": 77.87
    },
    {
      "elevation": 205,
      "mindate": "1901-01-01",
      "maxdate": "1968-12-31",
      "latitude": 28.45,
      "name": "SIKANDARABAD, IN",
      "datacoverage": 0.9706,
      "id": "GHCND:IN023140600",
      "elevationUnit": "METERS",
      "longitude": 77.7
    },
    {
      "elevation": 197,
      "mindate": "1901-01-01",
      "maxdate": "1968-12-31",
      "latitude": 28.25,
      "name": "KHURJA, IN",
      "datacoverage": 0.9706,
      "id": "GHCND:IN023140700",
      "elevationUnit": "METERS",
      "longitude": 77.85
    },
    {
      "elevation": 223,
      "mindate": "1926-01-01",
      "maxdate": "1968-12-31",
      "latitude": 28.4,
      "name": "BULANDSHAHR, IN",
      "datacoverage": 0.9535,
      "id": "GHCND:IN023142400",
      "elevationUnit": "METERS",
      "longitude": 77.9
    },
    {
      "elevation": 198,
      "mindate": "1901-01-01",
      "maxdate": "1968-12-31",
      "latitude": 28.18,
      "name": "DAYANATHPUR, IN",
      "datacoverage": 0.9412,
      "id": "GHCND:IN023142500",
      "elevationUnit": "METERS",
      "longitude": 77.6
    },
    {
      "elevation": 222,
      "mindate": "1970-01-01",
      "maxdate": "1970-12-31",
      "latitude": 28.4,
      "name": "BULANDSHAHR OBSERVATORY, IN",
      "datacoverage": 1,
      "id": "GHCND:IN023143400",
      "elevationUnit": "METERS",
      "longitude": 77.87
    },
    {
      "elevation": 1861,
      "mindate": "1901-01-01",
      "maxdate": "1968-12-31",
      "latitude": 30.5,
      "name": "OKHIMATH, IN",
      "datacoverage": 0.9424,
      "id": "GHCND:IN023150200",
      "elevationUnit": "METERS",
      "longitude": 79.25
    },
    {
      "elevation": 792,
      "mindate": "1901-01-01",
      "maxdate": "1968-12-31",
      "latitude": 30.55,
      "name": "JOSHIMATH, IN",
      "datacoverage": 0.951,
      "id": "GHCND:IN023150300",
      "elevationUnit": "METERS",
      "longitude": 79.58
    },
    {
      "elevation": 396,
      "mindate": "1901-01-01",
      "maxdate": "1968-12-31",
      "latitude": 30.27,
      "name": "KARNAPRAYAG, IN",
      "datacoverage": 0.9559,
      "id": "GHCND:IN023150400",
      "elevationUnit": "METERS",
      "longitude": 79.25
    },
    {
      "elevation": 3733,
      "mindate": "1951-06-01",
      "maxdate": "1969-12-31",
      "latitude": 30.73,
      "name": "LOKAPA OBSERVATORY, IN",
      "datacoverage": 0.9056,
      "id": "GHCND:IN023150600",
      "elevationUnit": "METERS",
      "longitude": 79.63
    },
    {
      "elevation": 2671,
      "mindate": "1951-01-01",
      "maxdate": "1958-06-28",
      "latitude": 30.5,
      "name": "TAPOBAN, IN",
      "datacoverage": 0.956,
      "id": "GHCND:IN023150700",
      "elevationUnit": "METERS",
      "longitude": 79.6
    },
    {
      "elevation": 1875,
      "mindate": "1958-07-01",
      "maxdate": "1970-12-31",
      "latitude": 30.55,
      "name": "JOSHIMATH, IN",
      "datacoverage": 0.973,
      "id": "GHCND:IN023150900",
      "elevationUnit": "METERS",
      "longitude": 79.567
    },
    {
      "elevation": 1905,
      "mindate": "1901-01-01",
      "maxdate": "1967-12-31",
      "latitude": 30.7,
      "name": "CHAKRATA KALSI SR, IN",
      "datacoverage": 0.9155,
      "id": "GHCND:IN023160101",
      "elevationUnit": "METERS",
      "longitude": 77.87
    },
    {
      "elevation": 975,
      "mindate": "1901-01-01",
      "maxdate": "1968-12-31",
      "latitude": 30.4,
      "name": "RAJPUR, IN",
      "datacoverage": 0.9252,
      "id": "GHCND:IN023160200",
      "elevationUnit": "METERS",
      "longitude": 78.08
    },
    {
      "elevation": 682,
      "mindate": "1901-01-01",
      "maxdate": "2025-03-06",
      "latitude": 30.317,
      "name": "DEHRADUN, IN",
      "datacoverage": 0.8547,
      "id": "GHCND:IN023160900",
      "elevationUnit": "METERS",
      "longitude": 78.033
    },
    {
      "elevation": 735,
      "mindate": "1901-01-01",
      "maxdate": "1967-12-31",
      "latitude": 30.33,
      "name": "BHOGPUR, IN",
      "datacoverage": 0.8993,
      "id": "GHCND:IN023161000",
      "elevationUnit": "METERS",
      "longitude": 78.25
    },
    {
      "elevation": 654,
      "mindate": "1901-01-01",
      "maxdate": "1967-12-30",
      "latitude": 30.3,
      "name": "RAIPUR, IN",
      "datacoverage": 0.9005,
      "id": "GHCND:IN023161100",
      "elevationUnit": "METERS",
      "longitude": 78.08
    },
    {
      "elevation": 489,
      "mindate": "1901-01-01",
      "maxdate": "1967-12-31",
      "latitude": 30.5,
      "name": "AMBARI, IN",
      "datacoverage": 0.9005,
      "id": "GHCND:IN023161300",
      "elevationUnit": "METERS",
      "longitude": 77.82
    },
    {
      "elevation": 2042,
      "mindate": "1901-01-01",
      "maxdate": "1970-12-31",
      "latitude": 30.45,
      "name": "MUSSOORIE, IN",
      "datacoverage": 0.8274,
      "id": "GHCND:IN023162200",
      "elevationUnit": "METERS",
      "longitude": 78.083
    },
    {
      "elevation": 183,
      "mindate": "1901-01-01",
      "maxdate": "1968-12-31",
      "latitude": 26.92,
      "name": "PADRAUNA, IN",
      "datacoverage": 0.9706,
      "id": "GHCND:IN023170200",
      "elevationUnit": "METERS",
      "longitude": 83.98
    },
    {
      "elevation": 183,
      "mindate": "1901-01-01",
      "maxdate": "1968-12-31",
      "latitude": 26.75,
      "name": "HATA, IN",
      "datacoverage": 0.9706,
      "id": "GHCND:IN023170300",
      "elevationUnit": "METERS",
      "longitude": 83.75
    },
    {
      "elevation": 183,
      "mindate": "1901-01-01",
      "maxdate": "1968-12-31",
      "latitude": 26.5,
      "name": "DEORIA, IN",
      "datacoverage": 0.9706,
      "id": "GHCND:IN023170500",
      "elevationUnit": "METERS",
      "longitude": 83.78
    },
    {
      "elevation": 183,
      "mindate": "1943-07-01",
      "maxdate": "1968-12-31",
      "latitude": 26.3,
      "name": "SALIMPUR, IN",
      "datacoverage": 0.9214,
      "id": "GHCND:IN023171400",
      "elevationUnit": "METERS",
      "longitude": 83.92
    },
    {
      "elevation": 171,
      "mindate": "1901-01-01",
      "maxdate": "1968-12-31",
      "latitude": 27.5,
      "name": "ALIGANJ, IN",
      "datacoverage": 0.9706,
      "id": "GHCND:IN023180400",
      "elevationUnit": "METERS",
      "longitude": 79.18
    },
    {
      "elevation": 172,
      "mindate": "1901-01-01",
      "maxdate": "1968-12-31",
      "latitude": 27.57,
      "name": "ETAH, IN",
      "datacoverage": 0.9706,
      "id": "GHCND:IN023181600",
      "elevationUnit": "METERS",
      "longitude": 78.68
    },
    {
      "elevation": 152,
      "mindate": "1901-01-01",
      "maxdate": "1968-12-31",
      "latitude": 27.8,
      "name": "KASGANJ, IN",
      "datacoverage": 0.9706,
      "id": "GHCND:IN023181700",
      "elevationUnit": "METERS",
      "longitude": 78.65
    },
    {
      "elevation": 171,
      "mindate": "1901-01-01",
      "maxdate": "1968-12-31",
      "latitude": 27.47,
      "name": "JALESAR, IN",
      "datacoverage": 0.9706,
      "id": "GHCND:IN023181800",
      "elevationUnit": "METERS",
      "longitude": 78.3
    },
    {
      "elevation": 149,
      "mindate": "1901-01-01",
      "maxdate": "1968-12-31",
      "latitude": 26.78,
      "name": "ETAWAH, IN",
      "datacoverage": 0.9706,
      "id": "GHCND:IN023190100",
      "elevationUnit": "METERS",
      "longitude": 79.02
    },
    {
      "elevation": 146,
      "mindate": "1901-01-01",
      "maxdate": "1968-12-31",
      "latitude": 26.75,
      "name": "BHARTHANA, IN",
      "datacoverage": 0.9657,
      "id": "GHCND:IN023190200",
      "elevationUnit": "METERS",
      "longitude": 79.23
    },
    {
      "elevation": 135,
      "mindate": "1901-01-01",
      "maxdate": "1968-12-31",
      "latitude": 26.8,
      "name": "BIDHUNA, IN",
      "datacoverage": 0.9657,
      "id": "GHCND:IN023190300",
      "elevationUnit": "METERS",
      "longitude": 79.52
    },
    {
      "elevation": 139,
      "mindate": "1901-01-01",
      "maxdate": "1968-12-31",
      "latitude": 26.47,
      "name": "AURAIYA, IN",
      "datacoverage": 0.9657,
      "id": "GHCND:IN023190400",
      "elevationUnit": "METERS",
      "longitude": 79.52
    },
    {
      "elevation": 101,
      "mindate": "1901-01-01",
      "maxdate": "1963-12-31",
      "latitude": 26.78,
      "name": "FAIZABAD, IN",
      "datacoverage": 1,
      "id": "GHCND:IN023200500",
      "elevationUnit": "METERS",
      "longitude": 82.13
    },
    {
      "elevation": 200,
      "mindate": "1901-01-01",
      "maxdate": "1967-12-31",
      "latitude": 26.42,
      "name": "AKBARPUR, IN",
      "datacoverage": 0.9553,
      "id": "GHCND:IN023200600",
      "elevationUnit": "METERS",
      "longitude": 82.53
    },
    {
      "elevation": 99,
      "mindate": "1901-01-01",
      "maxdate": "1967-12-31",
      "latitude": 26.6,
      "name": "BIKAPUR, IN",
      "datacoverage": 0.9528,
      "id": "GHCND:IN023200700",
      "elevationUnit": "METERS",
      "longitude": 82.12
    },
    {
      "elevation": 91,
      "mindate": "1901-01-01",
      "maxdate": "1967-12-31",
      "latitude": 26.55,
      "name": "TANDA, IN",
      "datacoverage": 0.9503,
      "id": "GHCND:IN023200800",
      "elevationUnit": "METERS",
      "longitude": 82.65
    },
    {
      "elevation": 91,
      "mindate": "1901-01-01",
      "maxdate": "1967-12-31",
      "latitude": 26.32,
      "name": "JALALPUR, IN",
      "datacoverage": 0.9515,
      "id": "GHCND:IN023200900",
      "elevationUnit": "METERS",
      "longitude": 82.73
    },
    {
      "elevation": 119,
      "mindate": "1926-06-01",
      "maxdate": "1963-12-31",
      "latitude": 26.78,
      "name": "AYODHYA AJOBHY, IN",
      "datacoverage": 0.9911,
      "id": "GHCND:IN023201000",
      "elevationUnit": "METERS",
      "longitude": 82.2
    },
    {
      "elevation": 102,
      "mindate": "1959-01-01",
      "maxdate": "1970-12-31",
      "latitude": 26.75,
      "name": "FAIZABAD OBSERVATORY SR, IN",
      "datacoverage": 1,
      "id": "GHCND:IN023201300",
      "elevationUnit": "METERS",
      "longitude": 82.08
    },
    {
      "elevation": 156,
      "mindate": "1901-01-01",
      "maxdate": "1968-12-31",
      "latitude": 27.37,
      "name": "FATEHGARH, IN",
      "datacoverage": 0.9706,
      "id": "GHCND:IN023210800",
      "elevationUnit": "METERS",
      "longitude": 79.63
    },
    {
      "elevation": 156,
      "mindate": "1907-04-01",
      "maxdate": "1968-12-31",
      "latitude": 27.4,
      "name": "FARRUKHABAD, IN",
      "datacoverage": 0.9675,
      "id": "GHCND:IN023210900",
      "elevationUnit": "METERS",
      "longitude": 79.58
    },
    {
      "elevation": 156,
      "mindate": "1901-01-01",
      "maxdate": "1968-12-31",
      "latitude": 27.55,
      "name": "KAIMGANJ, IN",
      "datacoverage": 0.9706,
      "id": "GHCND:IN023211000",
      "elevationUnit": "METERS",
      "longitude": 79.33
    }
  ]
}
