{
  "metadata": {
    "resultset": {
      "offset": 113400,
      "count": 154115,
      "limit": 100
    }
  },
  "results": [
    {
      "elevation": 282.2,
      "mindate": "2007-04-01",
      "maxdate": "2013-01-30",
      "latitude": 35.8875,
      "name": "KNOXVILLE 6.2 SSW, TN US",
      "datacoverage": 0.9989,
      "id": "GHCND:US1TNKX0003",
      "elevationUnit": "METERS",
      "longitude": -83.9755
    },
    {
      "elevation": 313.9,
      "mindate": "2007-04-01",
      "maxdate": "2011-04-28",
      "latitude": 35.967829,
      "name": "KARNS 0.6 SSE, TN US",
      "datacoverage": 0.9799,
      "id": "GHCND:US1TNKX0004",
      "elevationUnit": "METERS",
      "longitude": -84.112429
    },
    {
      "elevation": 398.1,
      "mindate": "2007-04-01",
      "maxdate": "2025-03-07",
      "latitude": 35.98314,
      "name": "KNOXVILLE 5.5 W, TN US",
      "datacoverage": 0.9998,
      "id": "GHCND:US1TNKX0005",
      "elevationUnit": "METERS",
      "longitude": -84.04422
    },
    {
      "elevation": 376.1,
      "mindate": "2007-05-01",
      "maxdate": "2008-08-24",
      "latitude": 36.050909,
      "name": "POWELL 1.3 NNW, TN US",
      "datacoverage": 0.9959,
      "id": "GHCND:US1TNKX0006",
      "elevationUnit": "METERS",
      "longitude": -84.037291
    },
    {
      "elevation": 310.3,
      "mindate": "2007-04-01",
      "maxdate": "2021-09-01",
      "latitude": 35.896879,
      "name": "FARRAGUT 2.3 NE, TN US",
      "datacoverage": 0.9998,
      "id": "GHCND:US1TNKX0008",
      "elevationUnit": "METERS",
      "longitude": -84.151115
    },
    {
      "elevation": 368.8,
      "mindate": "2007-04-01",
      "maxdate": "2009-12-01",
      "latitude": 36.1109473,
      "name": "HALLS NORTHERN KNOX, TN US",
      "datacoverage": 0.9984,
      "id": "GHCND:US1TNKX0009",
      "elevationUnit": "METERS",
      "longitude": -83.9204592
    },
    {
      "elevation": 309.1,
      "mindate": "2007-01-01",
      "maxdate": "2021-01-21",
      "latitude": 36.086511,
      "name": "MASCOT 1.4 NNE, TN US",
      "datacoverage": 0.9731,
      "id": "GHCND:US1TNKX0011",
      "elevationUnit": "METERS",
      "longitude": -83.755918
    },
    {
      "elevation": 343.8,
      "mindate": "2011-04-01",
      "maxdate": "2011-12-12",
      "latitude": 35.938019,
      "name": "KNOXVILLE 9.9 WSW, TN US",
      "datacoverage": 0.8855,
      "id": "GHCND:US1TNKX0019",
      "elevationUnit": "METERS",
      "longitude": -84.116958
    },
    {
      "elevation": 324.9,
      "mindate": "2012-04-01",
      "maxdate": "2025-03-07",
      "latitude": 35.887616,
      "name": "FARRAGUT 2.8 ENE, TN US",
      "datacoverage": 1,
      "id": "GHCND:US1TNKX0023",
      "elevationUnit": "METERS",
      "longitude": -84.135172
    },
    {
      "elevation": 282.5,
      "mindate": "2012-09-01",
      "maxdate": "2013-10-17",
      "latitude": 35.9151,
      "name": "KNOXVILLE 8.1 ESE, TN US",
      "datacoverage": 1,
      "id": "GHCND:US1TNKX0029",
      "elevationUnit": "METERS",
      "longitude": -83.82066
    },
    {
      "elevation": 285.6,
      "mindate": "2013-02-01",
      "maxdate": "2016-06-02",
      "latitude": 35.9339370727539,
      "name": "KNOXVILLE 4.6 SW, TN US",
      "datacoverage": 1,
      "id": "GHCND:US1TNKX0033",
      "elevationUnit": "METERS",
      "longitude": -84.0124740600586
    },
    {
      "elevation": 309.4,
      "mindate": "2013-03-01",
      "maxdate": "2025-03-06",
      "latitude": 36.0512,
      "name": "KNOXVILLE 5.7 NNW, TN US",
      "datacoverage": 0.9723,
      "id": "GHCND:US1TNKX0034",
      "elevationUnit": "METERS",
      "longitude": -83.986221
    },
    {
      "elevation": 310,
      "mindate": "2014-07-01",
      "maxdate": "2018-05-12",
      "latitude": 35.916801,
      "name": "KNOXVILLE 8.0 WSW, TN US",
      "datacoverage": 0.9987,
      "id": "GHCND:US1TNKX0041",
      "elevationUnit": "METERS",
      "longitude": -84.069283
    },
    {
      "elevation": 297.2,
      "mindate": "2000-06-04",
      "maxdate": "2019-12-10",
      "latitude": 35.881904,
      "name": "FARRAGUT 1.0 WNW, TN US",
      "datacoverage": 0.9967,
      "id": "GHCND:US1TNKX0042",
      "elevationUnit": "METERS",
      "longitude": -84.197143
    },
    {
      "elevation": 311.5,
      "mindate": "2015-03-01",
      "maxdate": "2020-06-09",
      "latitude": 35.9961,
      "name": "KNOXVILLE 3.1 WNW, TN US",
      "datacoverage": 0.9967,
      "id": "GHCND:US1TNKX0043",
      "elevationUnit": "METERS",
      "longitude": -83.9944
    },
    {
      "elevation": 285,
      "mindate": "2018-03-08",
      "maxdate": "2019-08-01",
      "latitude": 35.970937,
      "name": "KNOXVILLE 0.8 ESE, TN US",
      "datacoverage": 0.9819,
      "id": "GHCND:US1TNKX0050",
      "elevationUnit": "METERS",
      "longitude": -83.933537
    },
    {
      "elevation": 303.6,
      "mindate": "2019-01-01",
      "maxdate": "2025-03-07",
      "latitude": 35.94,
      "name": "KNOXVILLE 10.6 WSW, TN US",
      "datacoverage": 1,
      "id": "GHCND:US1TNKX0053",
      "elevationUnit": "METERS",
      "longitude": -84.13055
    },
    {
      "elevation": 337.7,
      "mindate": "2019-04-01",
      "maxdate": "2020-03-11",
      "latitude": 35.95225,
      "name": "KNOXVILLE 3.5 WSW, TN US",
      "datacoverage": 0.9086,
      "id": "GHCND:US1TNKX0055",
      "elevationUnit": "METERS",
      "longitude": -84.00187
    },
    {
      "elevation": 287.7,
      "mindate": "2020-05-01",
      "maxdate": "2023-01-22",
      "latitude": 35.903506,
      "name": "KNOXVILLE 5.3 SSW, TN US",
      "datacoverage": 0.9317,
      "id": "GHCND:US1TNKX0056",
      "elevationUnit": "METERS",
      "longitude": -83.983711
    },
    {
      "elevation": 255.4,
      "mindate": "2020-08-25",
      "maxdate": "2025-03-07",
      "latitude": 35.959132,
      "name": "SEYMOUR 5.8 N, TN US",
      "datacoverage": 0.9027,
      "id": "GHCND:US1TNKX0058",
      "elevationUnit": "METERS",
      "longitude": -83.772453
    },
    {
      "elevation": 328.9,
      "mindate": "2021-08-01",
      "maxdate": "2023-03-07",
      "latitude": 35.916192,
      "name": "KNOXVILLE 12.9 WSW, TN US",
      "datacoverage": 0.9324,
      "id": "GHCND:US1TNKX0061",
      "elevationUnit": "METERS",
      "longitude": -84.164376
    },
    {
      "elevation": 287.1,
      "mindate": "2022-02-18",
      "maxdate": "2025-03-06",
      "latitude": 35.923257,
      "name": "KNOXVILLE 5.5 SW, TN US",
      "datacoverage": 0.1905,
      "id": "GHCND:US1TNKX0062",
      "elevationUnit": "METERS",
      "longitude": -84.021762
    },
    {
      "elevation": 256.3,
      "mindate": "2022-01-13",
      "maxdate": "2025-03-07",
      "latitude": 35.85886,
      "name": "FARRAGUT 2.0 ESE, TN US",
      "datacoverage": 0.9478,
      "id": "GHCND:US1TNKX0063",
      "elevationUnit": "METERS",
      "longitude": -84.15288
    },
    {
      "elevation": 289.9,
      "mindate": "2022-07-08",
      "maxdate": "2025-03-06",
      "latitude": 35.885432,
      "name": "KNOXVILLE 11.2 WSW, TN US",
      "datacoverage": 1,
      "id": "GHCND:US1TNKX0065",
      "elevationUnit": "METERS",
      "longitude": -84.114355
    },
    {
      "elevation": 295,
      "mindate": "2022-10-26",
      "maxdate": "2024-02-03",
      "latitude": 35.92057,
      "name": "KNOXVILLE 7.9 WSW, TN US",
      "datacoverage": 0.999,
      "id": "GHCND:US1TNKX0066",
      "elevationUnit": "METERS",
      "longitude": -84.07054
    },
    {
      "elevation": 302.7,
      "mindate": "2023-07-11",
      "maxdate": "2024-04-04",
      "latitude": 35.8579,
      "name": "FARRAGUT 2.0 SW, TN US",
      "datacoverage": 1,
      "id": "GHCND:US1TNKX0068",
      "elevationUnit": "METERS",
      "longitude": -84.2115
    },
    {
      "elevation": 311.2,
      "mindate": "2023-11-01",
      "maxdate": "2025-03-05",
      "latitude": 36.03588,
      "name": "KNOXVILLE 4.5 NNE, TN US",
      "datacoverage": 0.8639,
      "id": "GHCND:US1TNKX0069",
      "elevationUnit": "METERS",
      "longitude": -83.92164
    },
    {
      "elevation": 301.8,
      "mindate": "2024-02-01",
      "maxdate": "2025-03-07",
      "latitude": 35.915136,
      "name": "KARNS 5.4 SE, TN US",
      "datacoverage": 1,
      "id": "GHCND:US1TNKX0071",
      "elevationUnit": "METERS",
      "longitude": -84.056613
    },
    {
      "elevation": 404.5,
      "mindate": "2024-04-03",
      "maxdate": "2025-03-06",
      "latitude": 36.104167,
      "name": "CORRYTON 4.5 SW, TN US",
      "datacoverage": 0.9925,
      "id": "GHCND:US1TNKX0072",
      "elevationUnit": "METERS",
      "longitude": -83.839167
    },
    {
      "elevation": 247.2,
      "mindate": "2007-05-01",
      "maxdate": "2024-01-19",
      "latitude": 35.23155,
      "name": "FAYETTEVILLE 6.1 NNW, TN US",
      "datacoverage": 0.9996,
      "id": "GHCND:US1TNLC0002",
      "elevationUnit": "METERS",
      "longitude": -86.60602
    },
    {
      "elevation": 231.6,
      "mindate": "2007-05-01",
      "maxdate": "2020-11-20",
      "latitude": 35.109,
      "name": "FAYETTEVILLE 5.8 WSW, TN US",
      "datacoverage": 0.9996,
      "id": "GHCND:US1TNLC0003",
      "elevationUnit": "METERS",
      "longitude": -86.65434
    },
    {
      "elevation": 281,
      "mindate": "2007-07-01",
      "maxdate": "2011-10-11",
      "latitude": 35.0225,
      "name": "FAYETTEVILLE 8.8 S, TN US",
      "datacoverage": 0.9992,
      "id": "GHCND:US1TNLC0004",
      "elevationUnit": "METERS",
      "longitude": -86.5561
    },
    {
      "elevation": 249.9,
      "mindate": "1998-06-01",
      "maxdate": "2018-12-28",
      "latitude": 35.1625,
      "name": "FAYETTEVILLE 5.9 W, TN US",
      "datacoverage": 0.9992,
      "id": "GHCND:US1TNLC0005",
      "elevationUnit": "METERS",
      "longitude": -86.6683
    },
    {
      "elevation": 224.9,
      "mindate": "2007-07-01",
      "maxdate": "2025-03-07",
      "latitude": 35.202825,
      "name": "FAYETTEVILLE 7.9 WNW, TN US",
      "datacoverage": 0.9997,
      "id": "GHCND:US1TNLC0006",
      "elevationUnit": "METERS",
      "longitude": -86.777736
    },
    {
      "elevation": 268.8,
      "mindate": "2007-08-01",
      "maxdate": "2017-09-30",
      "latitude": 35.028635,
      "name": "FAYETTEVILLE 8.6 SSW, TN US",
      "datacoverage": 0.9998,
      "id": "GHCND:US1TNLC0007",
      "elevationUnit": "METERS",
      "longitude": -86.597468
    },
    {
      "elevation": 203,
      "mindate": "2006-12-01",
      "maxdate": "2023-06-01",
      "latitude": 35.141611,
      "name": "FAYETTEVILLE 0.6 SSW, TN US",
      "datacoverage": 0.9107,
      "id": "GHCND:US1TNLC0009",
      "elevationUnit": "METERS",
      "longitude": -86.568964
    },
    {
      "elevation": 278,
      "mindate": "2007-11-01",
      "maxdate": "2012-08-17",
      "latitude": 35.012355,
      "name": "ARDMORE 10.8 E, TN US",
      "datacoverage": 0.9996,
      "id": "GHCND:US1TNLC0011",
      "elevationUnit": "METERS",
      "longitude": -86.666785
    },
    {
      "elevation": 280.1,
      "mindate": "2008-06-01",
      "maxdate": "2025-03-07",
      "latitude": 35.026,
      "name": "FAYETTEVILLE 8.6 S, TN US",
      "datacoverage": 1,
      "id": "GHCND:US1TNLC0012",
      "elevationUnit": "METERS",
      "longitude": -86.554
    },
    {
      "elevation": 281.9,
      "mindate": "2009-04-01",
      "maxdate": "2011-03-31",
      "latitude": 35.050184,
      "name": "TAFT 2.9 NW, TN US",
      "datacoverage": 1,
      "id": "GHCND:US1TNLC0013",
      "elevationUnit": "METERS",
      "longitude": -86.7537
    },
    {
      "elevation": 296.9,
      "mindate": "2009-07-01",
      "maxdate": "2016-05-31",
      "latitude": 35.06933,
      "name": "FAYETTEVILLE 7.3 SW, TN US",
      "datacoverage": 0.9998,
      "id": "GHCND:US1TNLC0014",
      "elevationUnit": "METERS",
      "longitude": -86.64878
    },
    {
      "elevation": 273.1,
      "mindate": "2008-02-01",
      "maxdate": "2015-10-13",
      "latitude": 35.05346667,
      "name": "FLINTVILLE 0.6 S, TN US",
      "datacoverage": 0.8912,
      "id": "GHCND:US1TNLC0015",
      "elevationUnit": "METERS",
      "longitude": -86.4193
    },
    {
      "elevation": 230.4,
      "mindate": "2012-09-01",
      "maxdate": "2013-07-07",
      "latitude": 35.1571846008301,
      "name": "FAYETTEVILLE 1.2 WNW, TN US",
      "datacoverage": 1,
      "id": "GHCND:US1TNLC0017",
      "elevationUnit": "METERS",
      "longitude": -86.5842971801758
    },
    {
      "elevation": 283.5,
      "mindate": "2012-10-01",
      "maxdate": "2021-02-28",
      "latitude": 35.04146,
      "name": "FAYETTEVILLE 7.5 S, TN US",
      "datacoverage": 1,
      "id": "GHCND:US1TNLC0018",
      "elevationUnit": "METERS",
      "longitude": -86.576898
    },
    {
      "elevation": 214.9,
      "mindate": "2013-05-01",
      "maxdate": "2021-02-28",
      "latitude": 35.147293,
      "name": "FAYETTEVILLE 1.5 W, TN US",
      "datacoverage": 1,
      "id": "GHCND:US1TNLC0019",
      "elevationUnit": "METERS",
      "longitude": -86.589913
    },
    {
      "elevation": 249.9,
      "mindate": "2018-07-11",
      "maxdate": "2025-03-05",
      "latitude": 35.214694,
      "name": "FRANKEWING 4.0 ENE, TN US",
      "datacoverage": 1,
      "id": "GHCND:US1TNLC0020",
      "elevationUnit": "METERS",
      "longitude": -86.779833
    },
    {
      "elevation": 216.4,
      "mindate": "2020-09-07",
      "maxdate": "2025-03-07",
      "latitude": 35.094157,
      "name": "FAYETTEVILLE 9.0 WSW, TN US",
      "datacoverage": 1,
      "id": "GHCND:US1TNLC0022",
      "elevationUnit": "METERS",
      "longitude": -86.707469
    },
    {
      "elevation": 307.2,
      "mindate": "2021-06-14",
      "maxdate": "2025-03-06",
      "latitude": 35.096145,
      "name": "FAYETTEVILLE 4.0 SSW, TN US",
      "datacoverage": 0.8231,
      "id": "GHCND:US1TNLC0024",
      "elevationUnit": "METERS",
      "longitude": -86.59253
    },
    {
      "elevation": 89,
      "mindate": "2007-07-01",
      "maxdate": "2008-08-08",
      "latitude": 35.895064,
      "name": "GATES 4.0 NNE, TN US",
      "datacoverage": 0.9956,
      "id": "GHCND:US1TNLD0001",
      "elevationUnit": "METERS",
      "longitude": -89.387401
    },
    {
      "elevation": 118.9,
      "mindate": "2022-03-28",
      "maxdate": "2025-03-05",
      "latitude": 35.811483,
      "name": "GATES 1.9 S, TN US",
      "datacoverage": 1,
      "id": "GHCND:US1TNLD0005",
      "elevationUnit": "METERS",
      "longitude": -89.406001
    },
    {
      "elevation": 260.9,
      "mindate": "2007-04-01",
      "maxdate": "2015-12-02",
      "latitude": 35.8266,
      "name": "LENOIR CITY 3.1 NE, TN US",
      "datacoverage": 0.6188,
      "id": "GHCND:US1TNLN0001",
      "elevationUnit": "METERS",
      "longitude": -84.2251
    },
    {
      "elevation": 329.8,
      "mindate": "2008-09-01",
      "maxdate": "2010-03-15",
      "latitude": 35.654039,
      "name": "PHILADELPHIA 2.5 SE, TN US",
      "datacoverage": 0.9819,
      "id": "GHCND:US1TNLN0004",
      "elevationUnit": "METERS",
      "longitude": -84.368586
    },
    {
      "elevation": 275.8,
      "mindate": "2015-04-01",
      "maxdate": "2025-03-05",
      "latitude": 35.667192,
      "name": "GREENBACK 2.1 ENE, TN US",
      "datacoverage": 0.998,
      "id": "GHCND:US1TNLN0010",
      "elevationUnit": "METERS",
      "longitude": -84.142272
    },
    {
      "elevation": 260.9,
      "mindate": "2015-11-07",
      "maxdate": "2025-03-07",
      "latitude": 35.749,
      "name": "LOUDON 5.3 E, TN US",
      "datacoverage": 1,
      "id": "GHCND:US1TNLN0011",
      "elevationUnit": "METERS",
      "longitude": -84.265
    },
    {
      "elevation": 298.7,
      "mindate": "2021-03-30",
      "maxdate": "2025-02-24",
      "latitude": 35.714254,
      "name": "LOUDON 5.1 ESE, TN US",
      "datacoverage": 0.9956,
      "id": "GHCND:US1TNLN0012",
      "elevationUnit": "METERS",
      "longitude": -84.271337
    },
    {
      "elevation": 265.2,
      "mindate": "2023-09-19",
      "maxdate": "2025-03-07",
      "latitude": 35.658,
      "name": "LOUDON 7.2 SE, TN US",
      "datacoverage": 1,
      "id": "GHCND:US1TNLN0014",
      "elevationUnit": "METERS",
      "longitude": -84.2723
    },
    {
      "elevation": 250.9,
      "mindate": "2023-07-13",
      "maxdate": "2025-03-06",
      "latitude": 35.66018,
      "name": "LOUDON 7.1 SE, TN US",
      "datacoverage": 0.942,
      "id": "GHCND:US1TNLN0015",
      "elevationUnit": "METERS",
      "longitude": -84.27185
    },
    {
      "elevation": 312.7,
      "mindate": "2024-04-13",
      "maxdate": "2025-03-07",
      "latitude": 35.860289,
      "name": "LENOIR CITY 4.3 NNE, TN US",
      "datacoverage": 0.9011,
      "id": "GHCND:US1TNLN0016",
      "elevationUnit": "METERS",
      "longitude": -84.245942
    },
    {
      "elevation": 281,
      "mindate": "2007-07-01",
      "maxdate": "2025-03-05",
      "latitude": 35.139167,
      "name": "LORETTO 5.2 NE, TN US",
      "datacoverage": 0.9997,
      "id": "GHCND:US1TNLR0007",
      "elevationUnit": "METERS",
      "longitude": -87.378556
    },
    {
      "elevation": 274.9,
      "mindate": "2007-07-01",
      "maxdate": "2025-03-05",
      "latitude": 35.254555,
      "name": "LAWRENCEBURG 8.8 SE, TN US",
      "datacoverage": 0.9997,
      "id": "GHCND:US1TNLR0009",
      "elevationUnit": "METERS",
      "longitude": -87.38446
    },
    {
      "elevation": 289.9,
      "mindate": "2007-05-01",
      "maxdate": "2025-03-04",
      "latitude": 35.305335,
      "name": "LAWRENCEBURG 7.0 NW, TN US",
      "datacoverage": 0.9995,
      "id": "GHCND:US1TNLR0010",
      "elevationUnit": "METERS",
      "longitude": -87.438331
    },
    {
      "elevation": 256,
      "mindate": "2008-05-01",
      "maxdate": "2014-05-17",
      "latitude": 35.1176,
      "name": "LORETTO 2.8 NNW, TN US",
      "datacoverage": 1,
      "id": "GHCND:US1TNLR0013",
      "elevationUnit": "METERS",
      "longitude": -87.4576
    },
    {
      "elevation": 285.9,
      "mindate": "2009-07-01",
      "maxdate": "2013-10-17",
      "latitude": 35.1006,
      "name": "LORETTO 5.1 ENE, TN US",
      "datacoverage": 0.7878,
      "id": "GHCND:US1TNLR0016",
      "elevationUnit": "METERS",
      "longitude": -87.3485
    },
    {
      "elevation": 301.8,
      "mindate": "2018-02-28",
      "maxdate": "2020-04-30",
      "latitude": 35.203528,
      "name": "LAWRENCEBURG 5.2 SW, TN US",
      "datacoverage": 0.3404,
      "id": "GHCND:US1TNLR0024",
      "elevationUnit": "METERS",
      "longitude": -87.415188
    },
    {
      "elevation": 274.9,
      "mindate": "2018-04-21",
      "maxdate": "2021-02-13",
      "latitude": 35.24678,
      "name": "LAWRENCEBURG 1.4 E, TN US",
      "datacoverage": 0.9039,
      "id": "GHCND:US1TNLR0025",
      "elevationUnit": "METERS",
      "longitude": -87.31367
    },
    {
      "elevation": 278.3,
      "mindate": "2018-08-03",
      "maxdate": "2025-03-05",
      "latitude": 35.101982,
      "name": "LORETTO 4.9 ENE, TN US",
      "datacoverage": 0.1591,
      "id": "GHCND:US1TNLR0026",
      "elevationUnit": "METERS",
      "longitude": -87.3544
    },
    {
      "elevation": 233.5,
      "mindate": "2020-06-09",
      "maxdate": "2025-03-07",
      "latitude": 35.0812,
      "name": "LORETTO 1.1 E, TN US",
      "datacoverage": 0.9986,
      "id": "GHCND:US1TNLR0027",
      "elevationUnit": "METERS",
      "longitude": -87.41692
    },
    {
      "elevation": 248.4,
      "mindate": "2022-01-02",
      "maxdate": "2025-03-07",
      "latitude": 35.07715,
      "name": "LORETTO 0.6 WSW, TN US",
      "datacoverage": 0.2963,
      "id": "GHCND:US1TNLR0028",
      "elevationUnit": "METERS",
      "longitude": -87.44537
    },
    {
      "elevation": 303.9,
      "mindate": "2023-04-23",
      "maxdate": "2025-03-07",
      "latitude": 35.2968,
      "name": "LAWRENCEBURG 8.7 WNW, TN US",
      "datacoverage": 1,
      "id": "GHCND:US1TNLR0029",
      "elevationUnit": "METERS",
      "longitude": -87.47812
    },
    {
      "elevation": 236.5,
      "mindate": "2024-08-22",
      "maxdate": "2025-03-07",
      "latitude": 35.0364,
      "name": "SAINT JOSEPH 1.9 ENE, TN US",
      "datacoverage": 1,
      "id": "GHCND:US1TNLR0031",
      "elevationUnit": "METERS",
      "longitude": -87.4731
    },
    {
      "elevation": 221,
      "mindate": "2007-07-01",
      "maxdate": "2017-08-15",
      "latitude": 35.56814,
      "name": "HOHENWALD 4.0 WNW, TN US",
      "datacoverage": 0.9997,
      "id": "GHCND:US1TNLS0002",
      "elevationUnit": "METERS",
      "longitude": -87.62797
    },
    {
      "elevation": 288,
      "mindate": "2007-10-01",
      "maxdate": "2025-03-07",
      "latitude": 35.52677,
      "name": "HOHENWALD 2.2 SE, TN US",
      "datacoverage": 0.9999,
      "id": "GHCND:US1TNLS0003",
      "elevationUnit": "METERS",
      "longitude": -87.533345
    },
    {
      "elevation": 295.4,
      "mindate": "2013-01-01",
      "maxdate": "2024-07-05",
      "latitude": 35.55093,
      "name": "HOHENWALD 0.3 E, TN US",
      "datacoverage": 1,
      "id": "GHCND:US1TNLS0005",
      "elevationUnit": "METERS",
      "longitude": -87.553644
    },
    {
      "elevation": 558.1,
      "mindate": "2007-04-01",
      "maxdate": "2008-05-20",
      "latitude": 35.255232,
      "name": "WHITWELL 4.8 NNW, TN US",
      "datacoverage": 0.998,
      "id": "GHCND:US1TNMA0001",
      "elevationUnit": "METERS",
      "longitude": -85.551586
    },
    {
      "elevation": 199,
      "mindate": "2007-08-01",
      "maxdate": "2025-03-07",
      "latitude": 35.0841,
      "name": "JASPER 1.7 N, TN US",
      "datacoverage": 0.9998,
      "id": "GHCND:US1TNMA0003",
      "elevationUnit": "METERS",
      "longitude": -85.6289
    },
    {
      "elevation": 223.1,
      "mindate": "2007-11-01",
      "maxdate": "2025-03-06",
      "latitude": 35.198036,
      "name": "WHITWELL 0.3 SE, TN US",
      "datacoverage": 1,
      "id": "GHCND:US1TNMA0004",
      "elevationUnit": "METERS",
      "longitude": -85.514326
    },
    {
      "elevation": 216.1,
      "mindate": "2007-12-01",
      "maxdate": "2011-11-06",
      "latitude": 35.206334,
      "name": "WHITWELL 0.4 NNE, TN US",
      "datacoverage": 1,
      "id": "GHCND:US1TNMA0005",
      "elevationUnit": "METERS",
      "longitude": -85.514757
    },
    {
      "elevation": 566.9,
      "mindate": "2007-11-01",
      "maxdate": "2008-10-31",
      "latitude": 35.220661,
      "name": "MONTEAGLE 1.6 SW, TN US",
      "datacoverage": 0.998,
      "id": "GHCND:US1TNMA0006",
      "elevationUnit": "METERS",
      "longitude": -85.857939
    },
    {
      "elevation": 558.1,
      "mindate": "2007-11-01",
      "maxdate": "2013-12-31",
      "latitude": 35.213649,
      "name": "MONTEAGLE 8.7 E, TN US",
      "datacoverage": 0.9997,
      "id": "GHCND:US1TNMA0007",
      "elevationUnit": "METERS",
      "longitude": -85.688545
    },
    {
      "elevation": 234.1,
      "mindate": "1998-06-17",
      "maxdate": "2025-03-05",
      "latitude": 35.22902,
      "name": "WHITWELL 4.5 ENE, TN US",
      "datacoverage": 0.9373,
      "id": "GHCND:US1TNMA0008",
      "elevationUnit": "METERS",
      "longitude": -85.44566
    },
    {
      "elevation": 195.1,
      "mindate": "1998-06-01",
      "maxdate": "2017-06-28",
      "latitude": 35.080298,
      "name": "WHITWELL 8.4 S, TN US",
      "datacoverage": 0.7016,
      "id": "GHCND:US1TNMA0009",
      "elevationUnit": "METERS",
      "longitude": -85.516161
    },
    {
      "elevation": 208.8,
      "mindate": "2012-03-01",
      "maxdate": "2021-09-01",
      "latitude": 35.163794,
      "name": "WHITWELL 3.0 SSE, TN US",
      "datacoverage": 0.9792,
      "id": "GHCND:US1TNMA0010",
      "elevationUnit": "METERS",
      "longitude": -85.491824
    },
    {
      "elevation": 203.6,
      "mindate": "2013-08-01",
      "maxdate": "2017-09-12",
      "latitude": 35.0463752746582,
      "name": "KIMBALL 0.3 WNW, TN US",
      "datacoverage": 1,
      "id": "GHCND:US1TNMA0011",
      "elevationUnit": "METERS",
      "longitude": -85.6788177490234
    },
    {
      "elevation": 215.5,
      "mindate": "2024-03-31",
      "maxdate": "2025-03-05",
      "latitude": 34.992303,
      "name": "SOUTH PITTSBURG 4.9 ESE, TN US",
      "datacoverage": 1,
      "id": "GHCND:US1TNMA0016",
      "elevationUnit": "METERS",
      "longitude": -85.629504
    },
    {
      "elevation": 284.1,
      "mindate": "2007-07-01",
      "maxdate": "2011-01-14",
      "latitude": 36.568124,
      "name": "WESTMORELAND 3.9 E, TN US",
      "datacoverage": 0.6965,
      "id": "GHCND:US1TNMC0003",
      "elevationUnit": "METERS",
      "longitude": -86.17715
    },
    {
      "elevation": 232,
      "mindate": "2007-07-01",
      "maxdate": "2010-02-10",
      "latitude": 36.450195,
      "name": "LAFAYETTE 7.8 SE, TN US",
      "datacoverage": 1,
      "id": "GHCND:US1TNMC0004",
      "elevationUnit": "METERS",
      "longitude": -85.92465
    },
    {
      "elevation": 278.6,
      "mindate": "2010-02-01",
      "maxdate": "2022-02-17",
      "latitude": 36.57238,
      "name": "LAFAYETTE 3.7 NNW, TN US",
      "datacoverage": 0.8493,
      "id": "GHCND:US1TNMC0007",
      "elevationUnit": "METERS",
      "longitude": -86.059117
    },
    {
      "elevation": 242.3,
      "mindate": "2023-03-10",
      "maxdate": "2025-03-05",
      "latitude": 36.44638,
      "name": "LAFAYETTE 5.4 S, TN US",
      "datacoverage": 0.9629,
      "id": "GHCND:US1TNMC0013",
      "elevationUnit": "METERS",
      "longitude": -86.017681
    },
    {
      "elevation": 302.7,
      "mindate": "2023-01-31",
      "maxdate": "2025-03-07",
      "latitude": 36.4765569,
      "name": "LAFAYETTE 4.5 SE, TN US",
      "datacoverage": 0.9994,
      "id": "GHCND:US1TNMC0016",
      "elevationUnit": "METERS",
      "longitude": -85.9765692
    },
    {
      "elevation": 164.9,
      "mindate": "2007-04-01",
      "maxdate": "2012-10-18",
      "latitude": 35.688098,
      "name": "JACKSON 10.8 ENE, TN US",
      "datacoverage": 0.8948,
      "id": "GHCND:US1TNMD0002",
      "elevationUnit": "METERS",
      "longitude": -88.64768
    },
    {
      "elevation": 106.1,
      "mindate": "2007-05-01",
      "maxdate": "2013-12-18",
      "latitude": 35.618089,
      "name": "JACKSON 1.4 SW, TN US",
      "datacoverage": 0.9992,
      "id": "GHCND:US1TNMD0003",
      "elevationUnit": "METERS",
      "longitude": -88.84577
    },
    {
      "elevation": 149,
      "mindate": "2007-06-01",
      "maxdate": "2025-03-07",
      "latitude": 35.687358,
      "name": "JACKSON 4.7 NW, TN US",
      "datacoverage": 0.9998,
      "id": "GHCND:US1TNMD0004",
      "elevationUnit": "METERS",
      "longitude": -88.880864
    },
    {
      "elevation": 143.3,
      "mindate": "2007-07-01",
      "maxdate": "2025-03-07",
      "latitude": 35.699967,
      "name": "JACKSON 5.6 NE, TN US",
      "datacoverage": 0.9997,
      "id": "GHCND:US1TNMD0005",
      "elevationUnit": "METERS",
      "longitude": -88.772383
    },
    {
      "elevation": 141.7,
      "mindate": "2007-07-01",
      "maxdate": "2007-11-15",
      "latitude": 35.69254,
      "name": "JACKSON 4.4 NNW, TN US",
      "datacoverage": 0.9947,
      "id": "GHCND:US1TNMD0006",
      "elevationUnit": "METERS",
      "longitude": -88.860312
    },
    {
      "elevation": 157.9,
      "mindate": "2007-07-01",
      "maxdate": "2009-12-08",
      "latitude": 35.641607,
      "name": "JACKSON 1.2 ENE, TN US",
      "datacoverage": 0.998,
      "id": "GHCND:US1TNMD0007",
      "elevationUnit": "METERS",
      "longitude": -88.810214
    },
    {
      "elevation": 123.1,
      "mindate": "2007-07-01",
      "maxdate": "2019-05-09",
      "latitude": 35.751167,
      "name": "MEDINA 4.0 SSW, TN US",
      "datacoverage": 1,
      "id": "GHCND:US1TNMD0008",
      "elevationUnit": "METERS",
      "longitude": -88.806
    },
    {
      "elevation": 143,
      "mindate": "2007-09-01",
      "maxdate": "2014-12-05",
      "latitude": 35.753822,
      "name": "MEDINA 3.8 SSW, TN US",
      "datacoverage": 0.7953,
      "id": "GHCND:US1TNMD0009",
      "elevationUnit": "METERS",
      "longitude": -88.805159
    },
    {
      "elevation": 120.1,
      "mindate": "2007-11-01",
      "maxdate": "2025-03-07",
      "latitude": 35.71081,
      "name": "GADSDEN 4.9 SSE, TN US",
      "datacoverage": 1,
      "id": "GHCND:US1TNMD0010",
      "elevationUnit": "METERS",
      "longitude": -88.959046
    },
    {
      "elevation": 130.8,
      "mindate": "2008-01-01",
      "maxdate": "2025-03-07",
      "latitude": 35.6959,
      "name": "JACKSON 4.3 N, TN US",
      "datacoverage": 1,
      "id": "GHCND:US1TNMD0015",
      "elevationUnit": "METERS",
      "longitude": -88.8399
    },
    {
      "elevation": 119.8,
      "mindate": "1998-06-01",
      "maxdate": "2020-03-28",
      "latitude": 35.58201,
      "name": "JACKSON 3.6 S, TN US",
      "datacoverage": 0.7103,
      "id": "GHCND:US1TNMD0016",
      "elevationUnit": "METERS",
      "longitude": -88.82788
    },
    {
      "elevation": 132.6,
      "mindate": "2008-04-01",
      "maxdate": "2011-01-13",
      "latitude": 35.568105,
      "name": "JACKSON 8.5 ESE, TN US",
      "datacoverage": 1,
      "id": "GHCND:US1TNMD0017",
      "elevationUnit": "METERS",
      "longitude": -88.700902
    }
  ]
}
