{
  "metadata": {
    "resultset": {
      "offset": 64800,
      "count": 154115,
      "limit": 100
    }
  },
  "results": [
    {
      "elevation": 2419.8,
      "mindate": "1952-12-01",
      "maxdate": "2012-04-30",
      "latitude": 19.9667,
      "name": "PRESA EL GIRON, MX",
      "datacoverage": 0.98,
      "id": "GHCND:MXN00013079",
      "elevationUnit": "METERS",
      "longitude": -98.5167
    },
    {
      "elevation": 2039.7,
      "mindate": "1970-12-01",
      "maxdate": "2012-12-02",
      "latitude": 20.15,
      "name": "PRESA ENDHO, MX",
      "datacoverage": 0.9708,
      "id": "GHCND:MXN00013080",
      "elevationUnit": "METERS",
      "longitude": -99.35
    },
    {
      "elevation": 1863.9,
      "mindate": "1952-02-09",
      "maxdate": "2010-12-14",
      "latitude": 20.4333,
      "name": "PRESA GOLONDRINAS, MX",
      "datacoverage": 0.9874,
      "id": "GHCND:MXN00013081",
      "elevationUnit": "METERS",
      "longitude": -99.3667
    },
    {
      "elevation": 2209.8,
      "mindate": "1956-09-01",
      "maxdate": "2012-09-30",
      "latitude": 20.05,
      "name": "PRESA LA ESPERANZA, MX",
      "datacoverage": 0.9994,
      "id": "GHCND:MXN00013082",
      "elevationUnit": "METERS",
      "longitude": -98.3333
    },
    {
      "elevation": 2171.7,
      "mindate": "1939-09-07",
      "maxdate": "2012-03-31",
      "latitude": 20.3167,
      "name": "PRESA MADERO, MX",
      "datacoverage": 0.8231,
      "id": "GHCND:MXN00013083",
      "elevationUnit": "METERS",
      "longitude": -99.7167
    },
    {
      "elevation": 2108.9,
      "mindate": "1951-01-01",
      "maxdate": "2010-12-31",
      "latitude": 19.95,
      "name": "PRESA REQUENA, MX",
      "datacoverage": 0.9789,
      "id": "GHCND:MXN00013084",
      "elevationUnit": "METERS",
      "longitude": -99.3
    },
    {
      "elevation": 2599.9,
      "mindate": "1953-02-01",
      "maxdate": "2012-09-30",
      "latitude": 19.7167,
      "name": "PRESA TEZOYO, MX",
      "datacoverage": 0.9794,
      "id": "GHCND:MXN00013085",
      "elevationUnit": "METERS",
      "longitude": -98.3833
    },
    {
      "elevation": 2080,
      "mindate": "1973-08-25",
      "maxdate": "1980-06-30",
      "latitude": 20.15,
      "name": "SANTIAGO TEZONTLALE CFE, MX",
      "datacoverage": 0.5,
      "id": "GHCND:MXN00013086",
      "elevationUnit": "METERS",
      "longitude": -99.0833
    },
    {
      "elevation": 1300,
      "mindate": "1954-04-01",
      "maxdate": "2012-12-31",
      "latitude": 20.6333,
      "name": "SAN CRISTOBAL, MX",
      "datacoverage": 0.9838,
      "id": "GHCND:MXN00013087",
      "elevationUnit": "METERS",
      "longitude": -98.8167
    },
    {
      "elevation": 1653.8,
      "mindate": "1972-09-16",
      "maxdate": "2011-12-25",
      "latitude": 20.55,
      "name": "TASQUILLO, MX",
      "datacoverage": 0.9977,
      "id": "GHCND:MXN00013088",
      "elevationUnit": "METERS",
      "longitude": -99.3
    },
    {
      "elevation": 2149.8,
      "mindate": "1953-02-01",
      "maxdate": "2012-07-30",
      "latitude": 19.9,
      "name": "TEPEJI DEL RIO, MX",
      "datacoverage": 0.9785,
      "id": "GHCND:MXN00013089",
      "elevationUnit": "METERS",
      "longitude": -99.3333
    },
    {
      "elevation": 1999.8,
      "mindate": "1966-05-01",
      "maxdate": "2012-07-31",
      "latitude": 20.1833,
      "name": "RIO SALADO, MX",
      "datacoverage": 0.9578,
      "id": "GHCND:MXN00013090",
      "elevationUnit": "METERS",
      "longitude": -99.25
    },
    {
      "elevation": 2287.8,
      "mindate": "1977-03-01",
      "maxdate": "2011-12-31",
      "latitude": 19.8167,
      "name": "TIZAYUCA DGE, MX",
      "datacoverage": 0.5823,
      "id": "GHCND:MXN00013091",
      "elevationUnit": "METERS",
      "longitude": -98.95
    },
    {
      "elevation": 2059.8,
      "mindate": "1950-01-01",
      "maxdate": "2005-09-30",
      "latitude": 20.05,
      "name": "TULA DGE, MX",
      "datacoverage": 0.958,
      "id": "GHCND:MXN00013092",
      "elevationUnit": "METERS",
      "longitude": -99.3333
    },
    {
      "elevation": 1382.9,
      "mindate": "1951-04-01",
      "maxdate": "2012-04-30",
      "latitude": 20.4667,
      "name": "VENADOS, MX",
      "datacoverage": 0.9703,
      "id": "GHCND:MXN00013093",
      "elevationUnit": "METERS",
      "longitude": -98.6667
    },
    {
      "elevation": 2240,
      "mindate": "1974-11-01",
      "maxdate": "1990-12-31",
      "latitude": 20.15,
      "name": "ACAXOCHITLAN, MX",
      "datacoverage": 0.8627,
      "id": "GHCND:MXN00013094",
      "elevationUnit": "METERS",
      "longitude": -98.2
    },
    {
      "elevation": 2199.7,
      "mindate": "1974-01-01",
      "maxdate": "2012-12-31",
      "latitude": 20.3333,
      "name": "AGUA BLANCA, MX",
      "datacoverage": 0.9117,
      "id": "GHCND:MXN00013095",
      "elevationUnit": "METERS",
      "longitude": -98.35
    },
    {
      "elevation": 2112,
      "mindate": "1974-04-07",
      "maxdate": "2012-09-29",
      "latitude": 20.2667,
      "name": "ATOTONILCO, MX",
      "datacoverage": 0.9977,
      "id": "GHCND:MXN00013096",
      "elevationUnit": "METERS",
      "longitude": -98.65
    },
    {
      "elevation": 1853.8,
      "mindate": "1974-02-19",
      "maxdate": "2012-04-30",
      "latitude": 20.3167,
      "name": "CHILCUAUTLA, MX",
      "datacoverage": 0.9728,
      "id": "GHCND:MXN00013097",
      "elevationUnit": "METERS",
      "longitude": -99.2167
    },
    {
      "elevation": 2099.8,
      "mindate": "1974-04-07",
      "maxdate": "2012-09-30",
      "latitude": 20.2,
      "name": "HUASCA, MX",
      "datacoverage": 0.9945,
      "id": "GHCND:MXN00013098",
      "elevationUnit": "METERS",
      "longitude": -98.5667
    },
    {
      "elevation": 2155.9,
      "mindate": "1974-08-16",
      "maxdate": "2012-09-30",
      "latitude": 20.2333,
      "name": "METEPEC, MX",
      "datacoverage": 0.9999,
      "id": "GHCND:MXN00013099",
      "elevationUnit": "METERS",
      "longitude": -98.3167
    },
    {
      "elevation": 2416.8,
      "mindate": "1974-04-01",
      "maxdate": "2012-03-31",
      "latitude": 20.1667,
      "name": "OMITLAN, MX",
      "datacoverage": 0.93,
      "id": "GHCND:MXN00013100",
      "elevationUnit": "METERS",
      "longitude": -98.6333
    },
    {
      "elevation": 2281.7,
      "mindate": "1974-01-01",
      "maxdate": "1978-12-31",
      "latitude": 20.2333,
      "name": "SAN BARTOLO, MX",
      "datacoverage": 0.8001,
      "id": "GHCND:MXN00013101",
      "elevationUnit": "METERS",
      "longitude": -99.4833
    },
    {
      "elevation": 358.7,
      "mindate": "1977-08-13",
      "maxdate": "1987-12-31",
      "latitude": 21.15,
      "name": "CHAPULHUACAN, MX",
      "datacoverage": 0.9515,
      "id": "GHCND:MXN00013104",
      "elevationUnit": "METERS",
      "longitude": -98.9
    },
    {
      "elevation": 2049.8,
      "mindate": "1977-08-10",
      "maxdate": "2012-03-31",
      "latitude": 20.6,
      "name": "CARDONAL, MX",
      "datacoverage": 0.9275,
      "id": "GHCND:MXN00013105",
      "elevationUnit": "METERS",
      "longitude": -99.1
    },
    {
      "elevation": 2159.8,
      "mindate": "1977-04-01",
      "maxdate": "1989-03-31",
      "latitude": 20.0833,
      "name": "AJACUBA SMN, MX",
      "datacoverage": 0.9991,
      "id": "GHCND:MXN00013106",
      "elevationUnit": "METERS",
      "longitude": -99.1
    },
    {
      "elevation": 1993.7,
      "mindate": "1976-11-01",
      "maxdate": "1980-08-31",
      "latitude": 20.2667,
      "name": "E.T.A. 285 SAN SALVADOR, MX",
      "datacoverage": 0.8914,
      "id": "GHCND:MXN00013108",
      "elevationUnit": "METERS",
      "longitude": -99.0167
    },
    {
      "elevation": 1999.8,
      "mindate": "1977-09-01",
      "maxdate": "2012-12-31",
      "latitude": 20.3667,
      "name": "E.T.A. 385 SANTIAGO DE ANAYA, MX",
      "datacoverage": 0.9097,
      "id": "GHCND:MXN00013109",
      "elevationUnit": "METERS",
      "longitude": -98.95
    },
    {
      "elevation": 2099.8,
      "mindate": "1980-05-01",
      "maxdate": "2012-03-31",
      "latitude": 20.0833,
      "name": "AJACUBA DGE, MX",
      "datacoverage": 0.9904,
      "id": "GHCND:MXN00013111",
      "elevationUnit": "METERS",
      "longitude": -99.1167
    },
    {
      "elevation": 2915.7,
      "mindate": "1980-01-01",
      "maxdate": "2012-12-31",
      "latitude": 20.2,
      "name": "MINERAL DEL CHICO, MX",
      "datacoverage": 0.9467,
      "id": "GHCND:MXN00013112",
      "elevationUnit": "METERS",
      "longitude": -98.7167
    },
    {
      "elevation": 2811.8,
      "mindate": "1940-02-01",
      "maxdate": "2012-08-31",
      "latitude": 20.1333,
      "name": "REAL DEL MONTE, MX",
      "datacoverage": 0.6939,
      "id": "GHCND:MXN00013115",
      "elevationUnit": "METERS",
      "longitude": -98.6667
    },
    {
      "elevation": 2309.8,
      "mindate": "1980-05-01",
      "maxdate": "2012-09-30",
      "latitude": 20.15,
      "name": "EL ZEMBO, MX",
      "datacoverage": 0.9845,
      "id": "GHCND:MXN00013116",
      "elevationUnit": "METERS",
      "longitude": -98.55
    },
    {
      "elevation": 2359.8,
      "mindate": "1980-05-01",
      "maxdate": "2010-02-27",
      "latitude": 20.1,
      "name": "SAN AGUSTIN TLAXIACA ALTO PAN, MX",
      "datacoverage": 0.3799,
      "id": "GHCND:MXN00013117",
      "elevationUnit": "METERS",
      "longitude": -98.8833
    },
    {
      "elevation": 306.9,
      "mindate": "1978-01-07",
      "maxdate": "1988-12-31",
      "latitude": 21.0333,
      "name": "HUAUTLA SMN, MX",
      "datacoverage": 0.6661,
      "id": "GHCND:MXN00013118",
      "elevationUnit": "METERS",
      "longitude": -98.2833
    },
    {
      "elevation": 1779.7,
      "mindate": "1980-11-01",
      "maxdate": "2010-12-31",
      "latitude": 20.5,
      "name": "CAPULA, MX",
      "datacoverage": 0.5055,
      "id": "GHCND:MXN00013120",
      "elevationUnit": "METERS",
      "longitude": -99.1333
    },
    {
      "elevation": 1691.9,
      "mindate": "1980-10-01",
      "maxdate": "2011-07-31",
      "latitude": 20.3167,
      "name": "SANTA MARIA AMAJAC, MX",
      "datacoverage": 0.9994,
      "id": "GHCND:MXN00013121",
      "elevationUnit": "METERS",
      "longitude": -98.7333
    },
    {
      "elevation": 1859.9,
      "mindate": "1979-10-01",
      "maxdate": "2012-09-30",
      "latitude": 20.4167,
      "name": "PRESA JAVIER ROJO GOMEZ, MX",
      "datacoverage": 0.4527,
      "id": "GHCND:MXN00013122",
      "elevationUnit": "METERS",
      "longitude": -99.3667
    },
    {
      "elevation": 2400,
      "mindate": "1980-04-01",
      "maxdate": "1988-12-31",
      "latitude": 20.1333,
      "name": "PRESA EL DURAZNO, MX",
      "datacoverage": 0.9991,
      "id": "GHCND:MXN00013123",
      "elevationUnit": "METERS",
      "longitude": -98.85
    },
    {
      "elevation": 1845,
      "mindate": "1980-07-01",
      "maxdate": "1983-12-31",
      "latitude": 20.4833,
      "name": "PRESA FELIPE ANGELES, MX",
      "datacoverage": 0.9758,
      "id": "GHCND:MXN00013124",
      "elevationUnit": "METERS",
      "longitude": -99.1167
    },
    {
      "elevation": 1874.8,
      "mindate": "1980-06-01",
      "maxdate": "2012-09-30",
      "latitude": 20.4,
      "name": "ALFAJAYUCAN DGE, MX",
      "datacoverage": 0.9672,
      "id": "GHCND:MXN00013125",
      "elevationUnit": "METERS",
      "longitude": -99.3333
    },
    {
      "elevation": 2609.7,
      "mindate": "1981-01-01",
      "maxdate": "2012-12-31",
      "latitude": 19.95,
      "name": "EL ASERRADERO, MX",
      "datacoverage": 0.7925,
      "id": "GHCND:MXN00013127",
      "elevationUnit": "METERS",
      "longitude": -98.3167
    },
    {
      "elevation": 2354.9,
      "mindate": "1982-01-01",
      "maxdate": "2012-10-31",
      "latitude": 20.1167,
      "name": "SAN AGUSTIN TLAXIACA OCAVM, MX",
      "datacoverage": 0.6394,
      "id": "GHCND:MXN00013128",
      "elevationUnit": "METERS",
      "longitude": -98.8833
    },
    {
      "elevation": 2369.8,
      "mindate": "1981-01-01",
      "maxdate": "2012-10-31",
      "latitude": 19.8667,
      "name": "SAN AGUSTIN ZAPOTLAN, MX",
      "datacoverage": 0.7199,
      "id": "GHCND:MXN00013129",
      "elevationUnit": "METERS",
      "longitude": -98.7167
    },
    {
      "elevation": 2190,
      "mindate": "1981-05-01",
      "maxdate": "2012-12-31",
      "latitude": 20.15,
      "name": "SANTA MARIA ASUNCION, MX",
      "datacoverage": 0.6323,
      "id": "GHCND:MXN00013130",
      "elevationUnit": "METERS",
      "longitude": -98.2667
    },
    {
      "elevation": 2429.9,
      "mindate": "1981-05-01",
      "maxdate": "2011-12-31",
      "latitude": 19.9833,
      "name": "SANTIAGO TLAJOMULCO, MX",
      "datacoverage": 0.4958,
      "id": "GHCND:MXN00013131",
      "elevationUnit": "METERS",
      "longitude": -98.9167
    },
    {
      "elevation": 2629.8,
      "mindate": "1981-05-01",
      "maxdate": "2012-11-30",
      "latitude": 19.8,
      "name": "EL TEPOZAN, MX",
      "datacoverage": 0.7207,
      "id": "GHCND:MXN00013132",
      "elevationUnit": "METERS",
      "longitude": -98.25
    },
    {
      "elevation": 2489.9,
      "mindate": "1981-01-01",
      "maxdate": "2012-12-31",
      "latitude": 19.9333,
      "name": "SAN PEDRO TLAQUILPAN, MX",
      "datacoverage": 0.7969,
      "id": "GHCND:MXN00013133",
      "elevationUnit": "METERS",
      "longitude": -98.75
    },
    {
      "elevation": 155.8,
      "mindate": "1981-07-01",
      "maxdate": "2011-12-31",
      "latitude": 21.0167,
      "name": "ATLAPEXCO, MX",
      "datacoverage": 0.8699,
      "id": "GHCND:MXN00013135",
      "elevationUnit": "METERS",
      "longitude": -98.3333
    },
    {
      "elevation": 293.8,
      "mindate": "1981-06-01",
      "maxdate": "2011-07-31",
      "latitude": 21.05,
      "name": "TEHUATLAN, MX",
      "datacoverage": 0.6899,
      "id": "GHCND:MXN00013137",
      "elevationUnit": "METERS",
      "longitude": -98.4833
    },
    {
      "elevation": 2489.9,
      "mindate": "1982-01-01",
      "maxdate": "2012-12-31",
      "latitude": 19.65,
      "name": "EMILIANO ZAPATA, MX",
      "datacoverage": 0.7204,
      "id": "GHCND:MXN00013138",
      "elevationUnit": "METERS",
      "longitude": -98.55
    },
    {
      "elevation": 515.7,
      "mindate": "1981-05-01",
      "maxdate": "2011-12-31",
      "latitude": 21.0167,
      "name": "HUAUTLA DGE, MX",
      "datacoverage": 0.9979,
      "id": "GHCND:MXN00013139",
      "elevationUnit": "METERS",
      "longitude": -98.2833
    },
    {
      "elevation": 219.8,
      "mindate": "1982-01-01",
      "maxdate": "2011-12-31",
      "latitude": 21.1167,
      "name": "JALTOCAN, MX",
      "datacoverage": 0.8668,
      "id": "GHCND:MXN00013140",
      "elevationUnit": "METERS",
      "longitude": -98.5333
    },
    {
      "elevation": 129.8,
      "mindate": "1982-01-01",
      "maxdate": "2012-03-31",
      "latitude": 21.2833,
      "name": "LA LAGUNA, MX",
      "datacoverage": 0.9986,
      "id": "GHCND:MXN00013141",
      "elevationUnit": "METERS",
      "longitude": -98.5833
    },
    {
      "elevation": 439.8,
      "mindate": "1982-07-01",
      "maxdate": "2011-11-30",
      "latitude": 20.45,
      "name": "HUEHUETLA, MX",
      "datacoverage": 0.6182,
      "id": "GHCND:MXN00013144",
      "elevationUnit": "METERS",
      "longitude": -98.0667
    },
    {
      "elevation": 2201.9,
      "mindate": "1983-06-01",
      "maxdate": "2012-03-31",
      "latitude": 20.6667,
      "name": "EL TIXQUI, MX",
      "datacoverage": 0.845,
      "id": "GHCND:MXN00013147",
      "elevationUnit": "METERS",
      "longitude": -99.0333
    },
    {
      "elevation": 2080.9,
      "mindate": "1983-07-01",
      "maxdate": "2012-03-31",
      "latitude": 20.6333,
      "name": "XITHA, MX",
      "datacoverage": 0.9593,
      "id": "GHCND:MXN00013148",
      "elevationUnit": "METERS",
      "longitude": -99.3333
    },
    {
      "elevation": 2758.7,
      "mindate": "1986-05-01",
      "maxdate": "2011-11-30",
      "latitude": 20.15,
      "name": "EL CEREZO, MX",
      "datacoverage": 0.9608,
      "id": "GHCND:MXN00013150",
      "elevationUnit": "METERS",
      "longitude": -98.7167
    },
    {
      "elevation": 2091.8,
      "mindate": "1986-01-01",
      "maxdate": "2012-09-30",
      "latitude": 20.4333,
      "name": "EL ENCINO, MX",
      "datacoverage": 0.9884,
      "id": "GHCND:MXN00013151",
      "elevationUnit": "METERS",
      "longitude": -98.9167
    },
    {
      "elevation": 1879.7,
      "mindate": "1986-03-01",
      "maxdate": "2012-04-30",
      "latitude": 20.4667,
      "name": "EL POTRERO, MX",
      "datacoverage": 0.9982,
      "id": "GHCND:MXN00013152",
      "elevationUnit": "METERS",
      "longitude": -99.7333
    },
    {
      "elevation": 2505.8,
      "mindate": "1988-01-01",
      "maxdate": "2012-09-30",
      "latitude": 20.2833,
      "name": "MAGDALENA, MX",
      "datacoverage": 0.8925,
      "id": "GHCND:MXN00013154",
      "elevationUnit": "METERS",
      "longitude": -98.85
    },
    {
      "elevation": 2425,
      "mindate": "1986-02-01",
      "maxdate": "2011-12-31",
      "latitude": 20.2,
      "name": "MARAVILLAS, MX",
      "datacoverage": 0.7942,
      "id": "GHCND:MXN00013155",
      "elevationUnit": "METERS",
      "longitude": -99.5833
    },
    {
      "elevation": 2199.7,
      "mindate": "1986-02-01",
      "maxdate": "2010-11-30",
      "latitude": 20.3667,
      "name": "TLAXCALILLA, MX",
      "datacoverage": 0.9228,
      "id": "GHCND:MXN00013156",
      "elevationUnit": "METERS",
      "longitude": -99.8
    },
    {
      "elevation": 1689.8,
      "mindate": "1991-01-01",
      "maxdate": "2001-12-31",
      "latitude": 20.7167,
      "name": "LAS ADJUNTAS, MX",
      "datacoverage": 0.6363,
      "id": "GHCND:MXN00013158",
      "elevationUnit": "METERS",
      "longitude": -99.4
    },
    {
      "elevation": 2359.8,
      "mindate": "1996-10-12",
      "maxdate": "2012-07-31",
      "latitude": 20.15,
      "name": "TORNACUXTLA, MX",
      "datacoverage": 0.9104,
      "id": "GHCND:MXN00013160",
      "elevationUnit": "METERS",
      "longitude": -98.8667
    },
    {
      "elevation": 2444.8,
      "mindate": "2005-01-01",
      "maxdate": "2012-01-31",
      "latitude": 19.8333,
      "name": "SANTIAGO TEPEYAHUALCO, MX",
      "datacoverage": 0.9991,
      "id": "GHCND:MXN00013162",
      "elevationUnit": "METERS",
      "longitude": -98.6667
    },
    {
      "elevation": 299.9,
      "mindate": "2007-05-01",
      "maxdate": "2011-12-31",
      "latitude": 21.1333,
      "name": "CAHUAZAS, MX",
      "datacoverage": 1,
      "id": "GHCND:MXN00013164",
      "elevationUnit": "METERS",
      "longitude": -98.85
    },
    {
      "elevation": 2389.9,
      "mindate": "2007-05-01",
      "maxdate": "2012-11-30",
      "latitude": 19.95,
      "name": "LA TRINIDAD, MX",
      "datacoverage": 1,
      "id": "GHCND:MXN00013165",
      "elevationUnit": "METERS",
      "longitude": -98.7
    },
    {
      "elevation": 2059.8,
      "mindate": "2007-05-01",
      "maxdate": "2010-05-31",
      "latitude": 20.1167,
      "name": "TLAHUELILPAN, MX",
      "datacoverage": 0.9166,
      "id": "GHCND:MXN00013166",
      "elevationUnit": "METERS",
      "longitude": -99.2167
    },
    {
      "elevation": 1677.9,
      "mindate": "1961-01-01",
      "maxdate": "1973-12-31",
      "latitude": 20.7833,
      "name": "ACATIC SMN, MX",
      "datacoverage": 0.9195,
      "id": "GHCND:MXN00014001",
      "elevationUnit": "METERS",
      "longitude": -102.9167
    },
    {
      "elevation": 1369.8,
      "mindate": "1961-01-01",
      "maxdate": "2012-01-31",
      "latitude": 20.4167,
      "name": "ACATLAN DE JUAREZ, MX",
      "datacoverage": 0.956,
      "id": "GHCND:MXN00014002",
      "elevationUnit": "METERS",
      "longitude": -103.5833
    },
    {
      "elevation": 1809.9,
      "mindate": "1961-01-01",
      "maxdate": "1988-07-31",
      "latitude": 21.35,
      "name": "AGOSTADERO, MX",
      "datacoverage": 0.9802,
      "id": "GHCND:MXN00014004",
      "elevationUnit": "METERS",
      "longitude": -102.3333
    },
    {
      "elevation": 819.9,
      "mindate": "1961-01-01",
      "maxdate": "1990-04-30",
      "latitude": 19.0833,
      "name": "AHUIJULLO, MX",
      "datacoverage": 0.9493,
      "id": "GHCND:MXN00014005",
      "elevationUnit": "METERS",
      "longitude": -103.1
    },
    {
      "elevation": 1745,
      "mindate": "1940-07-10",
      "maxdate": "2012-01-31",
      "latitude": 21.55,
      "name": "AJOJUCAR, MX",
      "datacoverage": 0.972,
      "id": "GHCND:MXN00014006",
      "elevationUnit": "METERS",
      "longitude": -102.4333
    },
    {
      "elevation": 419.7,
      "mindate": "1969-02-01",
      "maxdate": "1999-01-07",
      "latitude": 19.9,
      "name": "ACIHUATL, MX",
      "datacoverage": 0.6587,
      "id": "GHCND:MXN00014007",
      "elevationUnit": "METERS",
      "longitude": -104.7167
    },
    {
      "elevation": 1439,
      "mindate": "1962-04-11",
      "maxdate": "1992-12-31",
      "latitude": 20.0167,
      "name": "AMACUECA, MX",
      "datacoverage": 0.9378,
      "id": "GHCND:MXN00014008",
      "elevationUnit": "METERS",
      "longitude": -103.6
    },
    {
      "elevation": 1229.9,
      "mindate": "1923-02-01",
      "maxdate": "2012-01-31",
      "latitude": 20.5333,
      "name": "AMECA, MX",
      "datacoverage": 0.7937,
      "id": "GHCND:MXN00014009",
      "elevationUnit": "METERS",
      "longitude": -104.0333
    },
    {
      "elevation": 1480.7,
      "mindate": "1939-04-01",
      "maxdate": "1989-02-28",
      "latitude": 20.7833,
      "name": "ANTONIO ESCOBEDO SMN, MX",
      "datacoverage": 0.9048,
      "id": "GHCND:MXN00014010",
      "elevationUnit": "METERS",
      "longitude": -103.95
    },
    {
      "elevation": 4.9,
      "mindate": "1961-07-01",
      "maxdate": "2012-01-31",
      "latitude": 19.3,
      "name": "APAZULCO, MX",
      "datacoverage": 0.9538,
      "id": "GHCND:MXN00014011",
      "elevationUnit": "METERS",
      "longitude": -104.8833
    },
    {
      "elevation": 1602.9,
      "mindate": "1959-10-01",
      "maxdate": "1979-12-31",
      "latitude": 20.7667,
      "name": "EL ARENAL SMN, MX",
      "datacoverage": 0.8744,
      "id": "GHCND:MXN00014012",
      "elevationUnit": "METERS",
      "longitude": -103.6833
    },
    {
      "elevation": 2319.8,
      "mindate": "1945-01-01",
      "maxdate": "2004-09-30",
      "latitude": 20.1333,
      "name": "ATEMAJAC DE BRIZUELA, MX",
      "datacoverage": 0.9712,
      "id": "GHCND:MXN00014013",
      "elevationUnit": "METERS",
      "longitude": -103.7167
    },
    {
      "elevation": 1478.9,
      "mindate": "1945-07-01",
      "maxdate": "1991-04-30",
      "latitude": 20.2833,
      "name": "ATENGO SMN, MX",
      "datacoverage": 0.8704,
      "id": "GHCND:MXN00014014",
      "elevationUnit": "METERS",
      "longitude": -104.25
    },
    {
      "elevation": 1300,
      "mindate": "1950-10-01",
      "maxdate": "2000-01-31",
      "latitude": 20.4,
      "name": "ATENGUILLO, MX",
      "datacoverage": 0.896,
      "id": "GHCND:MXN00014015",
      "elevationUnit": "METERS",
      "longitude": -104.4833
    },
    {
      "elevation": 1519.7,
      "mindate": "1951-01-01",
      "maxdate": "2012-01-31",
      "latitude": 20.3833,
      "name": "ATEQUIZA, MX",
      "datacoverage": 0.9891,
      "id": "GHCND:MXN00014016",
      "elevationUnit": "METERS",
      "longitude": -103.1333
    },
    {
      "elevation": 1599.9,
      "mindate": "1942-09-22",
      "maxdate": "2012-01-31",
      "latitude": 20.55,
      "name": "ATOTONILCO EL ALTO, MX",
      "datacoverage": 0.9006,
      "id": "GHCND:MXN00014017",
      "elevationUnit": "METERS",
      "longitude": -102.5
    },
    {
      "elevation": 1350,
      "mindate": "1943-08-01",
      "maxdate": "2012-01-31",
      "latitude": 20,
      "name": "ATOYAC, MX",
      "datacoverage": 0.9592,
      "id": "GHCND:MXN00014018",
      "elevationUnit": "METERS",
      "longitude": -103.5
    },
    {
      "elevation": 899.8,
      "mindate": "1945-10-01",
      "maxdate": "2000-11-30",
      "latitude": 19.7667,
      "name": "AUTLAN, MX",
      "datacoverage": 0.8671,
      "id": "GHCND:MXN00014019",
      "elevationUnit": "METERS",
      "longitude": -104.3667
    },
    {
      "elevation": 1610,
      "mindate": "1948-04-01",
      "maxdate": "1990-08-31",
      "latitude": 20.5333,
      "name": "AYO EL CHICO, MX",
      "datacoverage": 0.9131,
      "id": "GHCND:MXN00014020",
      "elevationUnit": "METERS",
      "longitude": -102.3333
    },
    {
      "elevation": 670,
      "mindate": "1961-07-01",
      "maxdate": "1989-12-31",
      "latitude": 19.4667,
      "name": "AYOTITLAN, MX",
      "datacoverage": 0.9098,
      "id": "GHCND:MXN00014021",
      "elevationUnit": "METERS",
      "longitude": -104.1833
    },
    {
      "elevation": 837.9,
      "mindate": "1993-01-01",
      "maxdate": "2007-09-30",
      "latitude": 19.3333,
      "name": "CLAVELLINAS, MX",
      "datacoverage": 1,
      "id": "GHCND:MXN00014022",
      "elevationUnit": "METERS",
      "longitude": -103.4167
    },
    {
      "elevation": 962.9,
      "mindate": "1947-02-01",
      "maxdate": "2012-01-31",
      "latitude": 21.8167,
      "name": "BOLAOS, MX",
      "datacoverage": 0.9821,
      "id": "GHCND:MXN00014023",
      "elevationUnit": "METERS",
      "longitude": -103.7833
    },
    {
      "elevation": 132,
      "mindate": "1954-08-01",
      "maxdate": "2012-01-31",
      "latitude": 19.9833,
      "name": "CAJON DE PEA, MX",
      "datacoverage": 0.8956,
      "id": "GHCND:MXN00014024",
      "elevationUnit": "METERS",
      "longitude": -105.1167
    },
    {
      "elevation": 1799.8,
      "mindate": "1961-01-01",
      "maxdate": "2011-05-31",
      "latitude": 21.4833,
      "name": "CALERA, MX",
      "datacoverage": 0.9769,
      "id": "GHCND:MXN00014025",
      "elevationUnit": "METERS",
      "longitude": -102.5833
    },
    {
      "elevation": 1729.7,
      "mindate": "1957-07-01",
      "maxdate": "2012-01-31",
      "latitude": 22.05,
      "name": "CASA LLANTA, MX",
      "datacoverage": 0.9393,
      "id": "GHCND:MXN00014026",
      "elevationUnit": "METERS",
      "longitude": -103.35
    },
    {
      "elevation": 310,
      "mindate": "1953-10-08",
      "maxdate": "2003-12-20",
      "latitude": 19.6167,
      "name": "CASIMIRO CASTILLO, MX",
      "datacoverage": 0.8469,
      "id": "GHCND:MXN00014027",
      "elevationUnit": "METERS",
      "longitude": -104.45
    },
    {
      "elevation": 19.8,
      "mindate": "1946-12-01",
      "maxdate": "2012-01-31",
      "latitude": 19.2333,
      "name": "CIHUATLAN DGE, MX",
      "datacoverage": 0.8487,
      "id": "GHCND:MXN00014028",
      "elevationUnit": "METERS",
      "longitude": -104.55
    },
    {
      "elevation": 1638.9,
      "mindate": "1970-01-01",
      "maxdate": "2012-01-31",
      "latitude": 19.9667,
      "name": "CONCEPCION DE BUENOS AIRES, MX",
      "datacoverage": 0.9581,
      "id": "GHCND:MXN00014029",
      "elevationUnit": "METERS",
      "longitude": -103.25
    },
    {
      "elevation": 1514.9,
      "mindate": "1926-07-01",
      "maxdate": "2005-11-30",
      "latitude": 19.7167,
      "name": "CIUDAD GUZMAN OBS, MX",
      "datacoverage": 0.4585,
      "id": "GHCND:MXN00014030",
      "elevationUnit": "METERS",
      "longitude": -103.45
    },
    {
      "elevation": 1369.8,
      "mindate": "1946-06-01",
      "maxdate": "1991-06-30",
      "latitude": 19.75,
      "name": "CIUDAD VENUSTIANO CARRANZA, MX",
      "datacoverage": 0.9311,
      "id": "GHCND:MXN00014031",
      "elevationUnit": "METERS",
      "longitude": -103.75
    },
    {
      "elevation": 2243.9,
      "mindate": "1963-02-14",
      "maxdate": "2011-12-31",
      "latitude": 21.3167,
      "name": "COMANJA DE CORONA, MX",
      "datacoverage": 0.8187,
      "id": "GHCND:MXN00014033",
      "elevationUnit": "METERS",
      "longitude": -101.7
    },
    {
      "elevation": 1159.8,
      "mindate": "1970-12-01",
      "maxdate": "2012-01-31",
      "latitude": 19.75,
      "name": "CONTLA, MX",
      "datacoverage": 0.988,
      "id": "GHCND:MXN00014034",
      "elevationUnit": "METERS",
      "longitude": -103.1667
    }
  ]
}
