{
  "metadata": {
    "resultset": {
      "offset": 3200,
      "count": 154115,
      "limit": 100
    }
  },
  "results": [
    {
      "elevation": 1603.2,
      "mindate": "1995-03-01",
      "maxdate": "1998-12-01",
      "latitude": 40.72556,
      "name": "WELLINGTON 5 WNW, CO US",
      "datacoverage": 0.9987,
      "id": "COOP:058907",
      "elevationUnit": "METERS",
      "longitude": -105.10972
    },
    {
      "elevation": 2399.7,
      "mindate": "1932-02-01",
      "maxdate": "2015-11-01",
      "latitude": 38.13137,
      "name": "WESTCLIFFE, CO US",
      "datacoverage": 0.9901,
      "id": "COOP:058931",
      "elevationUnit": "METERS",
      "longitude": -105.466
    },
    {
      "elevation": 2379,
      "mindate": "1948-08-01",
      "maxdate": "1959-08-30",
      "latitude": 39.13333,
      "name": "WESTCREEK, CO US",
      "datacoverage": 0.9742,
      "id": "COOP:058939",
      "elevationUnit": "METERS",
      "longitude": -105.11667
    },
    {
      "elevation": 2532,
      "mindate": "1950-06-01",
      "maxdate": "1957-10-01",
      "latitude": 39.1,
      "name": "WEST MUDDY RANGER ST, CO US",
      "datacoverage": 0.4156,
      "id": "COOP:058963",
      "elevationUnit": "METERS",
      "longitude": -107.51667
    },
    {
      "elevation": 2007.1,
      "mindate": "1948-01-01",
      "maxdate": "1968-07-01",
      "latitude": 38.21667,
      "name": "WETMORE 2 S, CO US",
      "datacoverage": 0.9231,
      "id": "COOP:058986",
      "elevationUnit": "METERS",
      "longitude": -105.1
    },
    {
      "elevation": 2377.4,
      "mindate": "1949-11-01",
      "maxdate": "1953-06-01",
      "latitude": 38.13333,
      "name": "WETMORE 8 SW, CO US",
      "datacoverage": 1,
      "id": "COOP:058988",
      "elevationUnit": "METERS",
      "longitude": -105.2
    },
    {
      "elevation": 2244.9,
      "mindate": "1968-08-01",
      "maxdate": "1974-12-01",
      "latitude": 38.13333,
      "name": "WETMORE 9 S, CO US",
      "datacoverage": 0.9868,
      "id": "COOP:058990",
      "elevationUnit": "METERS",
      "longitude": -105.08333
    },
    {
      "elevation": 1418.2,
      "mindate": "2011-01-01",
      "maxdate": "2015-11-01",
      "latitude": 38.2798,
      "name": "WEATHER FORECAST OFFICE PUEBLO, CO US",
      "datacoverage": 1,
      "id": "COOP:058992",
      "elevationUnit": "METERS",
      "longitude": -104.5215
    },
    {
      "elevation": 1644.1,
      "mindate": "1975-04-01",
      "maxdate": "1983-07-01",
      "latitude": 39.78333,
      "name": "WHEAT RIDGE, CO US",
      "datacoverage": 0.0169,
      "id": "COOP:058994",
      "elevationUnit": "METERS",
      "longitude": -105.11667
    },
    {
      "elevation": 1644.4,
      "mindate": "1981-02-01",
      "maxdate": "2015-11-01",
      "latitude": 39.77382,
      "name": "WHEAT RIDGE 2, CO US",
      "datacoverage": 0.9666,
      "id": "COOP:058995",
      "elevationUnit": "METERS",
      "longitude": -105.11424
    },
    {
      "elevation": 1437.1,
      "mindate": "1948-08-01",
      "maxdate": "2014-01-01",
      "latitude": 37.8673,
      "name": "WHITE ROCK, CO US",
      "datacoverage": 0.9742,
      "id": "COOP:058997",
      "elevationUnit": "METERS",
      "longitude": -104.1138
    },
    {
      "elevation": 1388.1,
      "mindate": "1941-08-01",
      "maxdate": "1947-02-01",
      "latitude": 40.2,
      "name": "WIGGINS 3 SSE, CO US",
      "datacoverage": 0.8364,
      "id": "COOP:059021",
      "elevationUnit": "METERS",
      "longitude": -104.06667
    },
    {
      "elevation": 1437.1,
      "mindate": "1960-10-01",
      "maxdate": "1971-06-01",
      "latitude": 40.15,
      "name": "WIGGINS 7 SW, CO US",
      "datacoverage": 0.9689,
      "id": "COOP:059025",
      "elevationUnit": "METERS",
      "longitude": -104.18333
    },
    {
      "elevation": 1798.6,
      "mindate": "1941-11-01",
      "maxdate": "1983-09-01",
      "latitude": 38.91667,
      "name": "WILCOX RANCH, CO US",
      "datacoverage": 0.8671,
      "id": "COOP:059045",
      "elevationUnit": "METERS",
      "longitude": -107.51667
    },
    {
      "elevation": 1418.5,
      "mindate": "2004-03-01",
      "maxdate": "2015-11-01",
      "latitude": 38.90264,
      "name": "WILD HORSE 6 N, CO US",
      "datacoverage": 0.9928,
      "id": "COOP:059058",
      "elevationUnit": "METERS",
      "longitude": -103.0192
    },
    {
      "elevation": 1336.5,
      "mindate": "2004-03-01",
      "maxdate": "2010-01-01",
      "latitude": 38.6675,
      "name": "WILD HORSE 11 SSE, CO US",
      "datacoverage": 0.9428,
      "id": "COOP:059060",
      "elevationUnit": "METERS",
      "longitude": -102.99361
    },
    {
      "elevation": 2328.4,
      "mindate": "1982-06-01",
      "maxdate": "2015-11-01",
      "latitude": 40.03719,
      "name": "WILLIAMS FORK DAM, CO US",
      "datacoverage": 0.995,
      "id": "COOP:059096",
      "elevationUnit": "METERS",
      "longitude": -106.20523
    },
    {
      "elevation": 2211,
      "mindate": "1931-01-01",
      "maxdate": "1948-08-01",
      "latitude": 40.3,
      "name": "WILLOW CREEK 4 SE, CO US",
      "datacoverage": 0.8773,
      "id": "COOP:059103",
      "elevationUnit": "METERS",
      "longitude": -107.26667
    },
    {
      "elevation": 1457.2,
      "mindate": "1941-07-01",
      "maxdate": "1990-03-01",
      "latitude": 40.46667,
      "name": "WINDSOR, CO US",
      "datacoverage": 0.9829,
      "id": "COOP:059147",
      "elevationUnit": "METERS",
      "longitude": -104.9
    },
    {
      "elevation": 2780.7,
      "mindate": "1942-11-01",
      "maxdate": "2015-11-01",
      "latitude": 39.88767,
      "name": "WINTER PARK, CO US",
      "datacoverage": 0.9932,
      "id": "COOP:059175",
      "elevationUnit": "METERS",
      "longitude": -105.76126
    },
    {
      "elevation": 3243.1,
      "mindate": "1957-12-01",
      "maxdate": "2001-11-01",
      "latitude": 37.47444,
      "name": "WOLF CREEK PASS 1 E, CO US",
      "datacoverage": 0.9659,
      "id": "COOP:059181",
      "elevationUnit": "METERS",
      "longitude": -106.79056
    },
    {
      "elevation": 2876.1,
      "mindate": "1936-08-01",
      "maxdate": "1971-08-01",
      "latitude": 37.48333,
      "name": "WOLF CREEK PASS 4 W, CO US",
      "datacoverage": 0.905,
      "id": "COOP:059183",
      "elevationUnit": "METERS",
      "longitude": -106.86667
    },
    {
      "elevation": 2365.2,
      "mindate": "1948-08-01",
      "maxdate": "2013-12-22",
      "latitude": 39.1005,
      "name": "WOODLAND PARK 8 NNW, CO US",
      "datacoverage": 0.9742,
      "id": "COOP:059210",
      "elevationUnit": "METERS",
      "longitude": -105.0942
    },
    {
      "elevation": 1335,
      "mindate": "1993-06-01",
      "maxdate": "2015-11-01",
      "latitude": 40.07495,
      "name": "WOODROW 6 NNE, CO US",
      "datacoverage": 1,
      "id": "COOP:059213",
      "elevationUnit": "METERS",
      "longitude": -103.56772
    },
    {
      "elevation": 2310.4,
      "mindate": "1978-05-01",
      "maxdate": "2001-01-01",
      "latitude": 37.01833,
      "name": "WOOTTON RANCH, CO US",
      "datacoverage": 0.9997,
      "id": "COOP:059216",
      "elevationUnit": "METERS",
      "longitude": -104.48861
    },
    {
      "elevation": 1083,
      "mindate": "1931-01-01",
      "maxdate": "2015-11-01",
      "latitude": 40.08201,
      "name": "WRAY, CO US",
      "datacoverage": 0.9647,
      "id": "COOP:059243",
      "elevationUnit": "METERS",
      "longitude": -102.20699
    },
    {
      "elevation": 1150.9,
      "mindate": "2004-04-01",
      "maxdate": "2007-12-01",
      "latitude": 40.3361,
      "name": "WRAY 19 N, CO US",
      "datacoverage": 0.9553,
      "id": "COOP:059246",
      "elevationUnit": "METERS",
      "longitude": -102.2586
    },
    {
      "elevation": 2394.2,
      "mindate": "1941-10-01",
      "maxdate": "2015-11-01",
      "latitude": 40.15629,
      "name": "YAMPA, CO US",
      "datacoverage": 0.9236,
      "id": "COOP:059265",
      "elevationUnit": "METERS",
      "longitude": -106.91103
    },
    {
      "elevation": 2113.2,
      "mindate": "1962-06-01",
      "maxdate": "2002-12-01",
      "latitude": 37.5217,
      "name": "YELLOW JACKET 2 W, CO US",
      "datacoverage": 0.9999,
      "id": "COOP:059275",
      "elevationUnit": "METERS",
      "longitude": -108.75511
    },
    {
      "elevation": 2161,
      "mindate": "2003-02-01",
      "maxdate": "2015-11-01",
      "latitude": 37.5594,
      "name": "YELLOW JACKET 4 NE, CO US",
      "datacoverage": 0.8834,
      "id": "COOP:059278",
      "elevationUnit": "METERS",
      "longitude": -108.6636
    },
    {
      "elevation": 1909.9,
      "mindate": "1976-09-01",
      "maxdate": "2014-01-01",
      "latitude": 38.859,
      "name": "YODER 2 NW, CO US",
      "datacoverage": 0.0136,
      "id": "COOP:059285",
      "elevationUnit": "METERS",
      "longitude": -104.2426
    },
    {
      "elevation": 1260,
      "mindate": "1931-01-01",
      "maxdate": "2015-11-01",
      "latitude": 40.12367,
      "name": "YUMA, CO US",
      "datacoverage": 0.948,
      "id": "COOP:059295",
      "elevationUnit": "METERS",
      "longitude": -102.72171
    },
    {
      "elevation": 1277.7,
      "mindate": "1989-05-01",
      "maxdate": "2015-11-01",
      "latitude": 40.20965,
      "name": "YUMA 10 NW, CO US",
      "datacoverage": 0.9906,
      "id": "COOP:059297",
      "elevationUnit": "METERS",
      "longitude": -102.812
    },
    {
      "elevation": 6.1,
      "mindate": "1941-04-01",
      "maxdate": "1966-03-01",
      "latitude": 41.33333,
      "name": "ANSONIA, CT US",
      "datacoverage": 0.9534,
      "id": "COOP:060120",
      "elevationUnit": "METERS",
      "longitude": -73.08333
    },
    {
      "elevation": 41.5,
      "mindate": "1966-01-01",
      "maxdate": "2015-10-01",
      "latitude": 41.34924,
      "name": "ANSONIA 1 NW, CT US",
      "datacoverage": 0.8679,
      "id": "COOP:060128",
      "elevationUnit": "METERS",
      "longitude": -73.09171
    },
    {
      "elevation": 209.1,
      "mindate": "1941-04-01",
      "maxdate": "2015-11-01",
      "latitude": 41.8418,
      "name": "BAKERSVILLE, CT US",
      "datacoverage": 0.7969,
      "id": "COOP:060227",
      "elevationUnit": "METERS",
      "longitude": -73.0085
    },
    {
      "elevation": 43,
      "mindate": "1931-01-01",
      "maxdate": "1967-02-01",
      "latitude": 41.61667,
      "name": "BALTIC, CT US",
      "datacoverage": 0.9172,
      "id": "COOP:060251",
      "elevationUnit": "METERS",
      "longitude": -72.1
    },
    {
      "elevation": 216.4,
      "mindate": "1932-09-01",
      "maxdate": "2015-11-01",
      "latitude": 41.9211,
      "name": "BARKHAMSTED, CT US",
      "datacoverage": 0.993,
      "id": "COOP:060299",
      "elevationUnit": "METERS",
      "longitude": -72.9637
    },
    {
      "elevation": 54.9,
      "mindate": "1955-12-01",
      "maxdate": "1956-10-01",
      "latitude": 41.45,
      "name": "BEACON FALLS, CT US",
      "datacoverage": 0.7247,
      "id": "COOP:060373",
      "elevationUnit": "METERS",
      "longitude": -73.05
    },
    {
      "elevation": 52.1,
      "mindate": "1948-05-01",
      "maxdate": "1974-01-01",
      "latitude": 41.83333,
      "name": "BLOOMFIELD, CT US",
      "datacoverage": 0.9254,
      "id": "COOP:060634",
      "elevationUnit": "METERS",
      "longitude": -72.73333
    },
    {
      "elevation": 43,
      "mindate": "1931-01-01",
      "maxdate": "1951-03-01",
      "latitude": 41.2,
      "name": "BRIDGEPORT, CT US",
      "datacoverage": 0.9919,
      "id": "COOP:060801",
      "elevationUnit": "METERS",
      "longitude": -73.2
    },
    {
      "elevation": 1.8,
      "mindate": "1948-07-01",
      "maxdate": "2015-11-01",
      "latitude": 41.16424,
      "name": "IGOR I SIKORSKY MEMORIAL AIRPORT, CT US",
      "datacoverage": 0.9963,
      "id": "COOP:060806",
      "elevationUnit": "METERS",
      "longitude": -73.12664
    },
    {
      "elevation": 30.5,
      "mindate": "2008-03-01",
      "maxdate": "2015-11-01",
      "latitude": 41.22764,
      "name": "TRUMBULL, CT US",
      "datacoverage": 0.7956,
      "id": "COOP:060808",
      "elevationUnit": "METERS",
      "longitude": -73.17445
    },
    {
      "elevation": 195.1,
      "mindate": "1941-05-01",
      "maxdate": "1957-04-01",
      "latitude": 41.68333,
      "name": "BRISTOL 3 W, CT US",
      "datacoverage": 0.9531,
      "id": "COOP:060830",
      "elevationUnit": "METERS",
      "longitude": -72.98333
    },
    {
      "elevation": 73.2,
      "mindate": "1940-10-01",
      "maxdate": "1983-11-01",
      "latitude": 41.78333,
      "name": "BROOKLYN, CT US",
      "datacoverage": 0.8437,
      "id": "COOP:060918",
      "elevationUnit": "METERS",
      "longitude": -71.95
    },
    {
      "elevation": 79.2,
      "mindate": "1941-03-01",
      "maxdate": "2013-12-01",
      "latitude": 41.6763,
      "name": "BULLS BRIDGE DAM, CT US",
      "datacoverage": 0.8386,
      "id": "COOP:060961",
      "elevationUnit": "METERS",
      "longitude": -73.5086
    },
    {
      "elevation": 153.9,
      "mindate": "1932-09-01",
      "maxdate": "2015-11-01",
      "latitude": 41.7944,
      "name": "BURLINGTON, CT US",
      "datacoverage": 0.978,
      "id": "COOP:060973",
      "elevationUnit": "METERS",
      "longitude": -72.932
    },
    {
      "elevation": 153,
      "mindate": "1948-05-01",
      "maxdate": "1975-04-25",
      "latitude": 41.48333,
      "name": "CANDLEWOOD LAKE, CT US",
      "datacoverage": 0.6503,
      "id": "COOP:061093",
      "elevationUnit": "METERS",
      "longitude": -73.46667
    },
    {
      "elevation": 48.8,
      "mindate": "1941-04-01",
      "maxdate": "2012-03-01",
      "latitude": 41.46139,
      "name": "COCKAPONSET RANGER STATION, CT US",
      "datacoverage": 0.7703,
      "id": "COOP:061488",
      "elevationUnit": "METERS",
      "longitude": -72.51972
    },
    {
      "elevation": 146,
      "mindate": "1931-01-01",
      "maxdate": "1973-12-01",
      "latitude": 41.55,
      "name": "COLCHESTER 2 W, CT US",
      "datacoverage": 0.8953,
      "id": "COOP:061499",
      "elevationUnit": "METERS",
      "longitude": -72.36667
    },
    {
      "elevation": 243.5,
      "mindate": "2011-01-01",
      "maxdate": "2015-11-01",
      "latitude": 42.0003,
      "name": "COLEBROOK RIVER LAKE, CT US",
      "datacoverage": 0.9326,
      "id": "COOP:061508",
      "elevationUnit": "METERS",
      "longitude": -73.0439
    },
    {
      "elevation": 85,
      "mindate": "1931-01-01",
      "maxdate": "1966-06-01",
      "latitude": 41.8,
      "name": "COLLINSVILLE 1 S, CT US",
      "datacoverage": 0.8992,
      "id": "COOP:061536",
      "elevationUnit": "METERS",
      "longitude": -72.93333
    },
    {
      "elevation": 146.3,
      "mindate": "1957-04-01",
      "maxdate": "1993-09-01",
      "latitude": 41.8,
      "name": "COVENTRY, CT US",
      "datacoverage": 0.9498,
      "id": "COOP:061689",
      "elevationUnit": "METERS",
      "longitude": -72.35
    },
    {
      "elevation": 396.8,
      "mindate": "1931-01-01",
      "maxdate": "1972-12-01",
      "latitude": 41.9,
      "name": "CREAM HILL, CT US",
      "datacoverage": 0.992,
      "id": "COOP:061715",
      "elevationUnit": "METERS",
      "longitude": -73.31667
    },
    {
      "elevation": 123.4,
      "mindate": "1937-11-01",
      "maxdate": "2015-11-01",
      "latitude": 41.40016,
      "name": "DANBURY, CT US",
      "datacoverage": 0.8912,
      "id": "COOP:061762",
      "elevationUnit": "METERS",
      "longitude": -73.42119
    },
    {
      "elevation": 49.1,
      "mindate": "1941-04-01",
      "maxdate": "1975-09-01",
      "latitude": 41.36667,
      "name": "DAWSON LAKE, CT US",
      "datacoverage": 0.9445,
      "id": "COOP:061798",
      "elevationUnit": "METERS",
      "longitude": -72.98333
    },
    {
      "elevation": 21,
      "mindate": "1949-06-01",
      "maxdate": "1960-06-01",
      "latitude": 41.31667,
      "name": "DERBY SHELTON, CT US",
      "datacoverage": 0.9625,
      "id": "COOP:061844",
      "elevationUnit": "METERS",
      "longitude": -73.08333
    },
    {
      "elevation": 164.9,
      "mindate": "1964-05-01",
      "maxdate": "1968-12-01",
      "latitude": 41.9,
      "name": "EASTFORD, CT US",
      "datacoverage": 0.9991,
      "id": "COOP:062073",
      "elevationUnit": "METERS",
      "longitude": -72.08333
    },
    {
      "elevation": 9.1,
      "mindate": "1941-04-01",
      "maxdate": "1998-12-01",
      "latitude": 41.28472,
      "name": "EAST HAVEN SALTONSTA, CT US",
      "datacoverage": 0.5917,
      "id": "COOP:062169",
      "elevationUnit": "METERS",
      "longitude": -72.85639
    },
    {
      "elevation": 52.1,
      "mindate": "1941-04-01",
      "maxdate": "1975-11-01",
      "latitude": 41.23333,
      "name": "EASTON RESERVOIR, CT US",
      "datacoverage": 0.9688,
      "id": "COOP:062288",
      "elevationUnit": "METERS",
      "longitude": -73.25
    },
    {
      "elevation": 167.6,
      "mindate": "1910-10-01",
      "maxdate": "2013-12-01",
      "latitude": 41.95,
      "name": "FALLS VILLAGE, CT US",
      "datacoverage": 0.7958,
      "id": "COOP:062658",
      "elevationUnit": "METERS",
      "longitude": -73.36667
    },
    {
      "elevation": 13.7,
      "mindate": "1991-07-01",
      "maxdate": "1992-04-01",
      "latitude": 41.43333,
      "name": "GALES FERRY, CT US",
      "datacoverage": 0.998,
      "id": "COOP:062899",
      "elevationUnit": "METERS",
      "longitude": -72.08333
    },
    {
      "elevation": 136.9,
      "mindate": "1947-12-01",
      "maxdate": "1953-12-01",
      "latitude": 41.08333,
      "name": "GREENWICH, CT US",
      "datacoverage": 0.9584,
      "id": "COOP:063137",
      "elevationUnit": "METERS",
      "longitude": -73.7
    },
    {
      "elevation": 12.2,
      "mindate": "1941-04-01",
      "maxdate": "2015-11-01",
      "latitude": 41.35024,
      "name": "GROTON, CT US",
      "datacoverage": 0.9397,
      "id": "COOP:063207",
      "elevationUnit": "METERS",
      "longitude": -72.0377
    },
    {
      "elevation": 149.4,
      "mindate": "2006-08-01",
      "maxdate": "2015-11-01",
      "latitude": 41.7676,
      "name": "HAMPTON, CT US",
      "datacoverage": 1,
      "id": "COOP:063420",
      "elevationUnit": "METERS",
      "longitude": -72.0531
    },
    {
      "elevation": 43,
      "mindate": "1948-05-01",
      "maxdate": "1972-09-01",
      "latitude": 41.76667,
      "name": "HARTFORD, CT US",
      "datacoverage": 0.8754,
      "id": "COOP:063446",
      "elevationUnit": "METERS",
      "longitude": -72.7
    },
    {
      "elevation": 6.1,
      "mindate": "1972-09-01",
      "maxdate": "1975-10-25",
      "latitude": 41.8,
      "name": "HARTFORD CITY YARD, CT US",
      "datacoverage": 0.0201,
      "id": "COOP:063447",
      "elevationUnit": "METERS",
      "longitude": -72.65
    },
    {
      "elevation": 112.8,
      "mindate": "1973-03-01",
      "maxdate": "1986-06-01",
      "latitude": 41.8,
      "name": "HARTFORD RESERVOIR 6, CT US",
      "datacoverage": 0.0261,
      "id": "COOP:063449",
      "elevationUnit": "METERS",
      "longitude": -72.73333
    },
    {
      "elevation": 4,
      "mindate": "1947-11-01",
      "maxdate": "2008-03-01",
      "latitude": 41.7352,
      "name": "HARTFORD BRAINARD AIRPORT, CT US",
      "datacoverage": 0.9642,
      "id": "COOP:063451",
      "elevationUnit": "METERS",
      "longitude": -72.65115
    },
    {
      "elevation": 51.6,
      "mindate": "1954-01-01",
      "maxdate": "2015-11-01",
      "latitude": 41.93742,
      "name": "HARTFORD BRADLEY INTERNATIONAL AIRPORT, CT US",
      "datacoverage": 1,
      "id": "COOP:063456",
      "elevationUnit": "METERS",
      "longitude": -72.68202
    },
    {
      "elevation": 299,
      "mindate": "1974-02-01",
      "maxdate": "1977-06-01",
      "latitude": 41.9,
      "name": "HAUTBOY HILL FARM, CT US",
      "datacoverage": 0.8794,
      "id": "COOP:063495",
      "elevationUnit": "METERS",
      "longitude": -73.28333
    },
    {
      "elevation": 73.2,
      "mindate": "1941-04-01",
      "maxdate": "1960-06-01",
      "latitude": 41.23333,
      "name": "HEMLOCKS RESERVOIR, CT US",
      "datacoverage": 0.9307,
      "id": "COOP:063583",
      "elevationUnit": "METERS",
      "longitude": -73.26667
    },
    {
      "elevation": 121.9,
      "mindate": "1948-05-01",
      "maxdate": "2011-05-01",
      "latitude": 41.6297,
      "name": "JEWETT CITY, CT US",
      "datacoverage": 0.3097,
      "id": "COOP:063857",
      "elevationUnit": "METERS",
      "longitude": -71.9014
    },
    {
      "elevation": 116.1,
      "mindate": "1950-12-01",
      "maxdate": "1957-01-01",
      "latitude": 41.73333,
      "name": "KENT, CT US",
      "datacoverage": 0.9993,
      "id": "COOP:063905",
      "elevationUnit": "METERS",
      "longitude": -73.48333
    },
    {
      "elevation": 54.9,
      "mindate": "1931-01-01",
      "maxdate": "1978-01-01",
      "latitude": 41.4,
      "name": "LAKE KONOMOC, CT US",
      "datacoverage": 0.9398,
      "id": "COOP:063989",
      "elevationUnit": "METERS",
      "longitude": -72.18333
    },
    {
      "elevation": 107,
      "mindate": "1941-04-01",
      "maxdate": "1960-06-01",
      "latitude": 41.16667,
      "name": "LAUREL RESERVOIR, CT US",
      "datacoverage": 0.9091,
      "id": "COOP:064096",
      "elevationUnit": "METERS",
      "longitude": -73.55
    },
    {
      "elevation": 128,
      "mindate": "1941-04-01",
      "maxdate": "1973-12-01",
      "latitude": 41.76667,
      "name": "MANCHESTER, CT US",
      "datacoverage": 0.8676,
      "id": "COOP:064443",
      "elevationUnit": "METERS",
      "longitude": -72.48333
    },
    {
      "elevation": 76.2,
      "mindate": "1952-02-01",
      "maxdate": "2007-04-01",
      "latitude": 41.75694,
      "name": "MANSFIELD HOLLOW LAK, CT US",
      "datacoverage": 0.9773,
      "id": "COOP:064488",
      "elevationUnit": "METERS",
      "longitude": -72.18556
    },
    {
      "elevation": 146,
      "mindate": "1941-04-01",
      "maxdate": "1960-06-01",
      "latitude": 41.2,
      "name": "MEAD POND RESERVOIR, NY US",
      "datacoverage": 0.9048,
      "id": "COOP:064599",
      "elevationUnit": "METERS",
      "longitude": -73.51667
    },
    {
      "elevation": 41.1,
      "mindate": "1956-04-01",
      "maxdate": "1961-06-27",
      "latitude": 41.55,
      "name": "MIDDLETOWN WEATHER BUREAU, CT US",
      "datacoverage": 1,
      "id": "COOP:064757",
      "elevationUnit": "METERS",
      "longitude": -72.55
    },
    {
      "elevation": 112.5,
      "mindate": "1931-01-01",
      "maxdate": "1997-01-01",
      "latitude": 41.55,
      "name": "MIDDLETOWN 4 W, CT US",
      "datacoverage": 0.9949,
      "id": "COOP:064767",
      "elevationUnit": "METERS",
      "longitude": -72.71667
    },
    {
      "elevation": 9.1,
      "mindate": "1941-04-01",
      "maxdate": "1975-09-01",
      "latitude": 41.2,
      "name": "MILFORD, CT US",
      "datacoverage": 0.9251,
      "id": "COOP:064790",
      "elevationUnit": "METERS",
      "longitude": -73.08333
    },
    {
      "elevation": 438.9,
      "mindate": "1941-04-01",
      "maxdate": "1960-06-01",
      "latitude": 41.83333,
      "name": "MOHAWK RANGER STATION, CT US",
      "datacoverage": 0.9697,
      "id": "COOP:064933",
      "elevationUnit": "METERS",
      "longitude": -73.3
    },
    {
      "elevation": 139.9,
      "mindate": "1948-05-01",
      "maxdate": "1976-10-01",
      "latitude": 41.5,
      "name": "MOODUS RESERVOIR, CT US",
      "datacoverage": 0.8754,
      "id": "COOP:065018",
      "elevationUnit": "METERS",
      "longitude": -72.43333
    },
    {
      "elevation": 52.7,
      "mindate": "1936-02-01",
      "maxdate": "1998-04-01",
      "latitude": 41.40723,
      "name": "MOUNT CARMEL, CT US",
      "datacoverage": 0.9733,
      "id": "COOP:065077",
      "elevationUnit": "METERS",
      "longitude": -72.90301
    },
    {
      "elevation": 164.9,
      "mindate": "1942-01-01",
      "maxdate": "1962-12-01",
      "latitude": 41.9,
      "name": "EASTFORD, CT US",
      "datacoverage": 0.9008,
      "id": "COOP:065125",
      "elevationUnit": "METERS",
      "longitude": -72.08333
    },
    {
      "elevation": 174,
      "mindate": "1949-09-01",
      "maxdate": "1960-06-01",
      "latitude": 41.76667,
      "name": "NATHAN HALE STATE FO, CT US",
      "datacoverage": 0.931,
      "id": "COOP:065131",
      "elevationUnit": "METERS",
      "longitude": -72.35
    },
    {
      "elevation": 116.1,
      "mindate": "1932-09-01",
      "maxdate": "1960-06-01",
      "latitude": 41.88333,
      "name": "NEW HARTFORD, CT US",
      "datacoverage": 0.9881,
      "id": "COOP:065262",
      "elevationUnit": "METERS",
      "longitude": -72.95
    },
    {
      "elevation": 6.1,
      "mindate": "1969-05-01",
      "maxdate": "1992-06-01",
      "latitude": 41.3,
      "name": "NEW HAVEN, CT US",
      "datacoverage": 0.9316,
      "id": "COOP:065266",
      "elevationUnit": "METERS",
      "longitude": -72.93333
    },
    {
      "elevation": 1.8,
      "mindate": "1948-01-01",
      "maxdate": "1977-12-01",
      "latitude": 41.259,
      "name": "NEW HAVEN TWEED AIRPORT, CT US",
      "datacoverage": 0.9722,
      "id": "COOP:065273",
      "elevationUnit": "METERS",
      "longitude": -72.88911
    },
    {
      "elevation": 46,
      "mindate": "1948-05-01",
      "maxdate": "1970-06-01",
      "latitude": 41.7,
      "name": "NEWINGTON, CT US",
      "datacoverage": 0.9254,
      "id": "COOP:065285",
      "elevationUnit": "METERS",
      "longitude": -72.73333
    },
    {
      "elevation": 18.3,
      "mindate": "1931-01-01",
      "maxdate": "1955-12-01",
      "latitude": 41.35,
      "name": "NEW LONDON, CT US",
      "datacoverage": 0.8867,
      "id": "COOP:065309",
      "elevationUnit": "METERS",
      "longitude": -72.1
    },
    {
      "elevation": 408.4,
      "mindate": "1932-01-01",
      "maxdate": "2015-11-01",
      "latitude": 41.9725,
      "name": "NORFOLK 2 SW, CT US",
      "datacoverage": 0.9821,
      "id": "COOP:065445",
      "elevationUnit": "METERS",
      "longitude": -73.2208
    },
    {
      "elevation": 64,
      "mindate": "1941-04-01",
      "maxdate": "1975-09-01",
      "latitude": 41.33333,
      "name": "NORTH BRANFORD, CT US",
      "datacoverage": 0.9493,
      "id": "COOP:065510",
      "elevationUnit": "METERS",
      "longitude": -72.76667
    },
    {
      "elevation": 85,
      "mindate": "1941-04-01",
      "maxdate": "1975-09-01",
      "latitude": 41.38333,
      "name": "NORTH GUILFORD, CT US",
      "datacoverage": 0.9469,
      "id": "COOP:065641",
      "elevationUnit": "METERS",
      "longitude": -72.71667
    },
    {
      "elevation": 139.9,
      "mindate": "1949-02-01",
      "maxdate": "1950-11-01",
      "latitude": 41.76667,
      "name": "NORTH KENT, CT US",
      "datacoverage": 0.8657,
      "id": "COOP:065664",
      "elevationUnit": "METERS",
      "longitude": -73.43333
    },
    {
      "elevation": 85.3,
      "mindate": "1992-05-01",
      "maxdate": "1994-03-01",
      "latitude": 42.03333,
      "name": "NORTH SOMERS, CT US",
      "datacoverage": 0.6957,
      "id": "COOP:065757",
      "elevationUnit": "METERS",
      "longitude": -72.43333
    },
    {
      "elevation": 61,
      "mindate": "1941-04-01",
      "maxdate": "1950-07-01",
      "latitude": 41.11667,
      "name": "NORTH STAMFORD RESER, CT US",
      "datacoverage": 0.9196,
      "id": "COOP:065772",
      "elevationUnit": "METERS",
      "longitude": -73.53333
    },
    {
      "elevation": 36.9,
      "mindate": "1931-01-01",
      "maxdate": "1956-04-01",
      "latitude": 41.13333,
      "name": "NORWALK, CT US",
      "datacoverage": 0.9738,
      "id": "COOP:065892",
      "elevationUnit": "METERS",
      "longitude": -73.45
    },
    {
      "elevation": 11.3,
      "mindate": "1956-04-01",
      "maxdate": "1987-10-01",
      "latitude": 41.11667,
      "name": "NORWALK GAS PLANT, CT US",
      "datacoverage": 0.9947,
      "id": "COOP:065893",
      "elevationUnit": "METERS",
      "longitude": -73.41667
    }
  ]
}
