{
  "metadata": {
    "resultset": {
      "offset": 91400,
      "count": 154115,
      "limit": 100
    }
  },
  "results": [
    {
      "elevation": 231.6,
      "mindate": "2024-04-07",
      "maxdate": "2025-01-31",
      "latitude": 39.537665,
      "name": "SHELBYVILLE 1.0 NNW, IN US",
      "datacoverage": 0.8433,
      "id": "GHCND:US1INSH0031",
      "elevationUnit": "METERS",
      "longitude": -85.781504
    },
    {
      "elevation": 256,
      "mindate": "2006-11-01",
      "maxdate": "2021-12-03",
      "latitude": 41.631471,
      "name": "SOUTH BEND 3.3 SSW, IN US",
      "datacoverage": 0.9028,
      "id": "GHCND:US1INSJ0005",
      "elevationUnit": "METERS",
      "longitude": -86.291061
    },
    {
      "elevation": 246,
      "mindate": "2007-05-01",
      "maxdate": "2008-11-13",
      "latitude": 41.72375,
      "name": "GEORGETOWN 0.9 ESE, IN US",
      "datacoverage": 0.9971,
      "id": "GHCND:US1INSJ0007",
      "elevationUnit": "METERS",
      "longitude": -86.2134
    },
    {
      "elevation": 224,
      "mindate": "2007-04-01",
      "maxdate": "2008-06-18",
      "latitude": 41.738744,
      "name": "GEORGETOWN 0.8 NW, IN US",
      "datacoverage": 0.999,
      "id": "GHCND:US1INSJ0008",
      "elevationUnit": "METERS",
      "longitude": -86.237662
    },
    {
      "elevation": 262.1,
      "mindate": "2007-04-01",
      "maxdate": "2010-11-06",
      "latitude": 41.632368,
      "name": "SOUTH BEND 3.7 SE, IN US",
      "datacoverage": 0.9947,
      "id": "GHCND:US1INSJ0009",
      "elevationUnit": "METERS",
      "longitude": -86.222344
    },
    {
      "elevation": 243.8,
      "mindate": "2007-04-01",
      "maxdate": "2011-01-24",
      "latitude": 41.692133,
      "name": "NEW CARLISLE 1.1 SW, IN US",
      "datacoverage": 0.8901,
      "id": "GHCND:US1INSJ0010",
      "elevationUnit": "METERS",
      "longitude": -86.522942
    },
    {
      "elevation": 217,
      "mindate": "2006-09-01",
      "maxdate": "2007-07-23",
      "latitude": 41.743805,
      "name": "ROSELAND 2.0 NNW, IN US",
      "datacoverage": 0.3645,
      "id": "GHCND:US1INSJ0012",
      "elevationUnit": "METERS",
      "longitude": -86.267756
    },
    {
      "elevation": 242,
      "mindate": "2007-05-01",
      "maxdate": "2013-08-22",
      "latitude": 41.75824,
      "name": "GRANGER 1.6 N, IN US",
      "datacoverage": 0.9992,
      "id": "GHCND:US1INSJ0013",
      "elevationUnit": "METERS",
      "longitude": -86.14387
    },
    {
      "elevation": 239,
      "mindate": "2007-05-01",
      "maxdate": "2007-09-17",
      "latitude": 41.741163,
      "name": "GRANGER 0.9 WNW, IN US",
      "datacoverage": 0.9947,
      "id": "GHCND:US1INSJ0015",
      "elevationUnit": "METERS",
      "longitude": -86.154161
    },
    {
      "elevation": 246.9,
      "mindate": "2007-05-01",
      "maxdate": "2018-01-05",
      "latitude": 41.737267,
      "name": "GRANGER 2.9 W, IN US",
      "datacoverage": 0.9996,
      "id": "GHCND:US1INSJ0016",
      "elevationUnit": "METERS",
      "longitude": -86.19491
    },
    {
      "elevation": 232.9,
      "mindate": "2007-05-01",
      "maxdate": "2025-03-07",
      "latitude": 41.501903,
      "name": "WALKERTON 5.7 ENE, IN US",
      "datacoverage": 0.9996,
      "id": "GHCND:US1INSJ0017",
      "elevationUnit": "METERS",
      "longitude": -86.385132
    },
    {
      "elevation": 255.1,
      "mindate": "2007-05-01",
      "maxdate": "2008-02-28",
      "latitude": 41.75057,
      "name": "GRANGER 2.1 WNW, IN US",
      "datacoverage": 0.7984,
      "id": "GHCND:US1INSJ0019",
      "elevationUnit": "METERS",
      "longitude": -86.175783
    },
    {
      "elevation": 226.2,
      "mindate": "2007-07-01",
      "maxdate": "2009-12-03",
      "latitude": 41.690941,
      "name": "SOUTH BEND 1.5 NE, IN US",
      "datacoverage": 0.998,
      "id": "GHCND:US1INSJ0020",
      "elevationUnit": "METERS",
      "longitude": -86.245922
    },
    {
      "elevation": 224,
      "mindate": "2007-10-01",
      "maxdate": "2021-06-27",
      "latitude": 41.648,
      "name": "MISHAWAKA 2.5 SE, IN US",
      "datacoverage": 0.9999,
      "id": "GHCND:US1INSJ0024",
      "elevationUnit": "METERS",
      "longitude": -86.129
    },
    {
      "elevation": 230.1,
      "mindate": "2007-11-01",
      "maxdate": "2025-03-07",
      "latitude": 41.683294,
      "name": "MISHAWAKA 3.9 ENE, IN US",
      "datacoverage": 0.9902,
      "id": "GHCND:US1INSJ0026",
      "elevationUnit": "METERS",
      "longitude": -86.095364
    },
    {
      "elevation": 218.8,
      "mindate": "2008-03-01",
      "maxdate": "2011-02-28",
      "latitude": 41.698819,
      "name": "SOUTH BEND 1.7 NNW, IN US",
      "datacoverage": 0.9173,
      "id": "GHCND:US1INSJ0027",
      "elevationUnit": "METERS",
      "longitude": -86.272885
    },
    {
      "elevation": 269.4,
      "mindate": "2008-07-01",
      "maxdate": "2025-03-07",
      "latitude": 41.6209,
      "name": "SOUTH BEND 4.6 SE, IN US",
      "datacoverage": 1,
      "id": "GHCND:US1INSJ0028",
      "elevationUnit": "METERS",
      "longitude": -86.2152
    },
    {
      "elevation": 242,
      "mindate": "2008-08-01",
      "maxdate": "2011-01-02",
      "latitude": 41.760507,
      "name": "GRANGER 3.5 ENE, IN US",
      "datacoverage": 0.999,
      "id": "GHCND:US1INSJ0029",
      "elevationUnit": "METERS",
      "longitude": -86.079938
    },
    {
      "elevation": 251.2,
      "mindate": "2009-03-01",
      "maxdate": "2015-05-31",
      "latitude": 41.70675,
      "name": "NEW CARLISLE 0.3 WNW, IN US",
      "datacoverage": 0.7866,
      "id": "GHCND:US1INSJ0031",
      "elevationUnit": "METERS",
      "longitude": -86.5157
    },
    {
      "elevation": 251.8,
      "mindate": "2009-04-01",
      "maxdate": "2015-02-04",
      "latitude": 41.657684,
      "name": "NEW CARLISLE 3.3 SSW, IN US",
      "datacoverage": 1,
      "id": "GHCND:US1INSJ0032",
      "elevationUnit": "METERS",
      "longitude": -86.526204
    },
    {
      "elevation": 227.4,
      "mindate": "2009-05-01",
      "maxdate": "2025-03-07",
      "latitude": 41.4869,
      "name": "WALKERTON 4.1 ENE, IN US",
      "datacoverage": 1,
      "id": "GHCND:US1INSJ0034",
      "elevationUnit": "METERS",
      "longitude": -86.4082
    },
    {
      "elevation": 240.8,
      "mindate": "2010-04-01",
      "maxdate": "2022-07-16",
      "latitude": 41.73814,
      "name": "GRANGER 2.0 E, IN US",
      "datacoverage": 0.4242,
      "id": "GHCND:US1INSJ0035",
      "elevationUnit": "METERS",
      "longitude": -86.101519
    },
    {
      "elevation": 250.5,
      "mindate": "2010-06-01",
      "maxdate": "2014-03-06",
      "latitude": 41.6011654,
      "name": "MISHAWAKA 5.9 SE, IN US",
      "datacoverage": 1,
      "id": "GHCND:US1INSJ0036",
      "elevationUnit": "METERS",
      "longitude": -86.0997298
    },
    {
      "elevation": 243.8,
      "mindate": "2014-01-01",
      "maxdate": "2025-03-07",
      "latitude": 41.74622,
      "name": "GRANGER 1.8 ENE, IN US",
      "datacoverage": 1,
      "id": "GHCND:US1INSJ0046",
      "elevationUnit": "METERS",
      "longitude": -86.10721
    },
    {
      "elevation": 229.2,
      "mindate": "2014-04-01",
      "maxdate": "2025-02-01",
      "latitude": 41.6725347,
      "name": "SOUTH BEND 5.9 W, IN US",
      "datacoverage": 0.8328,
      "id": "GHCND:US1INSJ0047",
      "elevationUnit": "METERS",
      "longitude": -86.3803964
    },
    {
      "elevation": 242.9,
      "mindate": "2014-04-01",
      "maxdate": "2014-09-18",
      "latitude": 41.7287,
      "name": "SOUTH BEND 6.3 NW, IN US",
      "datacoverage": 0.998,
      "id": "GHCND:US1INSJ0048",
      "elevationUnit": "METERS",
      "longitude": -86.3648
    },
    {
      "elevation": 266.1,
      "mindate": "2014-01-01",
      "maxdate": "2021-09-21",
      "latitude": 41.622462,
      "name": "SOUTH BEND 4.5 SE, IN US",
      "datacoverage": 1,
      "id": "GHCND:US1INSJ0058",
      "elevationUnit": "METERS",
      "longitude": -86.216338
    },
    {
      "elevation": 223.1,
      "mindate": "2014-01-01",
      "maxdate": "2014-06-25",
      "latitude": 41.71364,
      "name": "SOUTH BEND 3.1 NNE, IN US",
      "datacoverage": 1,
      "id": "GHCND:US1INSJ0059",
      "elevationUnit": "METERS",
      "longitude": -86.234565
    },
    {
      "elevation": 232.9,
      "mindate": "2014-08-01",
      "maxdate": "2021-10-25",
      "latitude": 41.714907,
      "name": "SOUTH BEND 4.1 NE, IN US",
      "datacoverage": 1,
      "id": "GHCND:US1INSJ0062",
      "elevationUnit": "METERS",
      "longitude": -86.205279
    },
    {
      "elevation": 221,
      "mindate": "2014-10-01",
      "maxdate": "2024-11-21",
      "latitude": 41.6649124771357,
      "name": "MISHAWAKA 2.0 E, IN US",
      "datacoverage": 0.7221,
      "id": "GHCND:US1INSJ0064",
      "elevationUnit": "METERS",
      "longitude": -86.1308021843433
    },
    {
      "elevation": 229.2,
      "mindate": "2016-03-09",
      "maxdate": "2020-05-15",
      "latitude": 41.699462,
      "name": "SOUTH BEND 3.4 ENE, IN US",
      "datacoverage": 0.087,
      "id": "GHCND:US1INSJ0065",
      "elevationUnit": "METERS",
      "longitude": -86.20893
    },
    {
      "elevation": 252.1,
      "mindate": "2020-05-20",
      "maxdate": "2020-10-26",
      "latitude": 41.61725,
      "name": "SOUTH BEND 4.1 SSE, IN US",
      "datacoverage": 1,
      "id": "GHCND:US1INSJ0071",
      "elevationUnit": "METERS",
      "longitude": -86.2482
    },
    {
      "elevation": 229.8,
      "mindate": "2021-03-26",
      "maxdate": "2024-11-28",
      "latitude": 41.6943,
      "name": "SOUTH BEND 2.2 NW, IN US",
      "datacoverage": 0.7958,
      "id": "GHCND:US1INSJ0073",
      "elevationUnit": "METERS",
      "longitude": -86.29987
    },
    {
      "elevation": 259.7,
      "mindate": "2020-11-02",
      "maxdate": "2025-03-07",
      "latitude": 41.636669,
      "name": "SOUTH BEND 3.3 SE, IN US",
      "datacoverage": 0.9519,
      "id": "GHCND:US1INSJ0074",
      "elevationUnit": "METERS",
      "longitude": -86.227544
    },
    {
      "elevation": 236.5,
      "mindate": "2021-12-15",
      "maxdate": "2025-03-05",
      "latitude": 41.627315,
      "name": "SOUTH BEND 4.0 SSW, IN US",
      "datacoverage": 0.2583,
      "id": "GHCND:US1INSJ0076",
      "elevationUnit": "METERS",
      "longitude": -86.308382
    },
    {
      "elevation": 264.3,
      "mindate": "2023-07-10",
      "maxdate": "2024-10-04",
      "latitude": 41.5050442,
      "name": "LAKEVILLE 1.5 SSW, IN US",
      "datacoverage": 0.9267,
      "id": "GHCND:US1INSJ0077",
      "elevationUnit": "METERS",
      "longitude": -86.2811207
    },
    {
      "elevation": 255.7,
      "mindate": "2023-04-23",
      "maxdate": "2025-03-06",
      "latitude": 41.610384,
      "name": "SOUTH BEND 4.6 SSE, IN US",
      "datacoverage": 0.8921,
      "id": "GHCND:US1INSJ0079",
      "elevationUnit": "METERS",
      "longitude": -86.242182
    },
    {
      "elevation": 231.6,
      "mindate": "2024-03-28",
      "maxdate": "2024-10-25",
      "latitude": 41.72425,
      "name": "SOUTH BEND 4.0 NNE, IN US",
      "datacoverage": 0.998,
      "id": "GHCND:US1INSJ0083",
      "elevationUnit": "METERS",
      "longitude": -86.22508
    },
    {
      "elevation": 255.4,
      "mindate": "2024-07-27",
      "maxdate": "2025-03-06",
      "latitude": 41.73763,
      "name": "GRANGER 3.4 W, IN US",
      "datacoverage": 0.9283,
      "id": "GHCND:US1INSJ0087",
      "elevationUnit": "METERS",
      "longitude": -86.20478
    },
    {
      "elevation": 153,
      "mindate": "2006-05-01",
      "maxdate": "2012-04-05",
      "latitude": 39.095613,
      "name": "SULLIVAN 0.5 W, IN US",
      "datacoverage": 0.5,
      "id": "GHCND:US1INSL0001",
      "elevationUnit": "METERS",
      "longitude": -87.417439
    },
    {
      "elevation": 159.1,
      "mindate": "2006-05-01",
      "maxdate": "2014-12-12",
      "latitude": 39.095394,
      "name": "SULLIVAN 0.3 WSW, IN US",
      "datacoverage": 1,
      "id": "GHCND:US1INSL0002",
      "elevationUnit": "METERS",
      "longitude": -87.41221
    },
    {
      "elevation": 163.4,
      "mindate": "2004-07-31",
      "maxdate": "2025-03-07",
      "latitude": 39.18659,
      "name": "HYMERA 0.4 W, IN US",
      "datacoverage": 0.9993,
      "id": "GHCND:US1INSL0004",
      "elevationUnit": "METERS",
      "longitude": -87.30601
    },
    {
      "elevation": 149.4,
      "mindate": "2020-08-25",
      "maxdate": "2025-03-06",
      "latitude": 39.0923,
      "name": "SULLIVAN 0.5 SW, IN US",
      "datacoverage": 0.771,
      "id": "GHCND:US1INSL0005",
      "elevationUnit": "METERS",
      "longitude": -87.41615
    },
    {
      "elevation": 320,
      "mindate": "2006-11-01",
      "maxdate": "2009-03-02",
      "latitude": 41.7303,
      "name": "FREMONT 0.7 W, IN US",
      "datacoverage": 0.9925,
      "id": "GHCND:US1INSN0001",
      "elevationUnit": "METERS",
      "longitude": -84.9466
    },
    {
      "elevation": 321.9,
      "mindate": "2007-05-01",
      "maxdate": "2025-03-07",
      "latitude": 41.591868,
      "name": "HUDSON 4.1 NNW, IN US",
      "datacoverage": 0.9996,
      "id": "GHCND:US1INSN0002",
      "elevationUnit": "METERS",
      "longitude": -85.101163
    },
    {
      "elevation": 301.1,
      "mindate": "2007-05-01",
      "maxdate": "2025-03-07",
      "latitude": 41.5997,
      "name": "HUDSON 4.6 N, IN US",
      "datacoverage": 0.9998,
      "id": "GHCND:US1INSN0003",
      "elevationUnit": "METERS",
      "longitude": -85.089524
    },
    {
      "elevation": 294.1,
      "mindate": "2007-05-01",
      "maxdate": "2007-09-24",
      "latitude": 41.575267,
      "name": "ASHLEY 4.0 NNE, IN US",
      "datacoverage": 0.9947,
      "id": "GHCND:US1INSN0004",
      "elevationUnit": "METERS",
      "longitude": -85.027583
    },
    {
      "elevation": 277.1,
      "mindate": "2007-05-01",
      "maxdate": "2025-03-07",
      "latitude": 41.532404,
      "name": "HAMILTON 1.7 E, IN US",
      "datacoverage": 0.9996,
      "id": "GHCND:US1INSN0005",
      "elevationUnit": "METERS",
      "longitude": -84.885299
    },
    {
      "elevation": 301.1,
      "mindate": "2007-05-01",
      "maxdate": "2025-03-05",
      "latitude": 41.607934,
      "name": "ANGOLA 8.7 ESE, IN US",
      "datacoverage": 0.9803,
      "id": "GHCND:US1INSN0007",
      "elevationUnit": "METERS",
      "longitude": -84.837635
    },
    {
      "elevation": 328,
      "mindate": "2007-05-01",
      "maxdate": "2024-12-21",
      "latitude": 41.701001,
      "name": "ANGOLA 4.1 N, IN US",
      "datacoverage": 0.9996,
      "id": "GHCND:US1INSN0009",
      "elevationUnit": "METERS",
      "longitude": -84.986686
    },
    {
      "elevation": 298.1,
      "mindate": "2007-05-01",
      "maxdate": "2009-07-23",
      "latitude": 41.709883,
      "name": "ANGOLA 6.5 NW, IN US",
      "datacoverage": 0.8506,
      "id": "GHCND:US1INSN0010",
      "elevationUnit": "METERS",
      "longitude": -85.088169
    },
    {
      "elevation": 301.1,
      "mindate": "2007-08-01",
      "maxdate": "2025-03-05",
      "latitude": 41.53082,
      "name": "HUDSON 0.3 SE, IN US",
      "datacoverage": 0.8172,
      "id": "GHCND:US1INSN0012",
      "elevationUnit": "METERS",
      "longitude": -85.07775
    },
    {
      "elevation": 304.5,
      "mindate": "2007-10-01",
      "maxdate": "2013-06-27",
      "latitude": 41.7441,
      "name": "FREMONT 6.4 W, IN US",
      "datacoverage": 0.6232,
      "id": "GHCND:US1INSN0014",
      "elevationUnit": "METERS",
      "longitude": -85.0574
    },
    {
      "elevation": 285.9,
      "mindate": "2009-03-01",
      "maxdate": "2017-05-29",
      "latitude": 41.644454,
      "name": "ANGOLA 8.5 W, IN US",
      "datacoverage": 1,
      "id": "GHCND:US1INSN0015",
      "elevationUnit": "METERS",
      "longitude": -85.165683
    },
    {
      "elevation": 304.2,
      "mindate": "2011-05-01",
      "maxdate": "2012-12-19",
      "latitude": 41.697114,
      "name": "ANGOLA 4.9 NW, IN US",
      "datacoverage": 0.9963,
      "id": "GHCND:US1INSN0019",
      "elevationUnit": "METERS",
      "longitude": -85.062595
    },
    {
      "elevation": 316.4,
      "mindate": "2011-05-01",
      "maxdate": "2025-03-07",
      "latitude": 41.624934,
      "name": "ANGOLA 1.2 S, IN US",
      "datacoverage": 0.9993,
      "id": "GHCND:US1INSN0025",
      "elevationUnit": "METERS",
      "longitude": -85.0018149
    },
    {
      "elevation": 278.6,
      "mindate": "2011-05-01",
      "maxdate": "2014-11-13",
      "latitude": 41.5425,
      "name": "HAMILTON 0.7 N, IN US",
      "datacoverage": 0.9294,
      "id": "GHCND:US1INSN0026",
      "elevationUnit": "METERS",
      "longitude": -84.9149
    },
    {
      "elevation": 308.5,
      "mindate": "2011-05-01",
      "maxdate": "2013-06-17",
      "latitude": 41.641335,
      "name": "ANGOLA 0.5 ESE, IN US",
      "datacoverage": 0.998,
      "id": "GHCND:US1INSN0027",
      "elevationUnit": "METERS",
      "longitude": -84.990657
    },
    {
      "elevation": 330.4,
      "mindate": "2011-06-01",
      "maxdate": "2011-12-07",
      "latitude": 41.741913,
      "name": "FREMONT 1.0 NW, IN US",
      "datacoverage": 0.9956,
      "id": "GHCND:US1INSN0029",
      "elevationUnit": "METERS",
      "longitude": -84.946788
    },
    {
      "elevation": 317,
      "mindate": "2018-02-27",
      "maxdate": "2022-11-02",
      "latitude": 41.65236,
      "name": "ANGOLA 1.7 WNW, IN US",
      "datacoverage": 0.8643,
      "id": "GHCND:US1INSN0033",
      "elevationUnit": "METERS",
      "longitude": -85.02961
    },
    {
      "elevation": 297.8,
      "mindate": "2019-08-19",
      "maxdate": "2025-03-06",
      "latitude": 41.616385,
      "name": "ANGOLA 8.8 ESE, IN US",
      "datacoverage": 1,
      "id": "GHCND:US1INSN0037",
      "elevationUnit": "METERS",
      "longitude": -84.834422
    },
    {
      "elevation": 299,
      "mindate": "1998-06-17",
      "maxdate": "2022-07-06",
      "latitude": 41.7165,
      "name": "ANGOLA 6.4 NW, IN US",
      "datacoverage": 0.499,
      "id": "GHCND:US1INSN0038",
      "elevationUnit": "METERS",
      "longitude": -85.0768
    },
    {
      "elevation": 300.8,
      "mindate": "2022-02-22",
      "maxdate": "2025-03-07",
      "latitude": 41.714355,
      "name": "ANGOLA 6.2 NW, IN US",
      "datacoverage": 0.9288,
      "id": "GHCND:US1INSN0040",
      "elevationUnit": "METERS",
      "longitude": -85.07151
    },
    {
      "elevation": 298.1,
      "mindate": "2022-02-25",
      "maxdate": "2023-05-20",
      "latitude": 41.631745,
      "name": "ANGOLA 4.5 W, IN US",
      "datacoverage": 0.9992,
      "id": "GHCND:US1INSN0041",
      "elevationUnit": "METERS",
      "longitude": -85.086367
    },
    {
      "elevation": 323.7,
      "mindate": "2022-07-25",
      "maxdate": "2024-11-28",
      "latitude": 41.68424,
      "name": "ANGOLA 4.5 NW, IN US",
      "datacoverage": 0.4755,
      "id": "GHCND:US1INSN0042",
      "elevationUnit": "METERS",
      "longitude": -85.068416
    },
    {
      "elevation": 285,
      "mindate": "2022-08-31",
      "maxdate": "2025-03-07",
      "latitude": 41.57858,
      "name": "HUDSON 6.4 WNW, IN US",
      "datacoverage": 0.9663,
      "id": "GHCND:US1INSN0043",
      "elevationUnit": "METERS",
      "longitude": -85.1894
    },
    {
      "elevation": 139.6,
      "mindate": "2009-06-01",
      "maxdate": "2018-08-25",
      "latitude": 38.0076371686291,
      "name": "CHRISNEY 0.3 SSW, IN US",
      "datacoverage": 0.0305,
      "id": "GHCND:US1INSP0001",
      "elevationUnit": "METERS",
      "longitude": -87.0364165306091
    },
    {
      "elevation": 155.4,
      "mindate": "2016-08-01",
      "maxdate": "2022-02-10",
      "latitude": 38.1029472351074,
      "name": "SANTA CLAUS 1.4 SW, IN US",
      "datacoverage": 0.9916,
      "id": "GHCND:US1INSP0002",
      "elevationUnit": "METERS",
      "longitude": -86.9448928833008
    },
    {
      "elevation": 137.5,
      "mindate": "2020-05-18",
      "maxdate": "2025-03-06",
      "latitude": 37.902056,
      "name": "ROCKPORT 4.0 WNW, IN US",
      "datacoverage": 1,
      "id": "GHCND:US1INSP0004",
      "elevationUnit": "METERS",
      "longitude": -87.120906
    },
    {
      "elevation": 140.2,
      "mindate": "2023-08-13",
      "maxdate": "2025-03-06",
      "latitude": 38.196812,
      "name": "FERDINAND 2.3 SSE, IN US",
      "datacoverage": 1,
      "id": "GHCND:US1INSP0007",
      "elevationUnit": "METERS",
      "longitude": -86.849403
    },
    {
      "elevation": 223.1,
      "mindate": "2006-06-01",
      "maxdate": "2019-09-28",
      "latitude": 41.178405,
      "name": "NORTH JUDSON 5.7 ESE, IN US",
      "datacoverage": 0.9491,
      "id": "GHCND:US1INST0001",
      "elevationUnit": "METERS",
      "longitude": -86.67906
    },
    {
      "elevation": 220.1,
      "mindate": "2006-11-01",
      "maxdate": "2014-09-06",
      "latitude": 41.27415,
      "name": "KNOX 1.2 S, IN US",
      "datacoverage": 0.9986,
      "id": "GHCND:US1INST0002",
      "elevationUnit": "METERS",
      "longitude": -86.6193
    },
    {
      "elevation": 221.9,
      "mindate": "2006-11-01",
      "maxdate": "2014-11-12",
      "latitude": 41.244,
      "name": "KNOX 4.1 SW, IN US",
      "datacoverage": 0.7424,
      "id": "GHCND:US1INST0003",
      "elevationUnit": "METERS",
      "longitude": -86.669
    },
    {
      "elevation": 218.8,
      "mindate": "2006-11-01",
      "maxdate": "2009-12-02",
      "latitude": 41.20818,
      "name": "NORTH JUDSON 0.6 S, IN US",
      "datacoverage": 0.9997,
      "id": "GHCND:US1INST0004",
      "elevationUnit": "METERS",
      "longitude": -86.774682
    },
    {
      "elevation": 221,
      "mindate": "2006-11-01",
      "maxdate": "2007-12-16",
      "latitude": 41.29,
      "name": "KNOX 0.6 ESE, IN US",
      "datacoverage": 0.9288,
      "id": "GHCND:US1INST0005",
      "elevationUnit": "METERS",
      "longitude": -86.61
    },
    {
      "elevation": 215.5,
      "mindate": "2009-08-01",
      "maxdate": "2009-12-08",
      "latitude": 41.2009629,
      "name": "NORTH JUDSON 2.0 ESE, IN US",
      "datacoverage": 1,
      "id": "GHCND:US1INST0007",
      "elevationUnit": "METERS",
      "longitude": -86.7433527
    },
    {
      "elevation": 216.7,
      "mindate": "2012-01-01",
      "maxdate": "2019-06-30",
      "latitude": 41.2086,
      "name": "KE9ML NORTH JUDSON 0.7 SSW, IN US",
      "datacoverage": 0.8041,
      "id": "GHCND:US1INST0009",
      "elevationUnit": "METERS",
      "longitude": -86.783
    },
    {
      "elevation": 216.4,
      "mindate": "2008-11-06",
      "maxdate": "2024-04-24",
      "latitude": 41.1803,
      "name": "KB9GPW NORTH JUDSON 3.9 SW, IN US",
      "datacoverage": 1,
      "id": "GHCND:US1INST0010",
      "elevationUnit": "METERS",
      "longitude": -86.8327
    },
    {
      "elevation": 217.6,
      "mindate": "2014-03-01",
      "maxdate": "2015-01-07",
      "latitude": 41.285633,
      "name": "KNOX 0.6 SE, IN US",
      "datacoverage": 0.9935,
      "id": "GHCND:US1INST0012",
      "elevationUnit": "METERS",
      "longitude": -86.613309
    },
    {
      "elevation": 206,
      "mindate": "2014-08-01",
      "maxdate": "2017-04-06",
      "latitude": 41.249403,
      "name": "SAN PIERRE 4.1 NNE, IN US",
      "datacoverage": 0.9496,
      "id": "GHCND:US1INST0014",
      "elevationUnit": "METERS",
      "longitude": -86.852163
    },
    {
      "elevation": 221.3,
      "mindate": "2021-04-17",
      "maxdate": "2024-11-19",
      "latitude": 41.239425,
      "name": "KNOX 4.6 SE, IN US",
      "datacoverage": 0.572,
      "id": "GHCND:US1INST0017",
      "elevationUnit": "METERS",
      "longitude": -86.566805
    },
    {
      "elevation": 220.1,
      "mindate": "2020-05-27",
      "maxdate": "2024-08-23",
      "latitude": 41.4036,
      "name": "WALKERTON 4.4 SSW, IN US",
      "datacoverage": 0.2959,
      "id": "GHCND:US1INST0018",
      "elevationUnit": "METERS",
      "longitude": -86.51101
    },
    {
      "elevation": 146.9,
      "mindate": "2020-03-14",
      "maxdate": "2023-12-01",
      "latitude": 38.749254,
      "name": "VEVAY 0.6 NE, IN US",
      "datacoverage": 1,
      "id": "GHCND:US1INSW0003",
      "elevationUnit": "METERS",
      "longitude": -85.06287
    },
    {
      "elevation": 267.9,
      "mindate": "2007-03-01",
      "maxdate": "2007-07-23",
      "latitude": 40.3613,
      "name": "SHARPSVILLE 3.5 ESE, IN US",
      "datacoverage": 1,
      "id": "GHCND:US1INTN0005",
      "elevationUnit": "METERS",
      "longitude": -86.026
    },
    {
      "elevation": 262.1,
      "mindate": "2007-05-01",
      "maxdate": "2015-12-31",
      "latitude": 40.232863,
      "name": "ATLANTA 4.1 ENE, IN US",
      "datacoverage": 0.9995,
      "id": "GHCND:US1INTN0007",
      "elevationUnit": "METERS",
      "longitude": -85.952635
    },
    {
      "elevation": 264,
      "mindate": "2011-03-01",
      "maxdate": "2012-12-29",
      "latitude": 40.282307,
      "name": "TIPTON 0.5 W, IN US",
      "datacoverage": 0.9965,
      "id": "GHCND:US1INTN0008",
      "elevationUnit": "METERS",
      "longitude": -86.049228
    },
    {
      "elevation": 267,
      "mindate": "2003-06-01",
      "maxdate": "2021-10-13",
      "latitude": 40.2969,
      "name": "K9WKK TIPTON 1.3 NW, IN US",
      "datacoverage": 0.8175,
      "id": "GHCND:US1INTN0009",
      "elevationUnit": "METERS",
      "longitude": -86.0574
    },
    {
      "elevation": 261.2,
      "mindate": "2014-04-01",
      "maxdate": "2017-12-05",
      "latitude": 40.2544,
      "name": "ELWOOD 3.5 WSW, IN US",
      "datacoverage": 0.7911,
      "id": "GHCND:US1INTN0010",
      "elevationUnit": "METERS",
      "longitude": -85.9
    },
    {
      "elevation": 266.1,
      "mindate": "2018-06-11",
      "maxdate": "2020-01-15",
      "latitude": 40.28753,
      "name": "TIPTON 0.4 NW, IN US",
      "datacoverage": 0.499,
      "id": "GHCND:US1INTN0011",
      "elevationUnit": "METERS",
      "longitude": -86.04585
    },
    {
      "elevation": 283.5,
      "mindate": "2021-03-26",
      "maxdate": "2025-03-05",
      "latitude": 40.284623,
      "name": "KEMPTON 0.2 SSW, IN US",
      "datacoverage": 0.9257,
      "id": "GHCND:US1INTN0012",
      "elevationUnit": "METERS",
      "longitude": -86.231199
    },
    {
      "elevation": 261.5,
      "mindate": "2021-04-09",
      "maxdate": "2021-11-12",
      "latitude": 40.392914,
      "name": "WINDFALL 2.2 NNW N9SE, IN US",
      "datacoverage": 0.9925,
      "id": "GHCND:US1INTN0013",
      "elevationUnit": "METERS",
      "longitude": -85.968578
    },
    {
      "elevation": 209.1,
      "mindate": "2006-04-01",
      "maxdate": "2006-10-11",
      "latitude": 40.407502,
      "name": "LAFAYETTE 0.3 SW, IN US",
      "datacoverage": 0.9956,
      "id": "GHCND:US1INTP0002",
      "elevationUnit": "METERS",
      "longitude": -86.874303
    },
    {
      "elevation": 191.1,
      "mindate": "2006-04-01",
      "maxdate": "2006-11-30",
      "latitude": 40.4215,
      "name": "WEST LAFAYETTE 1.6 S, IN US",
      "datacoverage": 0.998,
      "id": "GHCND:US1INTP0005",
      "elevationUnit": "METERS",
      "longitude": -86.9105
    },
    {
      "elevation": 210.9,
      "mindate": "2006-04-01",
      "maxdate": "2025-03-07",
      "latitude": 40.4672,
      "name": "OTTERBEIN 2.3 SE, IN US",
      "datacoverage": 0.9999,
      "id": "GHCND:US1INTP0009",
      "elevationUnit": "METERS",
      "longitude": -87.0611
    },
    {
      "elevation": 196,
      "mindate": "2006-04-01",
      "maxdate": "2007-03-23",
      "latitude": 40.354325,
      "name": "LAFAYETTE 4.4 SSW, IN US",
      "datacoverage": 0.9173,
      "id": "GHCND:US1INTP0011",
      "elevationUnit": "METERS",
      "longitude": -86.908332
    },
    {
      "elevation": 220.1,
      "mindate": "2006-05-01",
      "maxdate": "2008-08-29",
      "latitude": 40.455585,
      "name": "WEST LAFAYETTE 1.0 NW, IN US",
      "datacoverage": 0.998,
      "id": "GHCND:US1INTP0012",
      "elevationUnit": "METERS",
      "longitude": -86.924686
    },
    {
      "elevation": 217,
      "mindate": "2006-04-01",
      "maxdate": "2008-11-14",
      "latitude": 40.457791,
      "name": "WEST LAFAYETTE 0.9 N, IN US",
      "datacoverage": 0.9819,
      "id": "GHCND:US1INTP0013",
      "elevationUnit": "METERS",
      "longitude": -86.910134
    },
    {
      "elevation": 192.9,
      "mindate": "2006-10-01",
      "maxdate": "2009-06-02",
      "latitude": 40.439487,
      "name": "LAFAYETTE 3.0 NE, IN US",
      "datacoverage": 0.8185,
      "id": "GHCND:US1INTP0015",
      "elevationUnit": "METERS",
      "longitude": -86.826884
    },
    {
      "elevation": 199,
      "mindate": "2008-05-01",
      "maxdate": "2009-09-08",
      "latitude": 40.45449,
      "name": "LAFAYETTE 5.8 ENE, IN US",
      "datacoverage": 0.8226,
      "id": "GHCND:US1INTP0017",
      "elevationUnit": "METERS",
      "longitude": -86.776024
    },
    {
      "elevation": 198.1,
      "mindate": "2008-05-01",
      "maxdate": "2015-11-18",
      "latitude": 40.393842,
      "name": "LAFAYETTE 1.2 SSW, IN US",
      "datacoverage": 0.998,
      "id": "GHCND:US1INTP0018",
      "elevationUnit": "METERS",
      "longitude": -86.878357
    }
  ]
}
