{
  "metadata": {
    "resultset": {
      "offset": 69000,
      "count": 154115,
      "limit": 100
    }
  },
  "results": [
    {
      "elevation": 26,
      "mindate": "2002-08-01",
      "maxdate": "2025-01-31",
      "latitude": 68.155,
      "name": "LEKNES LUFTHAVN, NO",
      "datacoverage": 0.9929,
      "id": "GHCND:NOE00133878",
      "elevationUnit": "METERS",
      "longitude": 13.615
    },
    {
      "elevation": 17,
      "mindate": "2003-09-01",
      "maxdate": "2025-01-31",
      "latitude": 65.9606,
      "name": "SANDNESSJOEN LH STOKKA, NO",
      "datacoverage": 0.9993,
      "id": "GHCND:NOE00133894",
      "elevationUnit": "METERS",
      "longitude": 12.4714
    },
    {
      "elevation": 41,
      "mindate": "1956-12-31",
      "maxdate": "2018-12-21",
      "latitude": 66.3067,
      "name": "MO I RANA III, NO",
      "datacoverage": 0.9987,
      "id": "GHCND:NOE00133902",
      "elevationUnit": "METERS",
      "longitude": 14.1542
    },
    {
      "elevation": 11,
      "mindate": "1961-12-01",
      "maxdate": "2013-01-29",
      "latitude": 66.9708,
      "name": "SUNDSFJORD, NO",
      "datacoverage": 0.938,
      "id": "GHCND:NOE00133914",
      "elevationUnit": "METERS",
      "longitude": 14.1542
    },
    {
      "elevation": 3,
      "mindate": "1971-09-01",
      "maxdate": "2024-01-01",
      "latitude": 67.3606,
      "name": "VALLJORD, NO",
      "datacoverage": 0.6284,
      "id": "GHCND:NOE00133926",
      "elevationUnit": "METERS",
      "longitude": 15.5892
    },
    {
      "elevation": 31,
      "mindate": "2002-08-01",
      "maxdate": "2017-04-03",
      "latitude": 68.4394,
      "name": "NARVIK LUFTHAVN, NO",
      "datacoverage": 1,
      "id": "GHCND:NOE00133942",
      "elevationUnit": "METERS",
      "longitude": 17.3883
    },
    {
      "elevation": 9,
      "mindate": "2002-08-01",
      "maxdate": "2025-01-31",
      "latitude": 68.2453,
      "name": "SVOLVAER LUFTHAVN, NO",
      "datacoverage": 1,
      "id": "GHCND:NOE00133954",
      "elevationUnit": "METERS",
      "longitude": 14.6692
    },
    {
      "elevation": 17,
      "mindate": "1968-08-01",
      "maxdate": "2017-09-18",
      "latitude": 67.9317,
      "name": "REINE, NO",
      "datacoverage": 0.9708,
      "id": "GHCND:NOE00133962",
      "elevationUnit": "METERS",
      "longitude": 13.0917
    },
    {
      "elevation": 3,
      "mindate": "2003-07-01",
      "maxdate": "2025-01-31",
      "latitude": 68.58,
      "name": "STOKMARKNES LH SKAGEN, NO",
      "datacoverage": 0.9999,
      "id": "GHCND:NOE00133978",
      "elevationUnit": "METERS",
      "longitude": 15.0292
    },
    {
      "elevation": 70,
      "mindate": "2002-08-01",
      "maxdate": "2025-01-31",
      "latitude": 66.3642,
      "name": "MO I RANA LUFTHAVN, NO",
      "datacoverage": 1,
      "id": "GHCND:NOE00133990",
      "elevationUnit": "METERS",
      "longitude": 14.3014
    },
    {
      "elevation": 182,
      "mindate": "1962-06-01",
      "maxdate": "2025-01-31",
      "latitude": 63.72,
      "name": "BURAN, NO",
      "datacoverage": 1,
      "id": "GHCND:NOE00133998",
      "elevationUnit": "METERS",
      "longitude": 11.5433
    },
    {
      "elevation": 20,
      "mindate": "1969-01-01",
      "maxdate": "2011-11-11",
      "latitude": 63.9364,
      "name": "MAERE, NO",
      "datacoverage": 0.9943,
      "id": "GHCND:NOE00134010",
      "elevationUnit": "METERS",
      "longitude": 11.4167
    },
    {
      "elevation": 138,
      "mindate": "1970-08-01",
      "maxdate": "2025-01-31",
      "latitude": 63.6856,
      "name": "LEKSVIK MYRAN, NO",
      "datacoverage": 1,
      "id": "GHCND:NOE00134022",
      "elevationUnit": "METERS",
      "longitude": 10.6075
    },
    {
      "elevation": 2,
      "mindate": "2002-08-01",
      "maxdate": "2025-01-31",
      "latitude": 64.4706,
      "name": "NAMSOS LUFTHAVN, NO",
      "datacoverage": 1,
      "id": "GHCND:NOE00134038",
      "elevationUnit": "METERS",
      "longitude": 11.5706
    },
    {
      "elevation": 36,
      "mindate": "1974-06-01",
      "maxdate": "2025-01-31",
      "latitude": 64.5228,
      "name": "OTTEROY, NO",
      "datacoverage": 1,
      "id": "GHCND:NOE00134046",
      "elevationUnit": "METERS",
      "longitude": 11.2806
    },
    {
      "elevation": 368,
      "mindate": "1966-08-01",
      "maxdate": "2011-12-31",
      "latitude": 63.8006,
      "name": "VERA, NO",
      "datacoverage": 1,
      "id": "GHCND:NOE00134058",
      "elevationUnit": "METERS",
      "longitude": 12.3869
    },
    {
      "elevation": 50,
      "mindate": "1962-06-01",
      "maxdate": "2025-01-31",
      "latitude": 64.1167,
      "name": "UTGARD, NO",
      "datacoverage": 1,
      "id": "GHCND:NOE00134070",
      "elevationUnit": "METERS",
      "longitude": 11.7394
    },
    {
      "elevation": 26,
      "mindate": "1977-05-01",
      "maxdate": "2023-12-31",
      "latitude": 64.4808,
      "name": "OVERHALLA UNNSET, NO",
      "datacoverage": 1,
      "id": "GHCND:NOE00134082",
      "elevationUnit": "METERS",
      "longitude": 11.8381
    },
    {
      "elevation": 23,
      "mindate": "1974-10-01",
      "maxdate": "2025-01-31",
      "latitude": 65.2019,
      "name": "SKLINNA FYR, NO",
      "datacoverage": 1,
      "id": "GHCND:NOE00134094",
      "elevationUnit": "METERS",
      "longitude": 10.9964
    },
    {
      "elevation": 780,
      "mindate": "1975-05-01",
      "maxdate": "2018-06-30",
      "latitude": 61.4628,
      "name": "SORE BREKKOM, NO",
      "datacoverage": 1,
      "id": "GHCND:NOE00134106",
      "elevationUnit": "METERS",
      "longitude": 10.3178
    },
    {
      "elevation": 930,
      "mindate": "1980-07-31",
      "maxdate": "2025-01-31",
      "latitude": 61.6514,
      "name": "VENABU, NO",
      "datacoverage": 1,
      "id": "GHCND:NOE00134118",
      "elevationUnit": "METERS",
      "longitude": 10.1083
    },
    {
      "elevation": 666,
      "mindate": "1972-05-01",
      "maxdate": "2018-10-31",
      "latitude": 61.6642,
      "name": "HOVDGRENDA, NO",
      "datacoverage": 1,
      "id": "GHCND:NOE00134130",
      "elevationUnit": "METERS",
      "longitude": 9.9742
    },
    {
      "elevation": 630,
      "mindate": "1970-09-01",
      "maxdate": "2023-06-29",
      "latitude": 61.5158,
      "name": "OLSTAPPEN, NO",
      "datacoverage": 0.9909,
      "id": "GHCND:NOE00134142",
      "elevationUnit": "METERS",
      "longitude": 9.4083
    },
    {
      "elevation": 551,
      "mindate": "1975-05-01",
      "maxdate": "2020-05-01",
      "latitude": 62.1056,
      "name": "LESJA SVANBORG, NO",
      "datacoverage": 1,
      "id": "GHCND:NOE00134154",
      "elevationUnit": "METERS",
      "longitude": 8.9192
    },
    {
      "elevation": 1413,
      "mindate": "1978-11-30",
      "maxdate": "2025-01-31",
      "latitude": 61.5644,
      "name": "SOGNEFJELLHYTTA, NO",
      "datacoverage": 0.7996,
      "id": "GHCND:NOE00134166",
      "elevationUnit": "METERS",
      "longitude": 7.9978
    },
    {
      "elevation": 406,
      "mindate": "1968-05-01",
      "maxdate": "2025-01-31",
      "latitude": 60.5953,
      "name": "EINAVATN, NO",
      "datacoverage": 1,
      "id": "GHCND:NOE00134178",
      "elevationUnit": "METERS",
      "longitude": 10.6403
    },
    {
      "elevation": 371,
      "mindate": "1979-09-01",
      "maxdate": "2011-08-12",
      "latitude": 61.8733,
      "name": "VAGAMO N GRINDSTUGU, NO",
      "datacoverage": 1,
      "id": "GHCND:NOE00134190",
      "elevationUnit": "METERS",
      "longitude": 9.0928
    },
    {
      "elevation": 935,
      "mindate": "1972-05-01",
      "maxdate": "2013-12-29",
      "latitude": 61.8903,
      "name": "HOVRINGEN, NO",
      "datacoverage": 1,
      "id": "GHCND:NOE00134202",
      "elevationUnit": "METERS",
      "longitude": 9.4717
    },
    {
      "elevation": 521,
      "mindate": "1961-09-30",
      "maxdate": "2025-01-31",
      "latitude": 61.1217,
      "name": "LOKEN I VOLBU, NO",
      "datacoverage": 0.9223,
      "id": "GHCND:NOE00134214",
      "elevationUnit": "METERS",
      "longitude": 9.0631
    },
    {
      "elevation": 956,
      "mindate": "1966-12-01",
      "maxdate": "2025-01-31",
      "latitude": 61.1781,
      "name": "FILEFJELL KYRKJESTOLANE, NO",
      "datacoverage": 0.3818,
      "id": "GHCND:NOE00134226",
      "elevationUnit": "METERS",
      "longitude": 8.1125
    },
    {
      "elevation": 503,
      "mindate": "1895-06-01",
      "maxdate": "1968-12-31",
      "latitude": 60.6167,
      "name": "HEDAL I VALDRES, NO",
      "datacoverage": 1,
      "id": "GHCND:NOE00134238",
      "elevationUnit": "METERS",
      "longitude": 9.7167
    },
    {
      "elevation": 474,
      "mindate": "1968-08-01",
      "maxdate": "2025-01-31",
      "latitude": 60.6194,
      "name": "HEDAL I VALDRES II, NO",
      "datacoverage": 1,
      "id": "GHCND:NOE00134250",
      "elevationUnit": "METERS",
      "longitude": 9.7258
    },
    {
      "elevation": 200,
      "mindate": "2004-04-01",
      "maxdate": "2025-01-30",
      "latitude": 59.9667,
      "name": "OSLO VESTLI, NO",
      "datacoverage": 0.8562,
      "id": "GHCND:NOE00134262",
      "elevationUnit": "METERS",
      "longitude": 10.9331
    },
    {
      "elevation": 94,
      "mindate": "2005-11-01",
      "maxdate": "2025-01-30",
      "latitude": 59.9419,
      "name": "OSLO BLINDERN PLU, NO",
      "datacoverage": 0.9439,
      "id": "GHCND:NOE00134274",
      "elevationUnit": "METERS",
      "longitude": 10.72
    },
    {
      "elevation": 141,
      "mindate": "2008-04-09",
      "maxdate": "2024-04-09",
      "latitude": 59.5869,
      "name": "ASKIM II, NO",
      "datacoverage": 0.7648,
      "id": "GHCND:NOE00134286",
      "elevationUnit": "METERS",
      "longitude": 11.1658
    },
    {
      "elevation": 131,
      "mindate": "1971-10-01",
      "maxdate": "2018-06-30",
      "latitude": 59.4964,
      "name": "FLOTER, NO",
      "datacoverage": 0.9981,
      "id": "GHCND:NOE00134298",
      "elevationUnit": "METERS",
      "longitude": 11.0131
    },
    {
      "elevation": 280,
      "mindate": "1961-12-01",
      "maxdate": "2025-01-31",
      "latitude": 58.755,
      "name": "HELLAND I GJESDAL, NO",
      "datacoverage": 1,
      "id": "GHCND:NOE00134310",
      "elevationUnit": "METERS",
      "longitude": 6.0133
    },
    {
      "elevation": 2,
      "mindate": "1980-05-01",
      "maxdate": "2025-01-31",
      "latitude": 58.9056,
      "name": "IMS, NO",
      "datacoverage": 1,
      "id": "GHCND:NOE00134322",
      "elevationUnit": "METERS",
      "longitude": 5.9669
    },
    {
      "elevation": 19,
      "mindate": "1967-11-01",
      "maxdate": "2025-01-31",
      "latitude": 59.2692,
      "name": "KARMOY BREKKEVANN, NO",
      "datacoverage": 0.9414,
      "id": "GHCND:NOE00134334",
      "elevationUnit": "METERS",
      "longitude": 5.2631
    },
    {
      "elevation": 24,
      "mindate": "2003-07-01",
      "maxdate": "2025-01-31",
      "latitude": 59.3494,
      "name": "HAUGESUND LUFTHAVN, NO",
      "datacoverage": 0.9999,
      "id": "GHCND:NOE00134350",
      "elevationUnit": "METERS",
      "longitude": 5.1978
    },
    {
      "elevation": 8,
      "mindate": "1977-05-01",
      "maxdate": "2025-01-31",
      "latitude": 59.32,
      "name": "KARMOY HYDRO, NO",
      "datacoverage": 0.9506,
      "id": "GHCND:NOE00134358",
      "elevationUnit": "METERS",
      "longitude": 5.3192
    },
    {
      "elevation": 19,
      "mindate": "2008-04-01",
      "maxdate": "2025-01-30",
      "latitude": 58.8658,
      "name": "SANDNES ROVIK, NO",
      "datacoverage": 0.9458,
      "id": "GHCND:NOE00134370",
      "elevationUnit": "METERS",
      "longitude": 5.7619
    },
    {
      "elevation": 44,
      "mindate": "1972-06-01",
      "maxdate": "2023-01-01",
      "latitude": 58.8283,
      "name": "OLTEDAL, NO",
      "datacoverage": 0.9696,
      "id": "GHCND:NOE00134382",
      "elevationUnit": "METERS",
      "longitude": 6.0553
    },
    {
      "elevation": 25,
      "mindate": "1932-06-30",
      "maxdate": "2025-01-31",
      "latitude": 59.4792,
      "name": "SAND I RYFYLKE II, NO",
      "datacoverage": 1,
      "id": "GHCND:NOE00134394",
      "elevationUnit": "METERS",
      "longitude": 6.2758
    },
    {
      "elevation": 72,
      "mindate": "1967-07-01",
      "maxdate": "2014-05-23",
      "latitude": 59.6494,
      "name": "NESFLATEN, NO",
      "datacoverage": 0.9998,
      "id": "GHCND:NOE00134406",
      "elevationUnit": "METERS",
      "longitude": 6.8203
    },
    {
      "elevation": 64,
      "mindate": "1968-12-31",
      "maxdate": "2012-01-31",
      "latitude": 59.4839,
      "name": "NEDRE VATS, NO",
      "datacoverage": 0.9826,
      "id": "GHCND:NOE00134418",
      "elevationUnit": "METERS",
      "longitude": 5.7506
    },
    {
      "elevation": 32,
      "mindate": "1978-09-01",
      "maxdate": "2025-01-31",
      "latitude": 61.0689,
      "name": "FRESVIK, NO",
      "datacoverage": 1,
      "id": "GHCND:NOE00134430",
      "elevationUnit": "METERS",
      "longitude": 6.9342
    },
    {
      "elevation": 407,
      "mindate": "1974-10-01",
      "maxdate": "2025-01-30",
      "latitude": 61.0589,
      "name": "BORGUND LO, NO",
      "datacoverage": 0.5292,
      "id": "GHCND:NOE00134442",
      "elevationUnit": "METERS",
      "longitude": 7.8194
    },
    {
      "elevation": 7,
      "mindate": "1972-08-01",
      "maxdate": "2025-01-31",
      "latitude": 61.2928,
      "name": "FURENESET, NO",
      "datacoverage": 0.8018,
      "id": "GHCND:NOE00134454",
      "elevationUnit": "METERS",
      "longitude": 5.0442
    },
    {
      "elevation": 9,
      "mindate": "2002-08-01",
      "maxdate": "2025-01-31",
      "latitude": 61.5831,
      "name": "FLORO LUFTHAVN",
      "datacoverage": 1,
      "id": "GHCND:NOE00134470",
      "elevationUnit": "METERS",
      "longitude": 5.0278
    },
    {
      "elevation": 230,
      "mindate": "1972-08-01",
      "maxdate": "2025-01-31",
      "latitude": 61.6592,
      "name": "GJENGEDAL, NO",
      "datacoverage": 1,
      "id": "GHCND:NOE00134478",
      "elevationUnit": "METERS",
      "longitude": 5.9467
    },
    {
      "elevation": 34,
      "mindate": "1972-09-01",
      "maxdate": "2025-01-31",
      "latitude": 61.9181,
      "name": "NORDFJORDEID NYMARK, NO",
      "datacoverage": 1,
      "id": "GHCND:NOE00134490",
      "elevationUnit": "METERS",
      "longitude": 6.0392
    },
    {
      "elevation": 4,
      "mindate": "1972-08-01",
      "maxdate": "2025-01-31",
      "latitude": 61.1083,
      "name": "ORTNEVIK, NO",
      "datacoverage": 1,
      "id": "GHCND:NOE00134502",
      "elevationUnit": "METERS",
      "longitude": 6.1392
    },
    {
      "elevation": 497,
      "mindate": "2003-10-01",
      "maxdate": "2025-01-31",
      "latitude": 61.1581,
      "name": "SOGNDAL LUFTHAVN, NO",
      "datacoverage": 1,
      "id": "GHCND:NOE00134518",
      "elevationUnit": "METERS",
      "longitude": 7.1414
    },
    {
      "elevation": 205,
      "mindate": "1969-06-01",
      "maxdate": "2025-01-31",
      "latitude": 61.5756,
      "name": "SKEI I JOLSTER, NO",
      "datacoverage": 1,
      "id": "GHCND:NOE00134526",
      "elevationUnit": "METERS",
      "longitude": 6.49
    },
    {
      "elevation": 51,
      "mindate": "1957-05-01",
      "maxdate": "2025-01-31",
      "latitude": 61.7881,
      "name": "SANDANE, NO",
      "datacoverage": 0.9811,
      "id": "GHCND:NOE00134538",
      "elevationUnit": "METERS",
      "longitude": 6.1833
    },
    {
      "elevation": 60,
      "mindate": "2004-05-01",
      "maxdate": "2025-01-31",
      "latitude": 61.8292,
      "name": "SANDANE LUFTHAVN, NO",
      "datacoverage": 1,
      "id": "GHCND:NOE00134554",
      "elevationUnit": "METERS",
      "longitude": 6.1042
    },
    {
      "elevation": 1124,
      "mindate": "1974-10-01",
      "maxdate": "2025-01-31",
      "latitude": 61.0067,
      "name": "OLJUSJO PUMPEKRAFTVERK, NO",
      "datacoverage": 0.9298,
      "id": "GHCND:NOE00134562",
      "elevationUnit": "METERS",
      "longitude": 8.0908
    },
    {
      "elevation": 28,
      "mindate": "1966-06-01",
      "maxdate": "2025-01-30",
      "latitude": 61.3114,
      "name": "OVRE ARDAL, NO",
      "datacoverage": 0.9983,
      "id": "GHCND:NOE00134574",
      "elevationUnit": "METERS",
      "longitude": 7.8181
    },
    {
      "elevation": 172,
      "mindate": "1972-08-01",
      "maxdate": "2025-01-31",
      "latitude": 61.4781,
      "name": "VEITASTROND, NO",
      "datacoverage": 1,
      "id": "GHCND:NOE00134586",
      "elevationUnit": "METERS",
      "longitude": 7.0339
    },
    {
      "elevation": 3,
      "mindate": "1972-12-01",
      "maxdate": "2025-01-31",
      "latitude": 61.7706,
      "name": "SVELGEN II, NO",
      "datacoverage": 1,
      "id": "GHCND:NOE00134598",
      "elevationUnit": "METERS",
      "longitude": 5.2989
    },
    {
      "elevation": 512,
      "mindate": "1965-06-01",
      "maxdate": "2018-12-31",
      "latitude": 62.5739,
      "name": "MJOEN, NO",
      "datacoverage": 1,
      "id": "GHCND:NOE00134610",
      "elevationUnit": "METERS",
      "longitude": 9.6458
    },
    {
      "elevation": 13,
      "mindate": "1960-07-01",
      "maxdate": "2025-01-31",
      "latitude": 63.3281,
      "name": "LEINSTRAND, NO",
      "datacoverage": 1,
      "id": "GHCND:NOE00134634",
      "elevationUnit": "METERS",
      "longitude": 10.2733
    },
    {
      "elevation": 290,
      "mindate": "1970-08-01",
      "maxdate": "2011-10-28",
      "latitude": 62.9006,
      "name": "HALTDALEN III, NO",
      "datacoverage": 1,
      "id": "GHCND:NOE00134646",
      "elevationUnit": "METERS",
      "longitude": 11.1725
    },
    {
      "elevation": 165,
      "mindate": "1960-07-01",
      "maxdate": "2025-01-31",
      "latitude": 63.2381,
      "name": "LOKSMYR, NO",
      "datacoverage": 1,
      "id": "GHCND:NOE00134658",
      "elevationUnit": "METERS",
      "longitude": 10.4353
    },
    {
      "elevation": 94,
      "mindate": "1966-08-01",
      "maxdate": "2017-12-31",
      "latitude": 63.9178,
      "name": "BREIVOLL, NO",
      "datacoverage": 1,
      "id": "GHCND:NOE00134670",
      "elevationUnit": "METERS",
      "longitude": 10.415
    },
    {
      "elevation": 18,
      "mindate": "1965-10-31",
      "maxdate": "2025-01-31",
      "latitude": 64.4014,
      "name": "BUHOLMRASA FYR",
      "datacoverage": 0.9057,
      "id": "GHCND:NOE00134682",
      "elevationUnit": "METERS",
      "longitude": 10.455
    },
    {
      "elevation": 596,
      "mindate": "1965-06-01",
      "maxdate": "2025-01-31",
      "latitude": 62.6717,
      "name": "ANGARDSVATNET, NO",
      "datacoverage": 1,
      "id": "GHCND:NOE00134694",
      "elevationUnit": "METERS",
      "longitude": 9.1978
    },
    {
      "elevation": 306,
      "mindate": "1965-06-01",
      "maxdate": "2012-04-20",
      "latitude": 63.2303,
      "name": "SOVATNET, NO",
      "datacoverage": 1,
      "id": "GHCND:NOE00134706",
      "elevationUnit": "METERS",
      "longitude": 9.3489
    },
    {
      "elevation": 730,
      "mindate": "1978-06-01",
      "maxdate": "2023-09-07",
      "latitude": 62.8944,
      "name": "STUGUDAL KASEN, NO",
      "datacoverage": 1,
      "id": "GHCND:NOE00134718",
      "elevationUnit": "METERS",
      "longitude": 11.8633
    },
    {
      "elevation": 280,
      "mindate": "1974-12-01",
      "maxdate": "2022-10-31",
      "latitude": 64.1003,
      "name": "AFJORD MOMYR, NO",
      "datacoverage": 1,
      "id": "GHCND:NOE00134730",
      "elevationUnit": "METERS",
      "longitude": 10.5292
    },
    {
      "elevation": 5,
      "mindate": "1974-12-31",
      "maxdate": "2025-01-31",
      "latitude": 63.8467,
      "name": "SULA, NO",
      "datacoverage": 0.9283,
      "id": "GHCND:NOE00134742",
      "elevationUnit": "METERS",
      "longitude": 8.4667
    },
    {
      "elevation": 28,
      "mindate": "1953-12-01",
      "maxdate": "1974-12-31",
      "latitude": 63.85,
      "name": "SULA FYR, NO",
      "datacoverage": 0.9993,
      "id": "GHCND:NOE00134754",
      "elevationUnit": "METERS",
      "longitude": 8.4667
    },
    {
      "elevation": 42,
      "mindate": "1968-12-31",
      "maxdate": "1997-03-01",
      "latitude": 78.925,
      "name": "NY ALESUND I, NO",
      "datacoverage": 1,
      "id": "GHCND:NOE00134766",
      "elevationUnit": "METERS",
      "longitude": 11.93
    },
    {
      "elevation": 8,
      "mindate": "1973-03-01",
      "maxdate": "2025-03-06",
      "latitude": 78.923,
      "name": "NY ALESUND, NO",
      "datacoverage": 1,
      "id": "GHCND:NOE00134778",
      "elevationUnit": "METERS",
      "longitude": 11.9331
    },
    {
      "elevation": 514,
      "mindate": "1960-08-01",
      "maxdate": "2025-01-30",
      "latitude": 59.8867,
      "name": "BERGELIGREND, NO",
      "datacoverage": 1,
      "id": "GHCND:NOE00134790",
      "elevationUnit": "METERS",
      "longitude": 9.0589
    },
    {
      "elevation": 977,
      "mindate": "1980-10-31",
      "maxdate": "2025-01-31",
      "latitude": 59.8394,
      "name": "MOSSTRAND II, NO",
      "datacoverage": 0.993,
      "id": "GHCND:NOE00134802",
      "elevationUnit": "METERS",
      "longitude": 8.1792
    },
    {
      "elevation": 162,
      "mindate": "1960-08-01",
      "maxdate": "2025-01-31",
      "latitude": 59.6031,
      "name": "HJARTDAL, NO",
      "datacoverage": 0.8561,
      "id": "GHCND:NOE00134815",
      "elevationUnit": "METERS",
      "longitude": 8.7131
    },
    {
      "elevation": 77,
      "mindate": "1971-09-01",
      "maxdate": "2024-05-31",
      "latitude": 59.4064,
      "name": "KVITESEID MOEN, NO",
      "datacoverage": 1,
      "id": "GHCND:NOE00134826",
      "elevationUnit": "METERS",
      "longitude": 8.4756
    },
    {
      "elevation": 12,
      "mindate": "1977-06-01",
      "maxdate": "2016-10-01",
      "latitude": 59.1383,
      "name": "PORSGRUNN BRANNSTASJON, NO",
      "datacoverage": 0.9979,
      "id": "GHCND:NOE00134838",
      "elevationUnit": "METERS",
      "longitude": 9.65
    },
    {
      "elevation": 136,
      "mindate": "1962-09-30",
      "maxdate": "2016-05-31",
      "latitude": 59.1831,
      "name": "SKIEN GEITERYGGEN, NO",
      "datacoverage": 0.2637,
      "id": "GHCND:NOE00134850",
      "elevationUnit": "METERS",
      "longitude": 9.5667
    },
    {
      "elevation": 946,
      "mindate": "1976-10-01",
      "maxdate": "2018-12-21",
      "latitude": 59.815,
      "name": "MOSVATN HAUG, NO",
      "datacoverage": 0.9895,
      "id": "GHCND:NOE00134862",
      "elevationUnit": "METERS",
      "longitude": 8.1364
    },
    {
      "elevation": 567,
      "mindate": "1971-09-01",
      "maxdate": "2025-01-31",
      "latitude": 59.6478,
      "name": "AMOTSDAL, NO",
      "datacoverage": 0.9851,
      "id": "GHCND:NOE00134874",
      "elevationUnit": "METERS",
      "longitude": 8.3767
    },
    {
      "elevation": 14,
      "mindate": "1979-10-31",
      "maxdate": "2025-03-06",
      "latitude": 69.6006,
      "name": "HEKKINGEN FYR",
      "datacoverage": 1,
      "id": "GHCND:NOE00134886",
      "elevationUnit": "METERS",
      "longitude": 17.8372
    },
    {
      "elevation": 8,
      "mindate": "1964-09-30",
      "maxdate": "2025-03-06",
      "latitude": 69.6767,
      "name": "TROMSO LANGNES, NO",
      "datacoverage": 1,
      "id": "GHCND:NOE00134898",
      "elevationUnit": "METERS",
      "longitude": 18.9131
    },
    {
      "elevation": 7,
      "mindate": "1971-07-01",
      "maxdate": "2025-01-31",
      "latitude": 70.0139,
      "name": "GRUNNFJORD STAKKEN, NO",
      "datacoverage": 1,
      "id": "GHCND:NOE00134910",
      "elevationUnit": "METERS",
      "longitude": 19.5781
    },
    {
      "elevation": 6,
      "mindate": "2005-08-01",
      "maxdate": "2025-01-31",
      "latitude": 69.7889,
      "name": "SORKJOSEN LUFTHAVN, NO",
      "datacoverage": 1,
      "id": "GHCND:NOE00134922",
      "elevationUnit": "METERS",
      "longitude": 20.9553
    },
    {
      "elevation": 6,
      "mindate": "1965-07-31",
      "maxdate": "2025-01-31",
      "latitude": 69.8333,
      "name": "NORDSTRAUM I KVAENANGEN",
      "datacoverage": 1,
      "id": "GHCND:NOE00134934",
      "elevationUnit": "METERS",
      "longitude": 21.8842
    },
    {
      "elevation": 12,
      "mindate": "2005-12-01",
      "maxdate": "2025-01-30",
      "latitude": 58.1506,
      "name": "KRISTIANSAND SOMSKLEIVA, NO",
      "datacoverage": 0.6988,
      "id": "GHCND:NOE00134946",
      "elevationUnit": "METERS",
      "longitude": 8.0528
    },
    {
      "elevation": 275,
      "mindate": "1971-05-01",
      "maxdate": "2018-08-30",
      "latitude": 58.3181,
      "name": "FINSLAND, NO",
      "datacoverage": 1,
      "id": "GHCND:NOE00134958",
      "elevationUnit": "METERS",
      "longitude": 7.5939
    },
    {
      "elevation": 504,
      "mindate": "1971-07-01",
      "maxdate": "2025-01-31",
      "latitude": 58.7878,
      "name": "LJOSLAND MONEN, NO",
      "datacoverage": 1,
      "id": "GHCND:NOE00134970",
      "elevationUnit": "METERS",
      "longitude": 7.35
    },
    {
      "elevation": 4,
      "mindate": "1972-05-01",
      "maxdate": "2018-06-21",
      "latitude": 58.1317,
      "name": "KVAVIK, NO",
      "datacoverage": 1,
      "id": "GHCND:NOE00134982",
      "elevationUnit": "METERS",
      "longitude": 7.0389
    },
    {
      "elevation": 55,
      "mindate": "1971-12-31",
      "maxdate": "2025-01-31",
      "latitude": 58.6642,
      "name": "TONSTAD NETTFED, NO",
      "datacoverage": 0.9925,
      "id": "GHCND:NOE00134994",
      "elevationUnit": "METERS",
      "longitude": 6.7089
    },
    {
      "elevation": 12,
      "mindate": "1965-07-01",
      "maxdate": "2014-12-30",
      "latitude": 59.4156,
      "name": "BORREVANNET, NO",
      "datacoverage": 0.9663,
      "id": "GHCND:NOE00135006",
      "elevationUnit": "METERS",
      "longitude": 10.4414
    },
    {
      "elevation": 26,
      "mindate": "1959-03-01",
      "maxdate": "2025-01-31",
      "latitude": 59.23,
      "name": "MELSOM, NO",
      "datacoverage": 0.8835,
      "id": "GHCND:NOE00135018",
      "elevationUnit": "METERS",
      "longitude": 10.3481
    },
    {
      "elevation": 88,
      "mindate": "1959-08-31",
      "maxdate": "2025-01-31",
      "latitude": 59.1842,
      "name": "TORP, NO",
      "datacoverage": 0.5875,
      "id": "GHCND:NOE00135030",
      "elevationUnit": "METERS",
      "longitude": 10.2553
    },
    {
      "elevation": 143,
      "mindate": "1972-10-30",
      "maxdate": "2025-01-31",
      "latitude": 59.9775,
      "name": "SKEDSMO HELLERUD, NO",
      "datacoverage": 0.7564,
      "id": "GHCND:NOE00156679",
      "elevationUnit": "METERS",
      "longitude": 10.9778
    },
    {
      "elevation": 21,
      "mindate": "1964-06-29",
      "maxdate": "2025-01-31",
      "latitude": 59.6253,
      "name": "HAKAVIK, NO",
      "datacoverage": 0.6638,
      "id": "GHCND:NOE00156703",
      "elevationUnit": "METERS",
      "longitude": 9.9531
    },
    {
      "elevation": 182,
      "mindate": "1959-05-30",
      "maxdate": "2025-01-31",
      "latitude": 60.8028,
      "name": "ILSENG, NO",
      "datacoverage": 0.3731,
      "id": "GHCND:NOE00156715",
      "elevationUnit": "METERS",
      "longitude": 11.2028
    },
    {
      "elevation": 42,
      "mindate": "1966-05-30",
      "maxdate": "2025-01-31",
      "latitude": 60.5633,
      "name": "ULVIK HJELTNES, NO",
      "datacoverage": 0.3042,
      "id": "GHCND:NOE00156727",
      "elevationUnit": "METERS",
      "longitude": 6.9325
    }
  ]
}
