{
  "metadata": {
    "resultset": {
      "offset": 129000,
      "count": 154115,
      "limit": 100
    }
  },
  "results": [
    {
      "elevation": 288,
      "mindate": "2011-01-01",
      "maxdate": "2011-04-30",
      "latitude": 37.345887,
      "name": "CHEROKEE, KS US",
      "datacoverage": 1,
      "id": "GHCND:USC00141470",
      "elevationUnit": "METERS",
      "longitude": -94.80885
    },
    {
      "elevation": 237.7,
      "mindate": "1974-01-01",
      "maxdate": "2013-12-18",
      "latitude": 37.1907,
      "name": "CHERRYVALE 5 S, KS US",
      "datacoverage": 1,
      "id": "GHCND:USC00141478",
      "elevationUnit": "METERS",
      "longitude": -95.5587
    },
    {
      "elevation": 823.9,
      "mindate": "1911-09-01",
      "maxdate": "2025-03-07",
      "latitude": 37.8133,
      "name": "CIMARRON, KS US",
      "datacoverage": 1,
      "id": "GHCND:USC00141522",
      "elevationUnit": "METERS",
      "longitude": -100.3456
    },
    {
      "elevation": 359.7,
      "mindate": "1971-03-01",
      "maxdate": "2018-10-31",
      "latitude": 39.4269,
      "name": "CIRCLEVILLE 7 SW, KS US",
      "datacoverage": 0.9906,
      "id": "GHCND:USC00141529",
      "elevationUnit": "METERS",
      "longitude": -95.9155
    },
    {
      "elevation": 548,
      "mindate": "1930-01-01",
      "maxdate": "2025-02-18",
      "latitude": 38.52737,
      "name": "CLAFLIN, KS US",
      "datacoverage": 1,
      "id": "GHCND:USC00141536",
      "elevationUnit": "METERS",
      "longitude": -98.54056
    },
    {
      "elevation": 366.1,
      "mindate": "1902-01-01",
      "maxdate": "2025-03-07",
      "latitude": 39.3739,
      "name": "CLAY CENTER, KS US",
      "datacoverage": 1,
      "id": "GHCND:USC00141559",
      "elevationUnit": "METERS",
      "longitude": -97.1274
    },
    {
      "elevation": 402.9,
      "mindate": "1931-04-01",
      "maxdate": "2025-02-18",
      "latitude": 39.5722,
      "name": "CLIFTON, KS US",
      "datacoverage": 1,
      "id": "GHCND:USC00141593",
      "elevationUnit": "METERS",
      "longitude": -97.2836
    },
    {
      "elevation": 317,
      "mindate": "1948-01-01",
      "maxdate": "1954-06-30",
      "latitude": 37.71667,
      "name": "CLIMAX, KS US",
      "datacoverage": 0.9864,
      "id": "GHCND:USC00141602",
      "elevationUnit": "METERS",
      "longitude": -96.23333
    },
    {
      "elevation": 298.7,
      "mindate": "1977-08-01",
      "maxdate": "2025-03-07",
      "latitude": 38.9407,
      "name": "CLINTON LAKE, KS US",
      "datacoverage": 1,
      "id": "GHCND:USC00141612",
      "elevationUnit": "METERS",
      "longitude": -95.3396
    },
    {
      "elevation": 395,
      "mindate": "1984-01-01",
      "maxdate": "2013-08-02",
      "latitude": 39.6,
      "name": "CLYDE, KS US",
      "datacoverage": 1,
      "id": "GHCND:USC00141632",
      "elevationUnit": "METERS",
      "longitude": -97.40028
    },
    {
      "mindate": "1918-05-01",
      "maxdate": "1930-03-31",
      "latitude": 39.583333,
      "name": "CLYDE RIVER, KS US",
      "datacoverage": 0.9859,
      "id": "GHCND:USC00141635",
      "longitude": -96.4
    },
    {
      "elevation": 600.5,
      "mindate": "1983-01-01",
      "maxdate": "1986-01-31",
      "latitude": 39.2,
      "name": "CODELL 1 NW, KS US",
      "datacoverage": 0.9991,
      "id": "GHCND:USC00141659",
      "elevationUnit": "METERS",
      "longitude": -99.18333
    },
    {
      "elevation": 225.9,
      "mindate": "1894-05-01",
      "maxdate": "1951-09-30",
      "latitude": 37.03333,
      "name": "COFFEYVILLE, KS US",
      "datacoverage": 0.4107,
      "id": "GHCND:USC00141668",
      "elevationUnit": "METERS",
      "longitude": -95.61667
    },
    {
      "elevation": 224.6,
      "mindate": "1948-01-01",
      "maxdate": "2025-03-07",
      "latitude": 37.0613,
      "name": "COFFEYVILLE WATER WRKS, KS US",
      "datacoverage": 1,
      "id": "GHCND:USC00141673",
      "elevationUnit": "METERS",
      "longitude": -95.6355
    },
    {
      "elevation": 965.9,
      "mindate": "1893-01-01",
      "maxdate": "1957-03-31",
      "latitude": 39.41667,
      "name": "COLBY, KS US",
      "datacoverage": 1,
      "id": "GHCND:USC00141696",
      "elevationUnit": "METERS",
      "longitude": -101.05
    },
    {
      "elevation": 966.2,
      "mindate": "1950-01-01",
      "maxdate": "2025-03-07",
      "latitude": 39.3925,
      "name": "COLBY 1 SW, KS US",
      "datacoverage": 1,
      "id": "GHCND:USC00141699",
      "elevationUnit": "METERS",
      "longitude": -101.0689
    },
    {
      "elevation": 644,
      "mindate": "1893-01-01",
      "maxdate": "2025-03-07",
      "latitude": 37.26949,
      "name": "COLDWATER, KS US",
      "datacoverage": 1,
      "id": "GHCND:USC00141704",
      "elevationUnit": "METERS",
      "longitude": -99.32139
    },
    {
      "elevation": 787,
      "mindate": "1893-01-01",
      "maxdate": "1896-10-09",
      "latitude": 39.035563,
      "name": "COLLYER, KS US",
      "datacoverage": 0.9566,
      "id": "GHCND:USC00141728",
      "elevationUnit": "METERS",
      "longitude": -100.117907
    },
    {
      "elevation": 733.7,
      "mindate": "1940-01-01",
      "maxdate": "2025-03-05",
      "latitude": 38.8971,
      "name": "COLLYER 10 S, KS US",
      "datacoverage": 1,
      "id": "GHCND:USC00141730",
      "elevationUnit": "METERS",
      "longitude": -100.1135
    },
    {
      "elevation": 337.7,
      "mindate": "1978-03-01",
      "maxdate": "2025-03-05",
      "latitude": 38.0697,
      "name": "COLONY, KS US",
      "datacoverage": 1,
      "id": "GHCND:USC00141733",
      "elevationUnit": "METERS",
      "longitude": -95.3708
    },
    {
      "elevation": 271.9,
      "mindate": "1892-12-01",
      "maxdate": "2025-03-05",
      "latitude": 37.16806,
      "name": "COLUMBUS, KS US",
      "datacoverage": 1,
      "id": "GHCND:USC00141740",
      "elevationUnit": "METERS",
      "longitude": -94.83002
    },
    {
      "elevation": 436.8,
      "mindate": "2003-01-01",
      "maxdate": "2025-02-17",
      "latitude": 39.55018,
      "name": "CONCORDIA 2 SE, KS US",
      "datacoverage": 1,
      "id": "GHCND:USC00141761",
      "elevationUnit": "METERS",
      "longitude": -97.64516
    },
    {
      "elevation": 468.5,
      "mindate": "2024-03-21",
      "maxdate": "2025-03-07",
      "latitude": 39.53888,
      "name": "CONCORDIA 2 SSE, KS US",
      "datacoverage": 1,
      "id": "GHCND:USC00141762",
      "elevationUnit": "METERS",
      "longitude": -97.6559
    },
    {
      "elevation": 406.6,
      "mindate": "1930-01-01",
      "maxdate": "1945-01-31",
      "latitude": 39.58833,
      "name": "CONCORDIA 2 N, KS US",
      "datacoverage": 0.9659,
      "id": "GHCND:USC00141765",
      "elevationUnit": "METERS",
      "longitude": -97.65806
    },
    {
      "elevation": 418.8,
      "mindate": "1944-12-01",
      "maxdate": "2025-03-04",
      "latitude": 37.35691,
      "name": "CONWAY SPRINGS 4 SW, KS US",
      "datacoverage": 1,
      "id": "GHCND:USC00141795",
      "elevationUnit": "METERS",
      "longitude": -97.69451
    },
    {
      "elevation": 1020.5,
      "mindate": "1894-01-01",
      "maxdate": "1918-02-28",
      "latitude": 38.033333,
      "name": "COOLIDGE, KS US",
      "datacoverage": 0.8451,
      "id": "GHCND:USC00141801",
      "elevationUnit": "METERS",
      "longitude": -102
    },
    {
      "elevation": 375.5,
      "mindate": "1902-12-01",
      "maxdate": "2025-02-28",
      "latitude": 38.3703,
      "name": "COTTONWOOD FALLS, KS US",
      "datacoverage": 1,
      "id": "GHCND:USC00141858",
      "elevationUnit": "METERS",
      "longitude": -96.5483
    },
    {
      "elevation": 399.9,
      "mindate": "1908-10-01",
      "maxdate": "1963-09-30",
      "latitude": 38.66667,
      "name": "COUNCIL GROVE, KS US",
      "datacoverage": 0.9909,
      "id": "GHCND:USC00141866",
      "elevationUnit": "METERS",
      "longitude": -96.5
    },
    {
      "elevation": 400.8,
      "mindate": "1964-06-01",
      "maxdate": "2025-02-20",
      "latitude": 38.6758,
      "name": "COUNCIL GROVE LAKE, KS US",
      "datacoverage": 1,
      "id": "GHCND:USC00141867",
      "elevationUnit": "METERS",
      "longitude": -96.5096
    },
    {
      "elevation": 457.2,
      "mindate": "1961-01-01",
      "maxdate": "2025-03-07",
      "latitude": 39.7811,
      "name": "COURTLAND, KS US",
      "datacoverage": 1,
      "id": "GHCND:USC00141874",
      "elevationUnit": "METERS",
      "longitude": -97.8956
    },
    {
      "elevation": 577.9,
      "mindate": "1940-06-01",
      "maxdate": "2022-02-28",
      "latitude": 39.2425,
      "name": "COVERT, KS US",
      "datacoverage": 1,
      "id": "GHCND:USC00141875",
      "elevationUnit": "METERS",
      "longitude": -98.8677
    },
    {
      "elevation": 484.3,
      "mindate": "1992-01-01",
      "maxdate": "2023-08-08",
      "latitude": 39.80103,
      "name": "CUBA, KS US",
      "datacoverage": 1,
      "id": "GHCND:USC00141941",
      "elevationUnit": "METERS",
      "longitude": -97.45453
    },
    {
      "elevation": 384,
      "mindate": "2017-05-29",
      "maxdate": "2025-03-07",
      "latitude": 38.9706,
      "name": "CULVER, KS US",
      "datacoverage": 0.9398,
      "id": "GHCND:USC00141945",
      "elevationUnit": "METERS",
      "longitude": -97.7599
    },
    {
      "elevation": 512.1,
      "mindate": "1893-01-01",
      "maxdate": "1917-08-31",
      "latitude": 37.65,
      "name": "CUNNINGHAM, KS US",
      "datacoverage": 0.8718,
      "id": "GHCND:USC00141983",
      "elevationUnit": "METERS",
      "longitude": -98.4055
    },
    {
      "mindate": "1917-08-01",
      "maxdate": "1922-08-31",
      "latitude": 37.216667,
      "name": "DALTON ROME, KS US",
      "datacoverage": 0.9998,
      "id": "GHCND:USC00141994",
      "longitude": -97.25
    },
    {
      "elevation": 640.1,
      "mindate": "1953-09-01",
      "maxdate": "2013-01-01",
      "latitude": 39.3213,
      "name": "DAMAR, KS US",
      "datacoverage": 1,
      "id": "GHCND:USC00141999",
      "elevationUnit": "METERS",
      "longitude": -99.5886
    },
    {
      "elevation": 980.5,
      "mindate": "1915-10-01",
      "maxdate": "1975-12-31",
      "latitude": 38.11667,
      "name": "DEERFIELD 10 NNW, KS US",
      "datacoverage": 0.9585,
      "id": "GHCND:USC00142040",
      "elevationUnit": "METERS",
      "longitude": -101.2
    },
    {
      "elevation": 430.1,
      "mindate": "1953-10-01",
      "maxdate": "1975-05-31",
      "latitude": 37.98333,
      "name": "DE GRAFF, KS US",
      "datacoverage": 0.9994,
      "id": "GHCND:USC00142046",
      "elevationUnit": "METERS",
      "longitude": -96.86667
    },
    {
      "elevation": 395.9,
      "mindate": "1896-06-01",
      "maxdate": "1903-05-31",
      "latitude": 39.273889,
      "name": "DELPHOS, KS US",
      "datacoverage": 1,
      "id": "GHCND:USC00142073",
      "elevationUnit": "METERS",
      "longitude": -97.771983
    },
    {
      "elevation": 655,
      "mindate": "1909-05-01",
      "maxdate": "2025-03-05",
      "latitude": 39.66886,
      "name": "DENSMORE 2 N, KS US",
      "datacoverage": 1,
      "id": "GHCND:USC00142086",
      "elevationUnit": "METERS",
      "longitude": -99.73201
    },
    {
      "elevation": 256,
      "mindate": "2009-06-01",
      "maxdate": "2019-05-31",
      "latitude": 38.9708,
      "name": "DE SOTO, KS US",
      "datacoverage": 0.9999,
      "id": "GHCND:USC00142117",
      "elevationUnit": "METERS",
      "longitude": -94.9775
    },
    {
      "elevation": 348.1,
      "mindate": "1940-05-01",
      "maxdate": "1982-03-31",
      "latitude": 37.18333,
      "name": "DEXTER, KS US",
      "datacoverage": 0.9761,
      "id": "GHCND:USC00142126",
      "elevationUnit": "METERS",
      "longitude": -96.71667
    },
    {
      "elevation": 445.9,
      "mindate": "1948-08-01",
      "maxdate": "2012-09-26",
      "latitude": 38.5658,
      "name": "BURDICK DIAMOND SPRINGS, KS US",
      "datacoverage": 1,
      "id": "GHCND:USC00142135",
      "elevationUnit": "METERS",
      "longitude": -96.8477
    },
    {
      "elevation": 366.1,
      "mindate": "1944-07-01",
      "maxdate": "1948-12-19",
      "latitude": 37.5,
      "name": "DOUGLASS, KS US",
      "datacoverage": 0.8141,
      "id": "GHCND:USC00142189",
      "elevationUnit": "METERS",
      "longitude": -96.83333
    },
    {
      "mindate": "1893-03-01",
      "maxdate": "1897-05-31",
      "latitude": 39.5,
      "name": "DOWNS, KS US",
      "datacoverage": 0.9996,
      "id": "GHCND:USC00142202",
      "longitude": -98.55
    },
    {
      "elevation": 454.2,
      "mindate": "1982-06-01",
      "maxdate": "2008-04-30",
      "latitude": 39.5067,
      "name": "DOWNS, KS US",
      "datacoverage": 0.4664,
      "id": "GHCND:USC00142204",
      "elevationUnit": "METERS",
      "longitude": -98.5378
    },
    {
      "elevation": 831.8,
      "mindate": "1895-03-01",
      "maxdate": "2024-02-28",
      "latitude": 39.62523,
      "name": "DRESDEN, KS US",
      "datacoverage": 1,
      "id": "GHCND:USC00142213",
      "elevationUnit": "METERS",
      "longitude": -100.42339
    },
    {
      "elevation": 367.9,
      "mindate": "1963-03-01",
      "maxdate": "2011-12-04",
      "latitude": 38.59667,
      "name": "DUNLAP 2 N, KS US",
      "datacoverage": 1,
      "id": "GHCND:USC00142267",
      "elevationUnit": "METERS",
      "longitude": -96.38056
    },
    {
      "elevation": 420.6,
      "mindate": "1973-07-01",
      "maxdate": "2020-08-07",
      "latitude": 38.483,
      "name": "DURHAM, KS US",
      "datacoverage": 1,
      "id": "GHCND:USC00142276",
      "elevationUnit": "METERS",
      "longitude": -97.225
    },
    {
      "elevation": 273.4,
      "mindate": "1959-01-01",
      "maxdate": "2020-08-15",
      "latitude": 39.3437,
      "name": "EASTON, KS US",
      "datacoverage": 1,
      "id": "GHCND:USC00142329",
      "elevationUnit": "METERS",
      "longitude": -95.1178
    },
    {
      "elevation": 711.1,
      "mindate": "1952-10-01",
      "maxdate": "1954-08-31",
      "latitude": 39.53333,
      "name": "EDMOND 7 S, KS US",
      "datacoverage": 1,
      "id": "GHCND:USC00142357",
      "elevationUnit": "METERS",
      "longitude": -99.85
    },
    {
      "elevation": 295.7,
      "mindate": "2022-01-01",
      "maxdate": "2024-01-09",
      "latitude": 37.06402,
      "name": "EDNA, KS US",
      "datacoverage": 1,
      "id": "GHCND:USC00142358",
      "elevationUnit": "METERS",
      "longitude": -95.36137
    },
    {
      "elevation": 292.6,
      "mindate": "1957-06-01",
      "maxdate": "1987-09-30",
      "latitude": 39.1,
      "name": "EDWARDSVILLE 3 NNW, KS US",
      "datacoverage": 0.8242,
      "id": "GHCND:USC00142380",
      "elevationUnit": "METERS",
      "longitude": -94.83333
    },
    {
      "elevation": 350.5,
      "mindate": "1960-04-01",
      "maxdate": "2018-12-26",
      "latitude": 39.53,
      "name": "EFFINGHAM, KS US",
      "datacoverage": 1,
      "id": "GHCND:USC00142388",
      "elevationUnit": "METERS",
      "longitude": -95.3966
    },
    {
      "elevation": 433.1,
      "mindate": "1975-01-01",
      "maxdate": "2023-12-24",
      "latitude": 38.06154,
      "name": "ELBING 1 NE, KS US",
      "datacoverage": 1,
      "id": "GHCND:USC00142396",
      "elevationUnit": "METERS",
      "longitude": -97.11652
    },
    {
      "mindate": "1892-03-01",
      "maxdate": "1893-03-31",
      "latitude": 38.2667,
      "name": "ELCO, KS US",
      "datacoverage": 0.9223,
      "id": "GHCND:USC00142398",
      "longitude": -98.25
    },
    {
      "elevation": 393.2,
      "mindate": "1893-01-01",
      "maxdate": "2025-03-07",
      "latitude": 37.8182,
      "name": "EL DORADO, KS US",
      "datacoverage": 1,
      "id": "GHCND:USC00142401",
      "elevationUnit": "METERS",
      "longitude": -96.8444
    },
    {
      "elevation": 243.8,
      "mindate": "1896-03-01",
      "maxdate": "2010-12-31",
      "latitude": 37.00722,
      "name": "ELGIN, KS US",
      "datacoverage": 1,
      "id": "GHCND:USC00142409",
      "elevationUnit": "METERS",
      "longitude": -96.27222
    },
    {
      "elevation": 387.1,
      "mindate": "1959-07-01",
      "maxdate": "1974-03-31",
      "latitude": 38.41667,
      "name": "ELK, KS US",
      "datacoverage": 0.9773,
      "id": "GHCND:USC00142417",
      "elevationUnit": "METERS",
      "longitude": -96.81667
    },
    {
      "elevation": 830.6,
      "mindate": "1949-08-01",
      "maxdate": "1989-01-31",
      "latitude": 38.78333,
      "name": "ELKADER, KS US",
      "datacoverage": 0.9218,
      "id": "GHCND:USC00142421",
      "elevationUnit": "METERS",
      "longitude": -100.86667
    },
    {
      "elevation": 284.1,
      "mindate": "1955-07-01",
      "maxdate": "1958-07-31",
      "latitude": 37.23333,
      "name": "ELK CITY 5 SW SOIL CONSERVATION SERVICE 1, KS US",
      "datacoverage": 0.9991,
      "id": "GHCND:USC00142422",
      "elevationUnit": "METERS",
      "longitude": -95.96667
    },
    {
      "elevation": 281,
      "mindate": "1955-07-01",
      "maxdate": "1958-07-31",
      "latitude": 37.23333,
      "name": "ELK CITY 6 SW, KS US",
      "datacoverage": 0.9723,
      "id": "GHCND:USC00142423",
      "elevationUnit": "METERS",
      "longitude": -95.98333
    },
    {
      "elevation": 264.9,
      "mindate": "1955-07-01",
      "maxdate": "1958-07-31",
      "latitude": 37.21667,
      "name": "ELK CITY 7 SSW SOIL CONSERVATION SERVICE 4, KS US",
      "datacoverage": 0.9453,
      "id": "GHCND:USC00142425",
      "elevationUnit": "METERS",
      "longitude": -95.98333
    },
    {
      "elevation": 262.1,
      "mindate": "1955-07-01",
      "maxdate": "1958-07-31",
      "latitude": 37.2,
      "name": "ELK CITY 8 SW SOIL CONSERVATION SERVICE 5, KS US",
      "datacoverage": 0.9991,
      "id": "GHCND:USC00142426",
      "elevationUnit": "METERS",
      "longitude": -96
    },
    {
      "elevation": 264.9,
      "mindate": "1956-08-01",
      "maxdate": "1958-07-31",
      "latitude": 37.18333,
      "name": "ELK CITY 10 SW, KS US",
      "datacoverage": 1,
      "id": "GHCND:USC00142427",
      "elevationUnit": "METERS",
      "longitude": -96.03333
    },
    {
      "elevation": 246.9,
      "mindate": "1956-08-01",
      "maxdate": "1958-07-31",
      "latitude": 37.15,
      "name": "ELK CITY 10 SSW, KS US",
      "datacoverage": 1,
      "id": "GHCND:USC00142428",
      "elevationUnit": "METERS",
      "longitude": -95.98333
    },
    {
      "elevation": 267.9,
      "mindate": "1956-08-01",
      "maxdate": "1958-07-31",
      "latitude": 37.18333,
      "name": "ELK CITY 8 SSW, KS US",
      "datacoverage": 1,
      "id": "GHCND:USC00142429",
      "elevationUnit": "METERS",
      "longitude": -95.96667
    },
    {
      "elevation": 258.8,
      "mindate": "1964-04-01",
      "maxdate": "2016-03-01",
      "latitude": 37.2775,
      "name": "ELK CITY LAKE, KS US",
      "datacoverage": 1,
      "id": "GHCND:USC00142430",
      "elevationUnit": "METERS",
      "longitude": -95.77694
    },
    {
      "elevation": 1097,
      "mindate": "1900-01-01",
      "maxdate": "2025-03-06",
      "latitude": 37.0057,
      "name": "ELKHART, KS US",
      "datacoverage": 1,
      "id": "GHCND:USC00142432",
      "elevationUnit": "METERS",
      "longitude": -101.8866
    },
    {
      "elevation": 1079.9,
      "mindate": "1948-08-01",
      "maxdate": "1951-09-30",
      "latitude": 37.05,
      "name": "ELKHART 3 N, KS US",
      "datacoverage": 1,
      "id": "GHCND:USC00142437",
      "elevationUnit": "METERS",
      "longitude": -101.9
    },
    {
      "mindate": "1894-01-01",
      "maxdate": "1925-03-31",
      "latitude": 38.35,
      "name": "ELLINWOOD, KS US",
      "datacoverage": 0.9946,
      "id": "GHCND:USC00142443",
      "longitude": -98.566667
    },
    {
      "elevation": 545.6,
      "mindate": "2008-01-01",
      "maxdate": "2025-03-07",
      "latitude": 38.365,
      "name": "ELLINWOOD NUMBER 1, KS US",
      "datacoverage": 1,
      "id": "GHCND:USC00142445",
      "elevationUnit": "METERS",
      "longitude": -98.5844
    },
    {
      "elevation": 647.7,
      "mindate": "1894-08-01",
      "maxdate": "2025-01-31",
      "latitude": 38.9364,
      "name": "ELLIS, KS US",
      "datacoverage": 1,
      "id": "GHCND:USC00142452",
      "elevationUnit": "METERS",
      "longitude": -99.5693
    },
    {
      "elevation": 477.9,
      "mindate": "1904-01-01",
      "maxdate": "2025-02-24",
      "latitude": 38.7297,
      "name": "ELLSWORTH, KS US",
      "datacoverage": 1,
      "id": "GHCND:USC00142459",
      "elevationUnit": "METERS",
      "longitude": -98.225
    },
    {
      "elevation": 366.1,
      "mindate": "1932-10-01",
      "maxdate": "1959-06-24",
      "latitude": 38.36667,
      "name": "ELMDALE, KS US",
      "datacoverage": 0.9846,
      "id": "GHCND:USC00142468",
      "elevationUnit": "METERS",
      "longitude": -96.65
    },
    {
      "elevation": 396.2,
      "mindate": "1978-10-01",
      "maxdate": "2009-12-31",
      "latitude": 38.4127,
      "name": "ELMDALE, KS US",
      "datacoverage": 0.9946,
      "id": "GHCND:USC00142470",
      "elevationUnit": "METERS",
      "longitude": -96.767
    },
    {
      "elevation": 364.5,
      "mindate": "2003-08-01",
      "maxdate": "2025-03-04",
      "latitude": 38.3922,
      "name": "ELMDALE 2 NE, KS US",
      "datacoverage": 1,
      "id": "GHCND:USC00142472",
      "elevationUnit": "METERS",
      "longitude": -96.6228
    },
    {
      "elevation": 399.3,
      "mindate": "1948-01-01",
      "maxdate": "2010-12-31",
      "latitude": 38.68333,
      "name": "ELMO 1 SW, KS US",
      "datacoverage": 1,
      "id": "GHCND:USC00142478",
      "elevationUnit": "METERS",
      "longitude": -97.23333
    },
    {
      "elevation": 806.2,
      "mindate": "1971-07-01",
      "maxdate": "1989-01-31",
      "latitude": 38.1273,
      "name": "KALVESTA 13 NW, KS US",
      "datacoverage": 0.8148,
      "id": "GHCND:USC00142497",
      "elevationUnit": "METERS",
      "longitude": -100.5079
    },
    {
      "elevation": 313.9,
      "mindate": "1912-06-01",
      "maxdate": "2010-12-31",
      "latitude": 39.3069,
      "name": "EMMETT, KS US",
      "datacoverage": 1,
      "id": "GHCND:USC00142519",
      "elevationUnit": "METERS",
      "longitude": -96.0566
    },
    {
      "elevation": 328.3,
      "mindate": "1893-01-01",
      "maxdate": "1961-09-30",
      "latitude": 38.3861,
      "name": "EMPORIA 1 S, KS US",
      "datacoverage": 0.9831,
      "id": "GHCND:USC00142541",
      "elevationUnit": "METERS",
      "longitude": -96.1818
    },
    {
      "elevation": 377.3,
      "mindate": "1979-01-01",
      "maxdate": "2025-03-07",
      "latitude": 38.4294,
      "name": "EMPORIA 3 NW, KS US",
      "datacoverage": 1,
      "id": "GHCND:USC00142548",
      "elevationUnit": "METERS",
      "longitude": -96.2188
    },
    {
      "elevation": 600.5,
      "mindate": "1890-12-01",
      "maxdate": "1951-09-29",
      "latitude": 37.0459,
      "name": "ENGLEWOOD 1 NW, KS US",
      "datacoverage": 0.3507,
      "id": "GHCND:USC00142560",
      "elevationUnit": "METERS",
      "longitude": -99.9964
    },
    {
      "elevation": 353.6,
      "mindate": "1903-10-01",
      "maxdate": "2018-07-31",
      "latitude": 38.9008,
      "name": "ENTERPRISE, KS US",
      "datacoverage": 1,
      "id": "GHCND:USC00142574",
      "elevationUnit": "METERS",
      "longitude": -97.1097
    },
    {
      "elevation": 273.4,
      "mindate": "1943-07-01",
      "maxdate": "2025-03-06",
      "latitude": 37.5668,
      "name": "ERIE, KS US",
      "datacoverage": 1,
      "id": "GHCND:USC00142582",
      "elevationUnit": "METERS",
      "longitude": -95.24583
    },
    {
      "elevation": 274.9,
      "mindate": "2024-01-01",
      "maxdate": "2024-08-19",
      "latitude": 37.5494,
      "name": "ERIE 2 SW RIVER, KS US",
      "datacoverage": 1,
      "id": "GHCND:USC00142586",
      "elevationUnit": "METERS",
      "longitude": -95.2644
    },
    {
      "elevation": 570,
      "mindate": "1951-09-01",
      "maxdate": "2010-12-31",
      "latitude": 39.93028,
      "name": "ESBON 7 N, KS US",
      "datacoverage": 1,
      "id": "GHCND:USC00142592",
      "elevationUnit": "METERS",
      "longitude": -98.42694
    },
    {
      "elevation": 430.1,
      "mindate": "1897-07-01",
      "maxdate": "2025-03-06",
      "latitude": 38.8592,
      "name": "ESKRIDGE, KS US",
      "datacoverage": 1,
      "id": "GHCND:USC00142602",
      "elevationUnit": "METERS",
      "longitude": -96.1058
    },
    {
      "elevation": 267.3,
      "mindate": "2016-01-01",
      "maxdate": "2025-02-26",
      "latitude": 38.93122,
      "name": "EUDORA 1 S, KS US",
      "datacoverage": 0.9991,
      "id": "GHCND:USC00142620",
      "elevationUnit": "METERS",
      "longitude": -95.10167
    },
    {
      "elevation": 335.3,
      "mindate": "1895-05-01",
      "maxdate": "2025-01-31",
      "latitude": 37.8253,
      "name": "EUREKA 1 E, KS US",
      "datacoverage": 1,
      "id": "GHCND:USC00142622",
      "elevationUnit": "METERS",
      "longitude": -96.2644
    },
    {
      "elevation": 324.3,
      "mindate": "2021-01-01",
      "maxdate": "2025-01-04",
      "latitude": 37.75005,
      "name": "EUREKA 5 SSE, KS US",
      "datacoverage": 0.9993,
      "id": "GHCND:USC00142623",
      "elevationUnit": "METERS",
      "longitude": -96.25064
    },
    {
      "elevation": 707.1,
      "mindate": "1893-01-01",
      "maxdate": "1904-03-31",
      "latitude": 38.916667,
      "name": "EUREKA RANCH, KS US",
      "datacoverage": 0.9634,
      "id": "GHCND:USC00142624",
      "elevationUnit": "METERS",
      "longitude": -99.733333
    },
    {
      "elevation": 413.3,
      "mindate": "1958-04-01",
      "maxdate": "2025-02-12",
      "latitude": 39.5539,
      "name": "FACT 3 W, KS US",
      "datacoverage": 1,
      "id": "GHCND:USC00142652",
      "elevationUnit": "METERS",
      "longitude": -97.063
    },
    {
      "elevation": 374.3,
      "mindate": "2014-01-01",
      "maxdate": "2025-03-05",
      "latitude": 39.8349,
      "name": "FAIRVIEW, KS US",
      "datacoverage": 0.8072,
      "id": "GHCND:USC00142660",
      "elevationUnit": "METERS",
      "longitude": -95.7229
    },
    {
      "elevation": 314.2,
      "mindate": "1896-11-01",
      "maxdate": "2021-11-30",
      "latitude": 37.64748,
      "name": "FALL RIVER LAKE, KS US",
      "datacoverage": 1,
      "id": "GHCND:USC00142686",
      "elevationUnit": "METERS",
      "longitude": -96.07803
    },
    {
      "elevation": 409,
      "mindate": "1973-07-01",
      "maxdate": "1983-11-30",
      "latitude": 38.66667,
      "name": "FALUN, KS US",
      "datacoverage": 0.16,
      "id": "GHCND:USC00142693",
      "elevationUnit": "METERS",
      "longitude": -97.75
    },
    {
      "mindate": "1897-12-01",
      "maxdate": "1901-07-31",
      "latitude": 39.833333,
      "name": "FANNING, KS US",
      "datacoverage": 0.9782,
      "id": "GHCND:USC00142721",
      "longitude": -95.166667
    },
    {
      "elevation": 393.2,
      "mindate": "1925-10-01",
      "maxdate": "2010-12-31",
      "latitude": 38.2422,
      "name": "FLORENCE, KS US",
      "datacoverage": 1,
      "id": "GHCND:USC00142773",
      "elevationUnit": "METERS",
      "longitude": -96.9241
    },
    {
      "mindate": "1902-01-01",
      "maxdate": "1906-08-31",
      "latitude": 37.816667,
      "name": "FORSHA, KS US",
      "datacoverage": 0.9429,
      "id": "GHCND:USC00142809",
      "longitude": -97.916667
    },
    {
      "elevation": 322.8,
      "mindate": "1893-05-01",
      "maxdate": "2025-03-07",
      "latitude": 39.0572,
      "name": "FORT RILEY, KS US",
      "datacoverage": 0.2112,
      "id": "GHCND:USC00142827",
      "elevationUnit": "METERS",
      "longitude": -96.7651
    }
  ]
}
