{
  "metadata": {
    "resultset": {
      "offset": 94000,
      "count": 154115,
      "limit": 100
    }
  },
  "results": [
    {
      "elevation": 117.3,
      "mindate": "2011-04-01",
      "maxdate": "2014-08-01",
      "latitude": 32.551881,
      "name": "ARCADIA 0.1 NNW, LA US",
      "datacoverage": 0.998,
      "id": "GHCND:US1LABV0002",
      "elevationUnit": "METERS",
      "longitude": -92.9250418
    },
    {
      "elevation": 75.6,
      "mindate": "2023-07-10",
      "maxdate": "2025-03-05",
      "latitude": 32.3519432,
      "name": "BIENVILLE 1.6 ESE, LA US",
      "datacoverage": 0.9108,
      "id": "GHCND:US1LABV0007",
      "elevationUnit": "METERS",
      "longitude": -92.951154
    },
    {
      "elevation": 76.2,
      "mindate": "2023-10-19",
      "maxdate": "2025-03-05",
      "latitude": 32.2995791,
      "name": "RINGGOLD 3.3 ESE, LA US",
      "datacoverage": 1,
      "id": "GHCND:US1LABV0008",
      "elevationUnit": "METERS",
      "longitude": -93.2371019
    },
    {
      "elevation": 73.2,
      "mindate": "2023-01-01",
      "maxdate": "2024-11-13",
      "latitude": 32.3831,
      "name": "RINGGOLD 6.5 NW, LA US",
      "datacoverage": 0.8316,
      "id": "GHCND:US1LABV0009",
      "elevationUnit": "METERS",
      "longitude": -93.3727
    },
    {
      "elevation": 69.8,
      "mindate": "2023-11-09",
      "maxdate": "2024-06-19",
      "latitude": 32.240766,
      "name": "RINGGOLD 8.4 SW, LA US",
      "datacoverage": 0.5179,
      "id": "GHCND:US1LABV0010",
      "elevationUnit": "METERS",
      "longitude": -93.387162
    },
    {
      "elevation": 131.4,
      "mindate": "2014-04-01",
      "maxdate": "2014-12-25",
      "latitude": 32.698802947998,
      "name": "MINDEN 10.0 NE, LA US",
      "datacoverage": 0.998,
      "id": "GHCND:US1LACB0005",
      "elevationUnit": "METERS",
      "longitude": -93.139778137207
    },
    {
      "elevation": 73.5,
      "mindate": "2017-10-13",
      "maxdate": "2021-09-02",
      "latitude": 32.790481,
      "name": "HOMER 0.5 ESE, LA US",
      "datacoverage": 0.9783,
      "id": "GHCND:US1LACB0007",
      "elevationUnit": "METERS",
      "longitude": -93.0504815
    },
    {
      "elevation": 95.7,
      "mindate": "2023-06-10",
      "maxdate": "2025-03-07",
      "latitude": 32.805272,
      "name": "HOMER 2.7 WNW, LA US",
      "datacoverage": 0.9996,
      "id": "GHCND:US1LACB0008",
      "elevationUnit": "METERS",
      "longitude": -93.102967
    },
    {
      "elevation": 6.1,
      "mindate": "2008-06-01",
      "maxdate": "2025-03-06",
      "latitude": 30.232246,
      "name": "IOWA 0.9 ESE, LA US",
      "datacoverage": 1,
      "id": "GHCND:US1LACC0003",
      "elevationUnit": "METERS",
      "longitude": -92.998641
    },
    {
      "elevation": 4,
      "mindate": "2008-02-01",
      "maxdate": "2018-06-16",
      "latitude": 30.2545,
      "name": "WESTLAKE 0.7 WNW, LA US",
      "datacoverage": 0.9583,
      "id": "GHCND:US1LACC0005",
      "elevationUnit": "METERS",
      "longitude": -93.2694
    },
    {
      "elevation": 4.6,
      "mindate": "2008-01-01",
      "maxdate": "2025-03-07",
      "latitude": 30.233936,
      "name": "SULPHUR 2.2 E, LA US",
      "datacoverage": 0.7495,
      "id": "GHCND:US1LACC0006",
      "elevationUnit": "METERS",
      "longitude": -93.320547
    },
    {
      "elevation": 4.6,
      "mindate": "2009-02-01",
      "maxdate": "2020-04-29",
      "latitude": 30.369757,
      "name": "IOWA 9.7 NNW, LA US",
      "datacoverage": 1,
      "id": "GHCND:US1LACC0009",
      "elevationUnit": "METERS",
      "longitude": -93.066912
    },
    {
      "elevation": 3.7,
      "mindate": "2009-09-01",
      "maxdate": "2011-05-03",
      "latitude": 30.199167,
      "name": "SULPHUR 3.6 SW, LA US",
      "datacoverage": 1,
      "id": "GHCND:US1LACC0011",
      "elevationUnit": "METERS",
      "longitude": -93.404806
    },
    {
      "elevation": 6.4,
      "mindate": "2011-01-01",
      "maxdate": "2025-03-07",
      "latitude": 30.145005,
      "name": "LAKE CHARLES 4.8 SSE, LA US",
      "datacoverage": 0.8891,
      "id": "GHCND:US1LACC0014",
      "elevationUnit": "METERS",
      "longitude": -93.17644
    },
    {
      "elevation": 4.3,
      "mindate": "2014-03-01",
      "maxdate": "2014-10-15",
      "latitude": 30.229721,
      "name": "LAKE CHARLES 1.5 NNW, LA US",
      "datacoverage": 0.9939,
      "id": "GHCND:US1LACC0015",
      "elevationUnit": "METERS",
      "longitude": -93.216685
    },
    {
      "elevation": 16.2,
      "mindate": "2015-11-01",
      "maxdate": "2017-06-02",
      "latitude": 30.3912,
      "name": "DE QUINCY 4.4 SSE, LA US",
      "datacoverage": 1,
      "id": "GHCND:US1LACC0016",
      "elevationUnit": "METERS",
      "longitude": -93.411405
    },
    {
      "elevation": 4,
      "mindate": "2016-04-29",
      "maxdate": "2017-02-01",
      "latitude": 30.230848,
      "name": "LAKE CHARLES 1.5 NNW, LA US",
      "datacoverage": 0.9925,
      "id": "GHCND:US1LACC0017",
      "elevationUnit": "METERS",
      "longitude": -93.210874
    },
    {
      "elevation": 4,
      "mindate": "2017-02-01",
      "maxdate": "2019-06-25",
      "latitude": 30.184241,
      "name": "LAKE CHARLES 1.8 S, LA US",
      "datacoverage": 0.4971,
      "id": "GHCND:US1LACC0018",
      "elevationUnit": "METERS",
      "longitude": -93.201072
    },
    {
      "elevation": 3.7,
      "mindate": "2018-05-25",
      "maxdate": "2021-06-07",
      "latitude": 30.204,
      "name": "SULPHUR 2.2 S, LA US",
      "datacoverage": 0.8568,
      "id": "GHCND:US1LACC0020",
      "elevationUnit": "METERS",
      "longitude": -93.375
    },
    {
      "elevation": 5.5,
      "mindate": "2018-05-29",
      "maxdate": "2019-12-14",
      "latitude": 30.1626,
      "name": "LAKE CHARLES 3.7 SSE, LA US",
      "datacoverage": 0.6617,
      "id": "GHCND:US1LACC0021",
      "elevationUnit": "METERS",
      "longitude": -93.1761
    },
    {
      "elevation": 4,
      "mindate": "2020-05-09",
      "maxdate": "2025-03-05",
      "latitude": 30.190118,
      "name": "LAKE CHARLES 1.8 SW, LA US",
      "datacoverage": 0.9047,
      "id": "GHCND:US1LACC0023",
      "elevationUnit": "METERS",
      "longitude": -93.222177
    },
    {
      "elevation": 59.1,
      "mindate": "2008-01-01",
      "maxdate": "2025-03-07",
      "latitude": 32.382509,
      "name": "SHREVEPORT 6.2 S, LA US",
      "datacoverage": 1,
      "id": "GHCND:US1LACD0001",
      "elevationUnit": "METERS",
      "longitude": -93.797925
    },
    {
      "elevation": 57.9,
      "mindate": "2008-01-01",
      "maxdate": "2009-03-10",
      "latitude": 32.38745,
      "name": "SHREVEPORT 6.0 SSW, LA US",
      "datacoverage": 1,
      "id": "GHCND:US1LACD0002",
      "elevationUnit": "METERS",
      "longitude": -93.8267
    },
    {
      "elevation": 57.3,
      "mindate": "2008-03-28",
      "maxdate": "2025-03-07",
      "latitude": 32.379624,
      "name": "SHREVEPORT 6.3 S, LA US",
      "datacoverage": 0.9948,
      "id": "GHCND:US1LACD0004",
      "elevationUnit": "METERS",
      "longitude": -93.801938
    },
    {
      "elevation": 57,
      "mindate": "2008-09-01",
      "maxdate": "2012-07-22",
      "latitude": 32.365321,
      "name": "SHREVEPORT 9.1 SE, LA US",
      "datacoverage": 0.8514,
      "id": "GHCND:US1LACD0006",
      "elevationUnit": "METERS",
      "longitude": -93.705445
    },
    {
      "elevation": 55.2,
      "mindate": "2009-08-01",
      "maxdate": "2013-02-19",
      "latitude": 32.3796,
      "name": "SHREVEPORT 6.4 S, LA US",
      "datacoverage": 1,
      "id": "GHCND:US1LACD0009",
      "elevationUnit": "METERS",
      "longitude": -93.8031183
    },
    {
      "elevation": 62.5,
      "mindate": "2011-02-01",
      "maxdate": "2018-01-15",
      "latitude": 32.362475,
      "name": "KEITHVILLE 4.2 WNW, LA US",
      "datacoverage": 0.4069,
      "id": "GHCND:US1LACD0010",
      "elevationUnit": "METERS",
      "longitude": -93.898121
    },
    {
      "elevation": 67.7,
      "mindate": "2012-05-01",
      "maxdate": "2025-03-03",
      "latitude": 32.3586669,
      "name": "KEITHVILLE 1.5 NNW, LA US",
      "datacoverage": 0.9784,
      "id": "GHCND:US1LACD0012",
      "elevationUnit": "METERS",
      "longitude": -93.855524
    },
    {
      "elevation": 57.3,
      "mindate": "2013-01-01",
      "maxdate": "2020-07-22",
      "latitude": 32.4706,
      "name": "SHREVEPORT 3.0 E, LA US",
      "datacoverage": 0.8202,
      "id": "GHCND:US1LACD0013",
      "elevationUnit": "METERS",
      "longitude": -93.7466
    },
    {
      "elevation": 64.6,
      "mindate": "2014-04-01",
      "maxdate": "2019-06-12",
      "latitude": 32.461254119873,
      "name": "SHREVEPORT 3.2 ESE, LA US",
      "datacoverage": 0.9993,
      "id": "GHCND:US1LACD0014",
      "elevationUnit": "METERS",
      "longitude": -93.7446975708008
    },
    {
      "elevation": 51.8,
      "mindate": "2015-07-01",
      "maxdate": "2023-05-16",
      "latitude": 32.375538,
      "name": "SHREVEPORT 6.7 S, LA US",
      "datacoverage": 0.9961,
      "id": "GHCND:US1LACD0019",
      "elevationUnit": "METERS",
      "longitude": -93.805489
    },
    {
      "elevation": 52.1,
      "mindate": "2017-03-30",
      "maxdate": "2017-10-07",
      "latitude": 32.482069,
      "name": "SHREVEPORT 4.2 E, LA US",
      "datacoverage": 0.998,
      "id": "GHCND:US1LACD0025",
      "elevationUnit": "METERS",
      "longitude": -93.726766
    },
    {
      "elevation": 72.5,
      "mindate": "2015-10-03",
      "maxdate": "2022-03-22",
      "latitude": 32.621665,
      "name": "BLANCHARD 2.8 NNE, LA US",
      "datacoverage": 0.9994,
      "id": "GHCND:US1LACD0026",
      "elevationUnit": "METERS",
      "longitude": -93.88497
    },
    {
      "elevation": 69.8,
      "mindate": "2017-04-20",
      "maxdate": "2022-08-23",
      "latitude": 32.894646,
      "name": "VIVIAN 1.5 N, LA US",
      "datacoverage": 0.998,
      "id": "GHCND:US1LACD0027",
      "elevationUnit": "METERS",
      "longitude": -93.98284
    },
    {
      "elevation": 84.1,
      "mindate": "2018-11-15",
      "maxdate": "2023-12-31",
      "latitude": 32.63027778,
      "name": "SHREVEPORT 12.9 NNW, LA US",
      "datacoverage": 0.9696,
      "id": "GHCND:US1LACD0029",
      "elevationUnit": "METERS",
      "longitude": -93.91361111
    },
    {
      "elevation": 49.1,
      "mindate": "2020-03-01",
      "maxdate": "2025-03-07",
      "latitude": 32.3531,
      "name": "KEITHVILLE 2.0 NE, LA US",
      "datacoverage": 0.8167,
      "id": "GHCND:US1LACD0032",
      "elevationUnit": "METERS",
      "longitude": -93.8053
    },
    {
      "elevation": 64.9,
      "mindate": "2021-04-20",
      "maxdate": "2025-03-06",
      "latitude": 32.414364,
      "name": "SHREVEPORT 4.0 S, LA US",
      "datacoverage": 0.7041,
      "id": "GHCND:US1LACD0036",
      "elevationUnit": "METERS",
      "longitude": -93.784459
    },
    {
      "elevation": 1.5,
      "mindate": "2014-04-01",
      "maxdate": "2025-03-07",
      "latitude": 30.0483,
      "name": "LAKE CHARLES 11.5 SSW, LA US",
      "datacoverage": 0.9993,
      "id": "GHCND:US1LACM0003",
      "elevationUnit": "METERS",
      "longitude": -93.2414
    },
    {
      "elevation": 16.5,
      "mindate": "2010-05-01",
      "maxdate": "2017-02-26",
      "latitude": 31.647272,
      "name": "FERRIDAY 1.1 NNW, LA US",
      "datacoverage": 0.9991,
      "id": "GHCND:US1LACN0002",
      "elevationUnit": "METERS",
      "longitude": -91.565055
    },
    {
      "elevation": 17.1,
      "mindate": "2019-05-15",
      "maxdate": "2025-03-05",
      "latitude": 31.62954833,
      "name": "FSA FERRIDAY 1.0 WSW, LA US",
      "datacoverage": 0.6566,
      "id": "GHCND:US1LACN0003",
      "elevationUnit": "METERS",
      "longitude": -91.570515
    },
    {
      "elevation": 21.9,
      "mindate": "2008-09-01",
      "maxdate": "2022-10-08",
      "latitude": 31.8719,
      "name": "SICILY ISLAND 3.3 WNW, LA US",
      "datacoverage": 1,
      "id": "GHCND:US1LACT0001",
      "elevationUnit": "METERS",
      "longitude": -91.7097
    },
    {
      "elevation": 17.4,
      "mindate": "2019-06-06",
      "maxdate": "2025-03-05",
      "latitude": 31.620592,
      "name": "FSA JONESVILLE 0.9 W, LA US",
      "datacoverage": 0.56,
      "id": "GHCND:US1LACT0003",
      "elevationUnit": "METERS",
      "longitude": -91.84547968
    },
    {
      "elevation": 18.3,
      "mindate": "2020-11-07",
      "maxdate": "2025-01-27",
      "latitude": 31.72053,
      "name": "JONESVILLE 6.8 N, LA US",
      "datacoverage": 0.92,
      "id": "GHCND:US1LACT0004",
      "elevationUnit": "METERS",
      "longitude": -91.8413483
    },
    {
      "elevation": 75.3,
      "mindate": "2009-02-01",
      "maxdate": "2014-04-15",
      "latitude": 32.167164,
      "name": "COLUMBIA 6.1 NW, LA US",
      "datacoverage": 0.3338,
      "id": "GHCND:US1LACW0002",
      "elevationUnit": "METERS",
      "longitude": -92.147384
    },
    {
      "elevation": 21.3,
      "mindate": "2015-03-01",
      "maxdate": "2025-03-07",
      "latitude": 32.155833,
      "name": "COLUMBIA 4.1 NNW, LA US",
      "datacoverage": 0.9967,
      "id": "GHCND:US1LACW0003",
      "elevationUnit": "METERS",
      "longitude": -92.106393
    },
    {
      "elevation": 77.7,
      "mindate": "2018-04-01",
      "maxdate": "2025-03-07",
      "latitude": 32.082085,
      "name": "MANSFIELD 6.5 ENE, LA US",
      "datacoverage": 0.7468,
      "id": "GHCND:US1LADS0004",
      "elevationUnit": "METERS",
      "longitude": -93.607716
    },
    {
      "elevation": 89,
      "mindate": "2019-04-16",
      "maxdate": "2022-11-30",
      "latitude": 32.234641,
      "name": "STONEWALL 2.4 SSW, LA US",
      "datacoverage": 0.8491,
      "id": "GHCND:US1LADS0005",
      "elevationUnit": "METERS",
      "longitude": -93.837748
    },
    {
      "elevation": 55.5,
      "mindate": "2020-03-01",
      "maxdate": "2025-03-07",
      "latitude": 32.321724,
      "name": "STONEWALL 5.3 NE, LA US",
      "datacoverage": 0.9986,
      "id": "GHCND:US1LADS0006",
      "elevationUnit": "METERS",
      "longitude": -93.75777
    },
    {
      "elevation": 65.2,
      "mindate": "2021-06-27",
      "maxdate": "2025-03-05",
      "latitude": 32.2862911,
      "name": "STONEWALL 1.7 NNW, LA US",
      "datacoverage": 0.1803,
      "id": "GHCND:US1LADS0007",
      "elevationUnit": "METERS",
      "longitude": -93.8295127
    },
    {
      "elevation": 91.7,
      "mindate": "2022-10-01",
      "maxdate": "2025-03-06",
      "latitude": 31.876786,
      "name": "CONVERSE 7.8 NNW, LA US",
      "datacoverage": 0.9663,
      "id": "GHCND:US1LADS0008",
      "elevationUnit": "METERS",
      "longitude": -93.768982
    },
    {
      "elevation": 62.5,
      "mindate": "2022-10-12",
      "maxdate": "2023-09-26",
      "latitude": 32.257563,
      "name": "FRIERSON 0.6 NE, LA US",
      "datacoverage": 1,
      "id": "GHCND:US1LADS0010",
      "elevationUnit": "METERS",
      "longitude": -93.682362
    },
    {
      "elevation": 72.8,
      "mindate": "2022-10-12",
      "maxdate": "2023-09-30",
      "latitude": 32.197873,
      "name": "FRIERSON 3.9 SSW, LA US",
      "datacoverage": 0.4548,
      "id": "GHCND:US1LADS0011",
      "elevationUnit": "METERS",
      "longitude": -93.711258
    },
    {
      "elevation": 84.4,
      "mindate": "2023-10-01",
      "maxdate": "2025-03-06",
      "latitude": 32.00664,
      "name": "LOGANSPORT 3.7 NE, LA US",
      "datacoverage": 0.7889,
      "id": "GHCND:US1LADS0012",
      "elevationUnit": "METERS",
      "longitude": -93.94473
    },
    {
      "elevation": 21,
      "mindate": "2008-01-01",
      "maxdate": "2021-06-28",
      "latitude": 30.4218,
      "name": "BATON ROUGE 2.7 SW, LA US",
      "datacoverage": 1,
      "id": "GHCND:US1LAEB0002",
      "elevationUnit": "METERS",
      "longitude": -91.1576
    },
    {
      "elevation": 17.1,
      "mindate": "2008-01-01",
      "maxdate": "2018-12-31",
      "latitude": 30.365746,
      "name": "GARDERE 1.2 ENE, LA US",
      "datacoverage": 0.8789,
      "id": "GHCND:US1LAEB0005",
      "elevationUnit": "METERS",
      "longitude": -91.11681
    },
    {
      "elevation": 28,
      "mindate": "2008-01-01",
      "maxdate": "2010-06-28",
      "latitude": 30.6184,
      "name": "ZACHARY 5.5 ESE, LA US",
      "datacoverage": 1,
      "id": "GHCND:US1LAEB0006",
      "elevationUnit": "METERS",
      "longitude": -91.0759
    },
    {
      "elevation": 32,
      "mindate": "2008-01-01",
      "maxdate": "2025-03-05",
      "latitude": 30.60694,
      "name": "BROWNFIELDS 5.8 NE, LA US",
      "datacoverage": 0.99,
      "id": "GHCND:US1LAEB0009",
      "elevationUnit": "METERS",
      "longitude": -91.0533
    },
    {
      "elevation": 18,
      "mindate": "2008-01-01",
      "maxdate": "2025-03-07",
      "latitude": 30.439266,
      "name": "BATON ROUGE 3.5 E, LA US",
      "datacoverage": 1,
      "id": "GHCND:US1LAEB0014",
      "elevationUnit": "METERS",
      "longitude": -91.06854
    },
    {
      "elevation": 15.8,
      "mindate": "2008-02-01",
      "maxdate": "2014-06-12",
      "latitude": 30.40334,
      "name": "SHENANDOAH 2.1 W, LA US",
      "datacoverage": 0.9097,
      "id": "GHCND:US1LAEB0018",
      "elevationUnit": "METERS",
      "longitude": -91.03569
    },
    {
      "elevation": 18,
      "mindate": "2008-01-01",
      "maxdate": "2024-04-22",
      "latitude": 30.50955,
      "name": "MONTICELLO 3.0 ENE, LA US",
      "datacoverage": 1,
      "id": "GHCND:US1LAEB0019",
      "elevationUnit": "METERS",
      "longitude": -91.001581
    },
    {
      "elevation": 21.9,
      "mindate": "2009-02-01",
      "maxdate": "2013-09-21",
      "latitude": 30.443798,
      "name": "MONTICELLO 3.0 SSW, LA US",
      "datacoverage": 1,
      "id": "GHCND:US1LAEB0020",
      "elevationUnit": "METERS",
      "longitude": -91.056088
    },
    {
      "elevation": 7,
      "mindate": "2008-01-01",
      "maxdate": "2010-01-13",
      "latitude": 30.378082,
      "name": "OLD JEFFERSON 0.9 W, LA US",
      "datacoverage": 0.9986,
      "id": "GHCND:US1LAEB0021",
      "elevationUnit": "METERS",
      "longitude": -91.017971
    },
    {
      "elevation": 21.9,
      "mindate": "2008-02-01",
      "maxdate": "2025-03-07",
      "latitude": 30.402252,
      "name": "SHENANDOAH 1.5 E, LA US",
      "datacoverage": 1,
      "id": "GHCND:US1LAEB0022",
      "elevationUnit": "METERS",
      "longitude": -90.976169
    },
    {
      "elevation": 21.9,
      "mindate": "2008-01-01",
      "maxdate": "2023-04-03",
      "latitude": 30.554087,
      "name": "BROWNFIELDS 4.0 E, LA US",
      "datacoverage": 1,
      "id": "GHCND:US1LAEB0023",
      "elevationUnit": "METERS",
      "longitude": -91.053986
    },
    {
      "elevation": 18.9,
      "mindate": "2008-01-01",
      "maxdate": "2008-09-16",
      "latitude": 30.443596,
      "name": "SHENANDOAH 3.1 NNW, LA US",
      "datacoverage": 1,
      "id": "GHCND:US1LAEB0024",
      "elevationUnit": "METERS",
      "longitude": -91.018399
    },
    {
      "elevation": 25,
      "mindate": "2008-01-01",
      "maxdate": "2025-03-06",
      "latitude": 30.4507,
      "name": "BATON ROUGE 2.5 E, LA US",
      "datacoverage": 1,
      "id": "GHCND:US1LAEB0027",
      "elevationUnit": "METERS",
      "longitude": -91.0843
    },
    {
      "elevation": 39,
      "mindate": "2008-01-01",
      "maxdate": "2014-10-08",
      "latitude": 30.68411,
      "name": "ZACHARY 3.5 WNW, LA US",
      "datacoverage": 0.9999,
      "id": "GHCND:US1LAEB0028",
      "elevationUnit": "METERS",
      "longitude": -91.204475
    },
    {
      "elevation": 27.1,
      "mindate": "2008-03-01",
      "maxdate": "2025-03-05",
      "latitude": 30.544074,
      "name": "CENTRAL 2.2 SE, LA US",
      "datacoverage": 0.9998,
      "id": "GHCND:US1LAEB0031",
      "elevationUnit": "METERS",
      "longitude": -91.005026
    },
    {
      "elevation": 21.9,
      "mindate": "2008-01-01",
      "maxdate": "2025-03-07",
      "latitude": 30.41175795066,
      "name": "LSU, LA US",
      "datacoverage": 1,
      "id": "GHCND:US1LAEB0033",
      "elevationUnit": "METERS",
      "longitude": -91.17856800556
    },
    {
      "elevation": 11,
      "mindate": "2008-01-01",
      "maxdate": "2013-05-22",
      "latitude": 30.402826,
      "name": "SHENANDOAH 0.8 W, LA US",
      "datacoverage": 0.966,
      "id": "GHCND:US1LAEB0036",
      "elevationUnit": "METERS",
      "longitude": -91.013375
    },
    {
      "elevation": 9.1,
      "mindate": "2009-11-01",
      "maxdate": "2018-08-04",
      "latitude": 30.3876486,
      "name": "BATON ROUGE 4.3 S, LA US",
      "datacoverage": 1,
      "id": "GHCND:US1LAEB0041",
      "elevationUnit": "METERS",
      "longitude": -91.1371785
    },
    {
      "elevation": 10.7,
      "mindate": "2009-12-01",
      "maxdate": "2018-06-14",
      "latitude": 30.35863,
      "name": "INNISWOLD 2.8 S, LA US",
      "datacoverage": 1,
      "id": "GHCND:US1LAEB0042",
      "elevationUnit": "METERS",
      "longitude": -91.077973
    },
    {
      "elevation": 6.1,
      "mindate": "2010-07-01",
      "maxdate": "2011-09-04",
      "latitude": 30.341238,
      "name": "BATON ROUGE 8.0 SSE, LA US",
      "datacoverage": 0.8271,
      "id": "GHCND:US1LAEB0044",
      "elevationUnit": "METERS",
      "longitude": -91.113673
    },
    {
      "elevation": 32,
      "mindate": "2010-12-01",
      "maxdate": "2015-06-21",
      "latitude": 30.6564754,
      "name": "ZACHARY 0.9 WSW, LA US",
      "datacoverage": 1,
      "id": "GHCND:US1LAEB0045",
      "elevationUnit": "METERS",
      "longitude": -91.1667897
    },
    {
      "elevation": 14,
      "mindate": "2011-01-01",
      "maxdate": "2019-07-12",
      "latitude": 30.442111,
      "name": "BATON ROUGE 1.4 WSW, LA US",
      "datacoverage": 1,
      "id": "GHCND:US1LAEB0046",
      "elevationUnit": "METERS",
      "longitude": -91.148984
    },
    {
      "elevation": 12.5,
      "mindate": "2011-02-01",
      "maxdate": "2017-01-03",
      "latitude": 30.38181,
      "name": "BATON ROUGE 5.3 S, LA US",
      "datacoverage": 0.9999,
      "id": "GHCND:US1LAEB0047",
      "elevationUnit": "METERS",
      "longitude": -91.137302
    },
    {
      "elevation": 9.1,
      "mindate": "2014-06-01",
      "maxdate": "2025-02-28",
      "latitude": 30.408931,
      "name": "BATON ROUGE 3.0 SSE, LA US",
      "datacoverage": 0.9994,
      "id": "GHCND:US1LAEB0053",
      "elevationUnit": "METERS",
      "longitude": -91.105782
    },
    {
      "elevation": 11.6,
      "mindate": "2015-03-01",
      "maxdate": "2021-11-29",
      "latitude": 30.428138,
      "name": "BATON ROUGE 6.2 ESE, LA US",
      "datacoverage": 0.9967,
      "id": "GHCND:US1LAEB0054",
      "elevationUnit": "METERS",
      "longitude": -91.024307
    },
    {
      "elevation": 33.2,
      "mindate": "2015-10-01",
      "maxdate": "2025-02-16",
      "latitude": 30.694328,
      "name": "JACKSON 10.1 SSW, LA US",
      "datacoverage": 0.9986,
      "id": "GHCND:US1LAEB0056",
      "elevationUnit": "METERS",
      "longitude": -91.256519
    },
    {
      "elevation": 10.4,
      "mindate": "2016-09-17",
      "maxdate": "2021-11-02",
      "latitude": 30.35705,
      "name": "BATON ROUGE 7.0 SSE, LA US",
      "datacoverage": 0.0796,
      "id": "GHCND:US1LAEB0059",
      "elevationUnit": "METERS",
      "longitude": -91.077047
    },
    {
      "elevation": 9.4,
      "mindate": "1998-06-17",
      "maxdate": "2025-03-07",
      "latitude": 30.4005,
      "name": "BATON ROUGE 4.0 SSE, LA US",
      "datacoverage": 0.8317,
      "id": "GHCND:US1LAEB0060",
      "elevationUnit": "METERS",
      "longitude": -91.0896
    },
    {
      "elevation": 14.9,
      "mindate": "2016-08-18",
      "maxdate": "2025-03-04",
      "latitude": 30.379058,
      "name": "SHENANDOAH 1.5 S, LA US",
      "datacoverage": 0.8061,
      "id": "GHCND:US1LAEB0063",
      "elevationUnit": "METERS",
      "longitude": -91.005062
    },
    {
      "elevation": 18,
      "mindate": "2020-09-15",
      "maxdate": "2021-12-07",
      "latitude": 30.550278,
      "name": "GREENWELL SPRINGS 2.2 S, LA US",
      "datacoverage": 0.2962,
      "id": "GHCND:US1LAEB0064",
      "elevationUnit": "METERS",
      "longitude": -90.994613
    },
    {
      "elevation": 11,
      "mindate": "2022-01-01",
      "maxdate": "2025-03-06",
      "latitude": 30.36857,
      "name": "BATON ROUGE 6.2 SSE, LA US",
      "datacoverage": 0.9986,
      "id": "GHCND:US1LAEB0065",
      "elevationUnit": "METERS",
      "longitude": -91.08004
    },
    {
      "elevation": 10.4,
      "mindate": "2023-02-13",
      "maxdate": "2025-03-07",
      "latitude": 30.385547,
      "name": "BATON ROUGE 4.4 S, LA US",
      "datacoverage": 0.9993,
      "id": "GHCND:US1LAEB0069",
      "elevationUnit": "METERS",
      "longitude": -91.1363
    },
    {
      "elevation": 4.3,
      "mindate": "2023-04-01",
      "maxdate": "2025-03-07",
      "latitude": 30.330498,
      "name": "GARDERE 2.5 SE, LA US",
      "datacoverage": 1,
      "id": "GHCND:US1LAEB0070",
      "elevationUnit": "METERS",
      "longitude": -91.10685
    },
    {
      "elevation": 11.9,
      "mindate": "2023-06-30",
      "maxdate": "2024-06-18",
      "latitude": 30.406931,
      "name": "BATON ROUGE 3.4 SSW, LA US",
      "datacoverage": 0.998,
      "id": "GHCND:US1LAEB0071",
      "elevationUnit": "METERS",
      "longitude": -91.155237
    },
    {
      "elevation": 16.5,
      "mindate": "2023-06-30",
      "maxdate": "2025-03-07",
      "latitude": 30.446384,
      "name": "BATON ROUGE 0.5 ESE, LA US",
      "datacoverage": 0.8865,
      "id": "GHCND:US1LAEB0072",
      "elevationUnit": "METERS",
      "longitude": -91.118818
    },
    {
      "elevation": 13.7,
      "mindate": "2023-08-07",
      "maxdate": "2025-03-07",
      "latitude": 30.355734,
      "name": "OLD JEFFERSON 1.8 SSE, LA US",
      "datacoverage": 0.8377,
      "id": "GHCND:US1LAEB0073",
      "elevationUnit": "METERS",
      "longitude": -90.988443
    },
    {
      "elevation": 65.8,
      "mindate": "2008-01-01",
      "maxdate": "2020-08-27",
      "latitude": 30.840363,
      "name": "CLINTON 1.4 S, LA US",
      "datacoverage": 1,
      "id": "GHCND:US1LAEF0001",
      "elevationUnit": "METERS",
      "longitude": -91.015903
    },
    {
      "elevation": 67.4,
      "mindate": "2019-06-10",
      "maxdate": "2025-03-07",
      "latitude": 30.851752,
      "name": "FSA CLINTON 0.8 SE, LA US",
      "datacoverage": 0.3172,
      "id": "GHCND:US1LAEF0005",
      "elevationUnit": "METERS",
      "longitude": -91.00769144
    },
    {
      "elevation": 39.6,
      "mindate": "2023-07-01",
      "maxdate": "2024-09-12",
      "latitude": 30.71517,
      "name": "JACKSON 8.2 S, LA US",
      "datacoverage": 0.9059,
      "id": "GHCND:US1LAEF0006",
      "elevationUnit": "METERS",
      "longitude": -91.21913
    },
    {
      "elevation": 48.5,
      "mindate": "2021-05-03",
      "maxdate": "2025-03-06",
      "latitude": 30.882483,
      "name": "JACKSON 3.6 NNE, LA US",
      "datacoverage": 0.9996,
      "id": "GHCND:US1LAEF0007",
      "elevationUnit": "METERS",
      "longitude": -91.189219
    },
    {
      "elevation": 61.6,
      "mindate": "2023-07-01",
      "maxdate": "2025-03-07",
      "latitude": 30.85498,
      "name": "CLINTON 0.4 S, LA US",
      "datacoverage": 0.8442,
      "id": "GHCND:US1LAEF0008",
      "elevationUnit": "METERS",
      "longitude": -91.014683
    },
    {
      "elevation": 63.1,
      "mindate": "2023-07-01",
      "maxdate": "2025-03-03",
      "latitude": 30.8639495,
      "name": "CLINTON 0.2 NNW, LA US",
      "datacoverage": 0.9608,
      "id": "GHCND:US1LAEF0009",
      "elevationUnit": "METERS",
      "longitude": -91.0163137
    },
    {
      "elevation": 82.3,
      "mindate": "2023-07-17",
      "maxdate": "2025-03-05",
      "latitude": 30.98458,
      "name": "NORWOOD 12.1 E, LA US",
      "datacoverage": 0.9011,
      "id": "GHCND:US1LAEF0010",
      "elevationUnit": "METERS",
      "longitude": -90.9035
    },
    {
      "elevation": 60.7,
      "mindate": "2023-08-24",
      "maxdate": "2025-03-07",
      "latitude": 30.864184,
      "name": "CLINTON 0.4 NW, LA US",
      "datacoverage": 0.946,
      "id": "GHCND:US1LAEF0011",
      "elevationUnit": "METERS",
      "longitude": -91.020361
    },
    {
      "elevation": 22.6,
      "mindate": "2019-06-28",
      "maxdate": "2023-07-17",
      "latitude": 30.688369,
      "name": "FSA VILLE PLATTE 0.2 SE, LA US",
      "datacoverage": 0.6435,
      "id": "GHCND:US1LAEV0002",
      "elevationUnit": "METERS",
      "longitude": -92.27826512
    },
    {
      "elevation": 23.2,
      "mindate": "2023-07-01",
      "maxdate": "2024-09-11",
      "latitude": 30.733686,
      "name": "VILLE PLATTE 3.1 N, LA US",
      "datacoverage": 0.9898,
      "id": "GHCND:US1LAEV0004",
      "elevationUnit": "METERS",
      "longitude": -92.2881166
    },
    {
      "elevation": 23.2,
      "mindate": "2023-07-18",
      "maxdate": "2025-03-06",
      "latitude": 30.684029,
      "name": "FSA VILLE PLATTE 1.0 ESE, LA US",
      "datacoverage": 0.9479,
      "id": "GHCND:US1LAEV0005",
      "elevationUnit": "METERS",
      "longitude": -92.264727
    }
  ]
}
