{
  "metadata": {
    "resultset": {
      "offset": 98400,
      "count": 154115,
      "limit": 100
    }
  },
  "results": [
    {
      "elevation": 458.7,
      "mindate": "2022-06-13",
      "maxdate": "2024-11-19",
      "latitude": 47.489072,
      "name": "BUHL 0.8 SSW, MN US",
      "datacoverage": 0.1987,
      "id": "GHCND:US1MNSL0233",
      "elevationUnit": "METERS",
      "longitude": -92.777971
    },
    {
      "elevation": 429.8,
      "mindate": "2022-03-12",
      "maxdate": "2025-03-07",
      "latitude": 47.704162,
      "name": "SIDE LAKE 3.4 NW, MN US",
      "datacoverage": 0.978,
      "id": "GHCND:US1MNSL0234",
      "elevationUnit": "METERS",
      "longitude": -93.060001
    },
    {
      "elevation": 356.3,
      "mindate": "2022-03-21",
      "maxdate": "2024-11-23",
      "latitude": 46.9413912,
      "name": "DULUTH 13.1 NNE, MN US",
      "datacoverage": 0.572,
      "id": "GHCND:US1MNSL0239",
      "elevationUnit": "METERS",
      "longitude": -91.9544701
    },
    {
      "elevation": 470,
      "mindate": "2022-03-19",
      "maxdate": "2025-03-07",
      "latitude": 47.494172,
      "name": "CHISHOLM 0.7 NW, MN US",
      "datacoverage": 0.5991,
      "id": "GHCND:US1MNSL0245",
      "elevationUnit": "METERS",
      "longitude": -92.89089
    },
    {
      "elevation": 419.1,
      "mindate": "2022-05-19",
      "maxdate": "2024-10-16",
      "latitude": 47.901,
      "name": "TOWER 8.3 NW, MN US",
      "datacoverage": 0.4206,
      "id": "GHCND:US1MNSL0247",
      "elevationUnit": "METERS",
      "longitude": -92.399
    },
    {
      "elevation": 334.4,
      "mindate": "2022-03-17",
      "maxdate": "2022-10-06",
      "latitude": 46.9314,
      "name": "DULUTH 12.8 NE, MN US",
      "datacoverage": 0.998,
      "id": "GHCND:US1MNSL0250",
      "elevationUnit": "METERS",
      "longitude": -91.94304
    },
    {
      "elevation": 442,
      "mindate": "2022-07-20",
      "maxdate": "2024-11-01",
      "latitude": 46.88972,
      "name": "DULUTH 7.4 N, MN US",
      "datacoverage": 0.573,
      "id": "GHCND:US1MNSL0263",
      "elevationUnit": "METERS",
      "longitude": -92.11061
    },
    {
      "elevation": 449.3,
      "mindate": "2022-04-15",
      "maxdate": "2025-03-07",
      "latitude": 47.527557,
      "name": "CHISHOLM 3.6 NW, MN US",
      "datacoverage": 0.8762,
      "id": "GHCND:US1MNSL0265",
      "elevationUnit": "METERS",
      "longitude": -92.92946
    },
    {
      "elevation": 444.4,
      "mindate": "2022-04-30",
      "maxdate": "2024-10-11",
      "latitude": 47.292108,
      "name": "AURORA 16.8 S, MN US",
      "datacoverage": 0.5268,
      "id": "GHCND:US1MNSL0268",
      "elevationUnit": "METERS",
      "longitude": -92.180061
    },
    {
      "elevation": 357.8,
      "mindate": "2022-05-30",
      "maxdate": "2025-03-07",
      "latitude": 47.02555,
      "name": "CLOVER VALLEY 2.1 NE, MN US",
      "datacoverage": 0.7127,
      "id": "GHCND:US1MNSL0275",
      "elevationUnit": "METERS",
      "longitude": -91.82335
    },
    {
      "elevation": 423.1,
      "mindate": "2022-06-20",
      "maxdate": "2025-03-06",
      "latitude": 47.911588,
      "name": "ELY 0.9 WNW, MN US",
      "datacoverage": 0.7568,
      "id": "GHCND:US1MNSL0276",
      "elevationUnit": "METERS",
      "longitude": -91.868873
    },
    {
      "elevation": 382.8,
      "mindate": "2022-08-28",
      "maxdate": "2025-01-13",
      "latitude": 46.966524,
      "name": "DULUTH 15.5 NE, MN US",
      "datacoverage": 0.5103,
      "id": "GHCND:US1MNSL0280",
      "elevationUnit": "METERS",
      "longitude": -91.916811
    },
    {
      "elevation": 434.3,
      "mindate": "2023-06-24",
      "maxdate": "2024-10-30",
      "latitude": 47.944465,
      "name": "WINTON 2.3 ENE, MN US",
      "datacoverage": 0.404,
      "id": "GHCND:US1MNSL0285",
      "elevationUnit": "METERS",
      "longitude": -91.755714
    },
    {
      "elevation": 387.7,
      "mindate": "2023-06-05",
      "maxdate": "2025-03-06",
      "latitude": 46.7493,
      "name": "DULUTH 7.2 WSW, MN US",
      "datacoverage": 0.998,
      "id": "GHCND:US1MNSL0287",
      "elevationUnit": "METERS",
      "longitude": -92.24964
    },
    {
      "elevation": 429.2,
      "mindate": "2023-04-13",
      "maxdate": "2025-03-07",
      "latitude": 47.4246,
      "name": "AURORA 7.4 S, MN US",
      "datacoverage": 0.9994,
      "id": "GHCND:US1MNSL0291",
      "elevationUnit": "METERS",
      "longitude": -92.2392
    },
    {
      "elevation": 197.2,
      "mindate": "2023-04-15",
      "maxdate": "2024-05-29",
      "latitude": 46.691418,
      "name": "DULUTH 7.9 SW, MN US",
      "datacoverage": 0.9319,
      "id": "GHCND:US1MNSL0294",
      "elevationUnit": "METERS",
      "longitude": -92.205579
    },
    {
      "elevation": 413,
      "mindate": "2023-03-15",
      "maxdate": "2024-06-19",
      "latitude": 46.9263631,
      "name": "SAGINAW 4.7 N, MN US",
      "datacoverage": 0.9819,
      "id": "GHCND:US1MNSL0301",
      "elevationUnit": "METERS",
      "longitude": -92.4488491
    },
    {
      "elevation": 455.7,
      "mindate": "2023-05-31",
      "maxdate": "2023-11-17",
      "latitude": 47.7313,
      "name": "BABBITT 6.2 NNW, MN US",
      "datacoverage": 0.7719,
      "id": "GHCND:US1MNSL0306",
      "elevationUnit": "METERS",
      "longitude": -91.97543
    },
    {
      "elevation": 205.4,
      "mindate": "2023-04-15",
      "maxdate": "2025-03-07",
      "latitude": 46.662061,
      "name": "DULUTH 10.2 SW, MN US",
      "datacoverage": 0.9527,
      "id": "GHCND:US1MNSL0307",
      "elevationUnit": "METERS",
      "longitude": -92.227531
    },
    {
      "elevation": 385.9,
      "mindate": "2023-05-01",
      "maxdate": "2025-03-07",
      "latitude": 47.034015,
      "name": "TWO HARBORS 8.4 W, MN US",
      "datacoverage": 0.8789,
      "id": "GHCND:US1MNSL0313",
      "elevationUnit": "METERS",
      "longitude": -91.85319
    },
    {
      "elevation": 428.2,
      "mindate": "2023-06-24",
      "maxdate": "2025-03-05",
      "latitude": 46.81735,
      "name": "DULUTH 2.9 NW, MN US",
      "datacoverage": 0.744,
      "id": "GHCND:US1MNSL0318",
      "elevationUnit": "METERS",
      "longitude": -92.14027
    },
    {
      "elevation": 460.2,
      "mindate": "2023-04-14",
      "maxdate": "2025-03-05",
      "latitude": 47.5166544,
      "name": "HOYT LAKES 3.1 SSW, MN US",
      "datacoverage": 0.9959,
      "id": "GHCND:US1MNSL0319",
      "elevationUnit": "METERS",
      "longitude": -92.1301316
    },
    {
      "elevation": 426.7,
      "mindate": "2023-06-24",
      "maxdate": "2025-03-06",
      "latitude": 46.821664,
      "name": "HERMANTOWN 1.4 NW, MN US",
      "datacoverage": 0.9996,
      "id": "GHCND:US1MNSL0321",
      "elevationUnit": "METERS",
      "longitude": -92.260027
    },
    {
      "elevation": 449.6,
      "mindate": "2023-05-01",
      "maxdate": "2025-03-07",
      "latitude": 47.93437,
      "name": "ELY 2.5 NW, MN US",
      "datacoverage": 0.9498,
      "id": "GHCND:US1MNSL0322",
      "elevationUnit": "METERS",
      "longitude": -91.88587
    },
    {
      "elevation": 454.2,
      "mindate": "2023-04-01",
      "maxdate": "2025-03-07",
      "latitude": 47.875,
      "name": "ELY 5.2 WSW, MN US",
      "datacoverage": 0.8246,
      "id": "GHCND:US1MNSL0323",
      "elevationUnit": "METERS",
      "longitude": -91.955
    },
    {
      "elevation": 242.3,
      "mindate": "2023-04-15",
      "maxdate": "2024-09-30",
      "latitude": 46.90548,
      "name": "DULUTH 12.9 NE, MN US",
      "datacoverage": 0.2169,
      "id": "GHCND:US1MNSL0324",
      "elevationUnit": "METERS",
      "longitude": -91.90029
    },
    {
      "elevation": 427,
      "mindate": "2023-03-29",
      "maxdate": "2025-03-07",
      "latitude": 47.925375,
      "name": "COOK 6.0 N, MN US",
      "datacoverage": 0.9647,
      "id": "GHCND:US1MNSL0327",
      "elevationUnit": "METERS",
      "longitude": -92.66288
    },
    {
      "elevation": 466.3,
      "mindate": "2023-04-01",
      "maxdate": "2025-03-07",
      "latitude": 47.88254,
      "name": "ELY 1.8 SSW, MN US",
      "datacoverage": 0.9131,
      "id": "GHCND:US1MNSL0328",
      "elevationUnit": "METERS",
      "longitude": -91.86862
    },
    {
      "elevation": 288,
      "mindate": "2023-05-29",
      "maxdate": "2024-11-22",
      "latitude": 46.81869,
      "name": "DULUTH 3.1 NE, MN US",
      "datacoverage": 0.3519,
      "id": "GHCND:US1MNSL0331",
      "elevationUnit": "METERS",
      "longitude": -92.067145
    },
    {
      "elevation": 191.4,
      "mindate": "2023-07-10",
      "maxdate": "2025-03-07",
      "latitude": 46.73912,
      "name": "DULUTH 4.1 SW, MN US",
      "datacoverage": 0.939,
      "id": "GHCND:US1MNSL0335",
      "elevationUnit": "METERS",
      "longitude": -92.16401
    },
    {
      "elevation": 454.8,
      "mindate": "2023-09-01",
      "maxdate": "2025-03-07",
      "latitude": 47.4266,
      "name": "HIBBING 2.1 NNE, MN US",
      "datacoverage": 1,
      "id": "GHCND:US1MNSL0339",
      "elevationUnit": "METERS",
      "longitude": -92.93065
    },
    {
      "elevation": 336.5,
      "mindate": "2023-09-23",
      "maxdate": "2025-03-07",
      "latitude": 46.8109,
      "name": "DULUTH 2.0 NNE, MN US",
      "datacoverage": 1,
      "id": "GHCND:US1MNSL0341",
      "elevationUnit": "METERS",
      "longitude": -92.0923
    },
    {
      "elevation": 430.7,
      "mindate": "2023-11-06",
      "maxdate": "2025-03-07",
      "latitude": 46.93703,
      "name": "DULUTH 12.1 NNW, MN US",
      "datacoverage": 0.9467,
      "id": "GHCND:US1MNSL0346",
      "elevationUnit": "METERS",
      "longitude": -92.2297
    },
    {
      "elevation": 467.6,
      "mindate": "2023-10-23",
      "maxdate": "2025-01-14",
      "latitude": 47.4925,
      "name": "CHISHOLM 0.5 NW, MN US",
      "datacoverage": 0.4489,
      "id": "GHCND:US1MNSL0347",
      "elevationUnit": "METERS",
      "longitude": -92.885556
    },
    {
      "elevation": 352,
      "mindate": "2023-10-23",
      "maxdate": "2025-03-07",
      "latitude": 46.694548,
      "name": "DULUTH 9.6 SW, MN US",
      "datacoverage": 1,
      "id": "GHCND:US1MNSL0348",
      "elevationUnit": "METERS",
      "longitude": -92.262752
    },
    {
      "elevation": 191.4,
      "mindate": "2023-10-28",
      "maxdate": "2024-09-06",
      "latitude": 46.66504,
      "name": "DULUTH 11.4 SW, MN US",
      "datacoverage": 1,
      "id": "GHCND:US1MNSL0352",
      "elevationUnit": "METERS",
      "longitude": -92.2735
    },
    {
      "elevation": 342,
      "mindate": "2024-05-08",
      "maxdate": "2024-12-12",
      "latitude": 46.82684,
      "name": "DULUTH 3.4 NNE, MN US",
      "datacoverage": 0.998,
      "id": "GHCND:US1MNSL0356",
      "elevationUnit": "METERS",
      "longitude": -92.07199
    },
    {
      "elevation": 321.6,
      "mindate": "2024-04-08",
      "maxdate": "2024-12-05",
      "latitude": 46.822598,
      "name": "DULUTH 3.3 NNE, MN US",
      "datacoverage": 0.7424,
      "id": "GHCND:US1MNSL0361",
      "elevationUnit": "METERS",
      "longitude": -92.067682
    },
    {
      "elevation": 425.5,
      "mindate": "2024-05-08",
      "maxdate": "2024-11-23",
      "latitude": 46.850006,
      "name": "DULUTH 4.8 NNE, MN US",
      "datacoverage": 0.9947,
      "id": "GHCND:US1MNSL0362",
      "elevationUnit": "METERS",
      "longitude": -92.078848
    },
    {
      "elevation": 447.4,
      "mindate": "2024-03-23",
      "maxdate": "2025-03-07",
      "latitude": 47.52887,
      "name": "AURORA 0.6 WSW, MN US",
      "datacoverage": 0.9819,
      "id": "GHCND:US1MNSL0367",
      "elevationUnit": "METERS",
      "longitude": -92.25124
    },
    {
      "elevation": 328.3,
      "mindate": "2024-04-08",
      "maxdate": "2025-03-02",
      "latitude": 46.814023,
      "name": "DULUTH 2.3 NNE, MN US",
      "datacoverage": 0.9939,
      "id": "GHCND:US1MNSL0369",
      "elevationUnit": "METERS",
      "longitude": -92.086198
    },
    {
      "elevation": 406.6,
      "mindate": "2024-04-01",
      "maxdate": "2024-12-18",
      "latitude": 46.8516867,
      "name": "DULUTH 4.8 N, MN US",
      "datacoverage": 0.998,
      "id": "GHCND:US1MNSL0372",
      "elevationUnit": "METERS",
      "longitude": -92.0914567
    },
    {
      "elevation": 186.8,
      "mindate": "2024-06-01",
      "maxdate": "2024-12-06",
      "latitude": 46.7734723,
      "name": "DULUTH 1.0 SE, MN US",
      "datacoverage": 0.998,
      "id": "GHCND:US1MNSL0381",
      "elevationUnit": "METERS",
      "longitude": -92.0888685
    },
    {
      "elevation": 422.5,
      "mindate": "2024-05-29",
      "maxdate": "2025-03-07",
      "latitude": 47.9868975,
      "name": "ELY 6.3 NNW, MN US",
      "datacoverage": 1,
      "id": "GHCND:US1MNSL0382",
      "elevationUnit": "METERS",
      "longitude": -91.9123302
    },
    {
      "elevation": 418.8,
      "mindate": "2024-04-17",
      "maxdate": "2025-03-07",
      "latitude": 47.38821,
      "name": "EVELETH 5.2 S, MN US",
      "datacoverage": 0.6862,
      "id": "GHCND:US1MNSL0384",
      "elevationUnit": "METERS",
      "longitude": -92.53365
    },
    {
      "elevation": 338.6,
      "mindate": "2024-04-29",
      "maxdate": "2024-11-24",
      "latitude": 46.80658,
      "name": "DULUTH 1.7 NNE, MN US",
      "datacoverage": 0.8952,
      "id": "GHCND:US1MNSL0385",
      "elevationUnit": "METERS",
      "longitude": -92.09749
    },
    {
      "elevation": 425.5,
      "mindate": "2024-05-02",
      "maxdate": "2024-11-27",
      "latitude": 47.5854,
      "name": "BIWABIK 2.2 NE, MN US",
      "datacoverage": 0.998,
      "id": "GHCND:US1MNSL0387",
      "elevationUnit": "METERS",
      "longitude": -92.29204
    },
    {
      "elevation": 435.3,
      "mindate": "2024-05-11",
      "maxdate": "2025-03-07",
      "latitude": 47.86804,
      "name": "ELY 3.5 SE, MN US",
      "datacoverage": 1,
      "id": "GHCND:US1MNSL0388",
      "elevationUnit": "METERS",
      "longitude": -91.802344
    },
    {
      "elevation": 319.7,
      "mindate": "2009-12-01",
      "maxdate": "2017-10-22",
      "latitude": 45.7478273,
      "name": "RICE 1.5 WSW, MN US",
      "datacoverage": 0.6711,
      "id": "GHCND:US1MNSR0001",
      "elevationUnit": "METERS",
      "longitude": -94.265033
    },
    {
      "elevation": 323.1,
      "mindate": "2009-12-01",
      "maxdate": "2010-11-14",
      "latitude": 45.5779183,
      "name": "SAINT CLOUD 5.4 WNW, MN US",
      "datacoverage": 1,
      "id": "GHCND:US1MNSR0003",
      "elevationUnit": "METERS",
      "longitude": -94.2469778
    },
    {
      "elevation": 319.7,
      "mindate": "2009-12-01",
      "maxdate": "2018-11-01",
      "latitude": 45.5668397,
      "name": "SAINT CLOUD 4.7 W, MN US",
      "datacoverage": 1,
      "id": "GHCND:US1MNSR0004",
      "elevationUnit": "METERS",
      "longitude": -94.2365777
    },
    {
      "elevation": 381,
      "mindate": "2009-12-01",
      "maxdate": "2016-10-11",
      "latitude": 45.6852106,
      "name": "ALBANY 4.0 N, MN US",
      "datacoverage": 0.3829,
      "id": "GHCND:US1MNSR0006",
      "elevationUnit": "METERS",
      "longitude": -94.5524492
    },
    {
      "elevation": 314.6,
      "mindate": "2011-04-01",
      "maxdate": "2017-10-03",
      "latitude": 45.6180682,
      "name": "SARTELL 1.3 WSW, MN US",
      "datacoverage": 0.5474,
      "id": "GHCND:US1MNSR0007",
      "elevationUnit": "METERS",
      "longitude": -94.2338228
    },
    {
      "elevation": 399.6,
      "mindate": "2011-06-01",
      "maxdate": "2013-05-09",
      "latitude": 45.50105,
      "name": "BROOTEN 0.5 W, MN US",
      "datacoverage": 0.6246,
      "id": "GHCND:US1MNSR0008",
      "elevationUnit": "METERS",
      "longitude": -95.1256333333333
    },
    {
      "elevation": 317,
      "mindate": "2011-06-01",
      "maxdate": "2025-03-07",
      "latitude": 45.601792,
      "name": "SARTELL 1.4 SSE, MN US",
      "datacoverage": 0.9992,
      "id": "GHCND:US1MNSR0009",
      "elevationUnit": "METERS",
      "longitude": -94.1991
    },
    {
      "elevation": 313.9,
      "mindate": "2015-05-01",
      "maxdate": "2022-10-12",
      "latitude": 45.582252,
      "name": "SAINT CLOUD 3.1 NW, MN US",
      "datacoverage": 0.9939,
      "id": "GHCND:US1MNSR0015",
      "elevationUnit": "METERS",
      "longitude": -94.189636
    },
    {
      "elevation": 336.5,
      "mindate": "2015-04-01",
      "maxdate": "2024-11-19",
      "latitude": 45.41845703125,
      "name": "RICHMOND 3.4 SW, MN US",
      "datacoverage": 0.998,
      "id": "GHCND:US1MNSR0016",
      "elevationUnit": "METERS",
      "longitude": -94.563232421875
    },
    {
      "elevation": 329.5,
      "mindate": "2016-04-13",
      "maxdate": "2025-03-07",
      "latitude": 45.55845,
      "name": "SAINT JOSEPH 0.3 SW, MN US",
      "datacoverage": 0.9995,
      "id": "GHCND:US1MNSR0020",
      "elevationUnit": "METERS",
      "longitude": -94.311047
    },
    {
      "elevation": 347.5,
      "mindate": "2017-03-01",
      "maxdate": "2025-02-27",
      "latitude": 45.3517,
      "name": "PAYNESVILLE 1.9 SSW, MN US",
      "datacoverage": 0.9995,
      "id": "GHCND:US1MNSR0024",
      "elevationUnit": "METERS",
      "longitude": -94.7312
    },
    {
      "elevation": 355.4,
      "mindate": "2017-03-27",
      "maxdate": "2025-03-04",
      "latitude": 45.45665,
      "name": "COLD SPRING 0.8 W, MN US",
      "datacoverage": 0.9376,
      "id": "GHCND:US1MNSR0025",
      "elevationUnit": "METERS",
      "longitude": -94.447348
    },
    {
      "elevation": 417,
      "mindate": "2017-04-11",
      "maxdate": "2025-03-07",
      "latitude": 45.686106,
      "name": "SAUK CENTRE 7.8 WSW, MN US",
      "datacoverage": 0.6683,
      "id": "GHCND:US1MNSR0027",
      "elevationUnit": "METERS",
      "longitude": -95.09732
    },
    {
      "elevation": 369.4,
      "mindate": "2018-04-13",
      "maxdate": "2025-03-04",
      "latitude": 45.574411,
      "name": "ALBANY 3.8 S, MN US",
      "datacoverage": 0.9991,
      "id": "GHCND:US1MNSR0029",
      "elevationUnit": "METERS",
      "longitude": -94.555431
    },
    {
      "elevation": 396.8,
      "mindate": "2018-07-02",
      "maxdate": "2024-10-25",
      "latitude": 45.496609,
      "name": "BROOTEN 0.3 S, MN US",
      "datacoverage": 0.5689,
      "id": "GHCND:US1MNSR0030",
      "elevationUnit": "METERS",
      "longitude": -95.116519
    },
    {
      "elevation": 328.3,
      "mindate": "2018-08-18",
      "maxdate": "2025-03-05",
      "latitude": 45.59751,
      "name": "SAINT JOSEPH 2.5 N, MN US",
      "datacoverage": 0.3219,
      "id": "GHCND:US1MNSR0031",
      "elevationUnit": "METERS",
      "longitude": -94.31049
    },
    {
      "elevation": 318.2,
      "mindate": "2018-10-01",
      "maxdate": "2022-07-27",
      "latitude": 45.57548,
      "name": "SAINT CLOUD 2.2 NW, MN US",
      "datacoverage": 0.7767,
      "id": "GHCND:US1MNSR0032",
      "elevationUnit": "METERS",
      "longitude": -94.17583
    },
    {
      "elevation": 320,
      "mindate": "2018-11-08",
      "maxdate": "2025-03-07",
      "latitude": 45.596097,
      "name": "SARTELL 2.6 SW, MN US",
      "datacoverage": 0.8313,
      "id": "GHCND:US1MNSR0033",
      "elevationUnit": "METERS",
      "longitude": -94.246134
    },
    {
      "elevation": 321.3,
      "mindate": "2019-04-11",
      "maxdate": "2025-03-05",
      "latitude": 45.580582,
      "name": "SAINT CLOUD 4.1 WNW, MN US",
      "datacoverage": 0.6582,
      "id": "GHCND:US1MNSR0035",
      "elevationUnit": "METERS",
      "longitude": -94.216751
    },
    {
      "elevation": 346.3,
      "mindate": "2019-03-29",
      "maxdate": "2025-03-07",
      "latitude": 45.653172,
      "name": "SAINT JOSEPH 6.4 N, MN US",
      "datacoverage": 0.9986,
      "id": "GHCND:US1MNSR0036",
      "elevationUnit": "METERS",
      "longitude": -94.288769
    },
    {
      "elevation": 333.5,
      "mindate": "2019-08-15",
      "maxdate": "2021-11-11",
      "latitude": 45.574661,
      "name": "SAINT JOSEPH 1.0 NNW, MN US",
      "datacoverage": 0.6439,
      "id": "GHCND:US1MNSR0037",
      "elevationUnit": "METERS",
      "longitude": -94.313051
    },
    {
      "elevation": 343.5,
      "mindate": "2020-03-01",
      "maxdate": "2025-03-06",
      "latitude": 45.453233,
      "name": "RICHMOND 0.1 S, MN US",
      "datacoverage": 0.6998,
      "id": "GHCND:US1MNSR0039",
      "elevationUnit": "METERS",
      "longitude": -94.515535
    },
    {
      "elevation": 338,
      "mindate": "2020-04-28",
      "maxdate": "2024-09-21",
      "latitude": 45.46131,
      "name": "ROCKVILLE 1.3 WSW, MN US",
      "datacoverage": 0.2009,
      "id": "GHCND:US1MNSR0040",
      "elevationUnit": "METERS",
      "longitude": -94.34754
    },
    {
      "elevation": 323.4,
      "mindate": "2020-04-01",
      "maxdate": "2024-09-25",
      "latitude": 45.62487,
      "name": "SARTELL 0.5 WNW, MN US",
      "datacoverage": 0.2129,
      "id": "GHCND:US1MNSR0043",
      "elevationUnit": "METERS",
      "longitude": -94.2174
    },
    {
      "elevation": 303.6,
      "mindate": "2020-04-11",
      "maxdate": "2024-04-30",
      "latitude": 45.3908392,
      "name": "CLEARWATER 3.2 SW, MN US",
      "datacoverage": 0.5515,
      "id": "GHCND:US1MNSR0044",
      "elevationUnit": "METERS",
      "longitude": -94.1026506
    },
    {
      "elevation": 354.5,
      "mindate": "2016-07-20",
      "maxdate": "2021-07-24",
      "latitude": 45.3624,
      "name": "PAYNESVILLE 5.1 ESE, MN US",
      "datacoverage": 0.9925,
      "id": "GHCND:US1MNSR0045",
      "elevationUnit": "METERS",
      "longitude": -94.6195
    },
    {
      "elevation": 326.7,
      "mindate": "2018-10-01",
      "maxdate": "2025-03-07",
      "latitude": 45.4195015,
      "name": "SAINT AUGUSTA 2.1 S, MN US",
      "datacoverage": 1,
      "id": "GHCND:US1MNSR0048",
      "elevationUnit": "METERS",
      "longitude": -94.1973761
    },
    {
      "elevation": 387.1,
      "mindate": "2020-05-14",
      "maxdate": "2023-12-29",
      "latitude": 45.4538,
      "name": "BELGRADE 0.4 WNW, MN US",
      "datacoverage": 1,
      "id": "GHCND:US1MNSR0050",
      "elevationUnit": "METERS",
      "longitude": -95.0067
    },
    {
      "elevation": 363.9,
      "mindate": "2022-06-21",
      "maxdate": "2024-06-28",
      "latitude": 45.561104,
      "name": "SAINT JOSEPH 6.9 W, MN US",
      "datacoverage": 0.4529,
      "id": "GHCND:US1MNSR0052",
      "elevationUnit": "METERS",
      "longitude": -94.450704
    },
    {
      "elevation": 358.1,
      "mindate": "2021-03-12",
      "maxdate": "2025-03-03",
      "latitude": 45.318624,
      "name": "KIMBALL 0.5 NNE, MN US",
      "datacoverage": 0.7447,
      "id": "GHCND:US1MNSR0055",
      "elevationUnit": "METERS",
      "longitude": -94.29587
    },
    {
      "elevation": 334.7,
      "mindate": "2021-05-24",
      "maxdate": "2022-01-15",
      "latitude": 45.589931,
      "name": "SAINT CLOUD 5.8 WNW, MN US",
      "datacoverage": 0.9925,
      "id": "GHCND:US1MNSR0057",
      "elevationUnit": "METERS",
      "longitude": -94.249031
    },
    {
      "elevation": 353,
      "mindate": "2021-03-25",
      "maxdate": "2025-03-05",
      "latitude": 45.4981365,
      "name": "SAINT CLOUD 8.2 WSW, MN US",
      "datacoverage": 0.9986,
      "id": "GHCND:US1MNSR0061",
      "elevationUnit": "METERS",
      "longitude": -94.2906408
    },
    {
      "elevation": 357.2,
      "mindate": "2021-04-01",
      "maxdate": "2025-03-07",
      "latitude": 45.463095,
      "name": "SAINT CLOUD 7.6 SW, MN US",
      "datacoverage": 0.8361,
      "id": "GHCND:US1MNSR0063",
      "elevationUnit": "METERS",
      "longitude": -94.228196
    },
    {
      "elevation": 358.7,
      "mindate": "2021-04-29",
      "maxdate": "2024-11-04",
      "latitude": 45.58496,
      "name": "AVON 1.9 SSW, MN US",
      "datacoverage": 0.5311,
      "id": "GHCND:US1MNSR0064",
      "elevationUnit": "METERS",
      "longitude": -94.47566
    },
    {
      "elevation": 400.2,
      "mindate": "2021-04-08",
      "maxdate": "2025-02-17",
      "latitude": 45.4426573,
      "name": "PAYNESVILLE 6.0 NW, MN US",
      "datacoverage": 0.8271,
      "id": "GHCND:US1MNSR0065",
      "elevationUnit": "METERS",
      "longitude": -94.8034782
    },
    {
      "elevation": 322.5,
      "mindate": "2021-08-16",
      "maxdate": "2024-08-06",
      "latitude": 45.564892,
      "name": "SAINT CLOUD 2.7 WNW, MN US",
      "datacoverage": 0.2061,
      "id": "GHCND:US1MNSR0069",
      "elevationUnit": "METERS",
      "longitude": -94.195339
    },
    {
      "elevation": 318.2,
      "mindate": "2022-03-17",
      "maxdate": "2022-10-13",
      "latitude": 45.5756883,
      "name": "SAINT CLOUD 2.6 NW, MN US",
      "datacoverage": 1,
      "id": "GHCND:US1MNSR0070",
      "elevationUnit": "METERS",
      "longitude": -94.1853
    },
    {
      "elevation": 365.5,
      "mindate": "2022-06-21",
      "maxdate": "2024-10-30",
      "latitude": 45.561539,
      "name": "SAINT JOSEPH 3.4 W, MN US",
      "datacoverage": 0.9819,
      "id": "GHCND:US1MNSR0074",
      "elevationUnit": "METERS",
      "longitude": -94.377253
    },
    {
      "elevation": 356.6,
      "mindate": "2022-05-06",
      "maxdate": "2024-10-30",
      "latitude": 45.4449762,
      "name": "COLD SPRING 0.9 SSE, MN US",
      "datacoverage": 0.6656,
      "id": "GHCND:US1MNSR0076",
      "elevationUnit": "METERS",
      "longitude": -94.4219592
    },
    {
      "elevation": 315.5,
      "mindate": "2022-06-01",
      "maxdate": "2022-10-25",
      "latitude": 45.546879,
      "name": "SAINT CLOUD 0.8 SW, MN US",
      "datacoverage": 0.998,
      "id": "GHCND:US1MNSR0077",
      "elevationUnit": "METERS",
      "longitude": -94.154819
    },
    {
      "elevation": 334.1,
      "mindate": "2022-09-09",
      "maxdate": "2024-07-29",
      "latitude": 45.66581,
      "name": "SARTELL 3.7 NW, MN US",
      "datacoverage": 0.1449,
      "id": "GHCND:US1MNSR0079",
      "elevationUnit": "METERS",
      "longitude": -94.25121
    },
    {
      "elevation": 320,
      "mindate": "2023-04-27",
      "maxdate": "2024-11-19",
      "latitude": 45.58293,
      "name": "ST CLOUD 4.3 WNW, MN US",
      "datacoverage": 0.2199,
      "id": "GHCND:US1MNSR0081",
      "elevationUnit": "METERS",
      "longitude": -94.22053
    },
    {
      "elevation": 317.9,
      "mindate": "2023-04-01",
      "maxdate": "2025-03-05",
      "latitude": 45.5682,
      "name": "ST CLOUD 1.5 NW, MN US",
      "datacoverage": 0.9021,
      "id": "GHCND:US1MNSR0082",
      "elevationUnit": "METERS",
      "longitude": -94.1654
    },
    {
      "elevation": 322.5,
      "mindate": "2023-03-06",
      "maxdate": "2024-12-17",
      "latitude": 45.312995,
      "name": "SOUTH HAVEN 1.7 NNW, MN US",
      "datacoverage": 0.9947,
      "id": "GHCND:US1MNSR0083",
      "elevationUnit": "METERS",
      "longitude": -94.236318
    },
    {
      "elevation": 346.6,
      "mindate": "2023-03-21",
      "maxdate": "2024-12-22",
      "latitude": 45.4277642,
      "name": "RICHMOND 3.7 WSW, MN US",
      "datacoverage": 0.7347,
      "id": "GHCND:US1MNSR0086",
      "elevationUnit": "METERS",
      "longitude": -94.5803343
    },
    {
      "elevation": 338.6,
      "mindate": "2023-04-12",
      "maxdate": "2025-03-07",
      "latitude": 45.56514,
      "name": "SAINT JOSEPH 0.5 NW, MN US",
      "datacoverage": 0.9994,
      "id": "GHCND:US1MNSR0088",
      "elevationUnit": "METERS",
      "longitude": -94.31532
    },
    {
      "elevation": 361.2,
      "mindate": "2022-09-07",
      "maxdate": "2025-03-07",
      "latitude": 45.31151,
      "name": "KIMBALL 0.4 E, MN US",
      "datacoverage": 0.7269,
      "id": "GHCND:US1MNSR0090",
      "elevationUnit": "METERS",
      "longitude": -94.29293
    },
    {
      "elevation": 344.4,
      "mindate": "2023-03-28",
      "maxdate": "2025-03-04",
      "latitude": 45.4068991,
      "name": "KIMBALL 6.5 N, MN US",
      "datacoverage": 0.9703,
      "id": "GHCND:US1MNSR0091",
      "elevationUnit": "METERS",
      "longitude": -94.304671
    },
    {
      "elevation": 313,
      "mindate": "2023-05-07",
      "maxdate": "2024-11-21",
      "latitude": 45.440742,
      "name": "CLEARWATER 4.5 WNW, MN US",
      "datacoverage": 0.9819,
      "id": "GHCND:US1MNSR0092",
      "elevationUnit": "METERS",
      "longitude": -94.1475266
    },
    {
      "elevation": 355.4,
      "mindate": "2023-04-15",
      "maxdate": "2024-11-01",
      "latitude": 45.5349555,
      "name": "SAINT JOSEPH 2.0 SSW, MN US",
      "datacoverage": 0.552,
      "id": "GHCND:US1MNSR0096",
      "elevationUnit": "METERS",
      "longitude": -94.3275203
    },
    {
      "elevation": 316.4,
      "mindate": "2014-10-26",
      "maxdate": "2024-11-01",
      "latitude": 45.626411,
      "name": "SARTELL 1.3 WNW, MN US",
      "datacoverage": 0.4366,
      "id": "GHCND:US1MNSR0099",
      "elevationUnit": "METERS",
      "longitude": -94.23212
    },
    {
      "elevation": 318.5,
      "mindate": "2024-03-07",
      "maxdate": "2024-10-24",
      "latitude": 45.559695,
      "name": "SAINT CLOUD 2.1 W, MN US",
      "datacoverage": 0.998,
      "id": "GHCND:US1MNSR0104",
      "elevationUnit": "METERS",
      "longitude": -94.183632
    }
  ]
}
