{
  "metadata": {
    "resultset": {
      "offset": 111900,
      "count": 154115,
      "limit": 100
    }
  },
  "results": [
    {
      "elevation": 71.6,
      "mindate": "2014-06-01",
      "maxdate": "2014-11-14",
      "latitude": 34.1452865600586,
      "name": "IRMO 4.1 NNE, SC US",
      "datacoverage": 0.9947,
      "id": "GHCND:US1SCRC0059",
      "elevationUnit": "METERS",
      "longitude": -81.1517944335938
    },
    {
      "elevation": 125.3,
      "mindate": "2014-06-01",
      "maxdate": "2020-11-22",
      "latitude": 34.20946,
      "name": "LITTLE MOUNTAIN 8.2 E, SC US",
      "datacoverage": 0.9994,
      "id": "GHCND:US1SCRC0061",
      "elevationUnit": "METERS",
      "longitude": -81.271752
    },
    {
      "elevation": 126.5,
      "mindate": "2015-03-01",
      "maxdate": "2020-12-15",
      "latitude": 34.146914,
      "name": "COLUMBIA 7.4 N, SC US",
      "datacoverage": 0.9994,
      "id": "GHCND:US1SCRC0062",
      "elevationUnit": "METERS",
      "longitude": -80.88642
    },
    {
      "elevation": 79.6,
      "mindate": "2016-07-05",
      "maxdate": "2023-08-08",
      "latitude": 33.9839363098145,
      "name": "COLUMBIA 1.9 SE, SC US",
      "datacoverage": 0.1429,
      "id": "GHCND:US1SCRC0064",
      "elevationUnit": "METERS",
      "longitude": -81.0094223022461
    },
    {
      "elevation": 135,
      "mindate": "2017-02-13",
      "maxdate": "2017-08-09",
      "latitude": 34.1274681091309,
      "name": "IRMO 3.4 NW, SC US",
      "datacoverage": 0.6011,
      "id": "GHCND:US1SCRC0068",
      "elevationUnit": "METERS",
      "longitude": -81.2303771972656
    },
    {
      "elevation": 73.2,
      "mindate": "2017-03-01",
      "maxdate": "2020-04-21",
      "latitude": 34.033673,
      "name": "FOREST ACRES 0.7 NE, SC US",
      "datacoverage": 1,
      "id": "GHCND:US1SCRC0071",
      "elevationUnit": "METERS",
      "longitude": -80.967732
    },
    {
      "elevation": 83.5,
      "mindate": "2017-03-01",
      "maxdate": "2025-01-19",
      "latitude": 34.0249061584473,
      "name": "COLUMBIA 6.4 W, SC US",
      "datacoverage": 0.998,
      "id": "GHCND:US1SCRC0072",
      "elevationUnit": "METERS",
      "longitude": -80.9965438842773
    },
    {
      "elevation": 77.4,
      "mindate": "2017-02-28",
      "maxdate": "2020-01-17",
      "latitude": 34.118046,
      "name": "IRMO 2.5 NE, SC US",
      "datacoverage": 0.9526,
      "id": "GHCND:US1SCRC0073",
      "elevationUnit": "METERS",
      "longitude": -81.156723
    },
    {
      "elevation": 100.6,
      "mindate": "2017-05-25",
      "maxdate": "2018-12-19",
      "latitude": 34.182944,
      "name": "COLUMBIA 10.0 N, SC US",
      "datacoverage": 0.5575,
      "id": "GHCND:US1SCRC0078",
      "elevationUnit": "METERS",
      "longitude": -80.895883
    },
    {
      "elevation": 82,
      "mindate": "2018-01-12",
      "maxdate": "2023-09-11",
      "latitude": 34.023578,
      "name": "WEST COLUMBIA 2.2 N, SC US",
      "datacoverage": 0.0923,
      "id": "GHCND:US1SCRC0080",
      "elevationUnit": "METERS",
      "longitude": -81.086014
    },
    {
      "elevation": 75,
      "mindate": "2018-03-22",
      "maxdate": "2020-12-25",
      "latitude": 34.036206,
      "name": "COLUMBIA 5.3 W, SC US",
      "datacoverage": 0.2564,
      "id": "GHCND:US1SCRC0081",
      "elevationUnit": "METERS",
      "longitude": -80.979622
    },
    {
      "elevation": 80.5,
      "mindate": "2018-03-31",
      "maxdate": "2025-03-07",
      "latitude": 34.128169,
      "name": "IRMO 3.2 NE, SC US",
      "datacoverage": 0.9878,
      "id": "GHCND:US1SCRC0088",
      "elevationUnit": "METERS",
      "longitude": -81.151895
    },
    {
      "elevation": 110,
      "mindate": "2016-09-15",
      "maxdate": "2025-03-07",
      "latitude": 34.20606,
      "name": "BLYTHEWOOD 5.8 W, SC US",
      "datacoverage": 0.9756,
      "id": "GHCND:US1SCRC0090",
      "elevationUnit": "METERS",
      "longitude": -81.07657
    },
    {
      "elevation": 118.9,
      "mindate": "2018-07-25",
      "maxdate": "2025-03-06",
      "latitude": 34.131159,
      "name": "CHAPIN 5.0 ESE, SC US",
      "datacoverage": 1,
      "id": "GHCND:US1SCRC0093",
      "elevationUnit": "METERS",
      "longitude": -81.270463
    },
    {
      "elevation": 101.2,
      "mindate": "2019-03-22",
      "maxdate": "2025-03-04",
      "latitude": 34.166753,
      "name": "IRMO 7.3 NE, SC US",
      "datacoverage": 0.2795,
      "id": "GHCND:US1SCRC0102",
      "elevationUnit": "METERS",
      "longitude": -81.094893
    },
    {
      "elevation": 107.3,
      "mindate": "2019-03-30",
      "maxdate": "2025-03-06",
      "latitude": 34.166283,
      "name": "COLUMBIA 8.8 N, SC US",
      "datacoverage": 0.9866,
      "id": "GHCND:US1SCRC0106",
      "elevationUnit": "METERS",
      "longitude": -80.888718
    },
    {
      "elevation": 79.6,
      "mindate": "2019-06-18",
      "maxdate": "2020-06-25",
      "latitude": 34.02457,
      "name": "COLUMBIA 2.1 NW, SC US",
      "datacoverage": 0.998,
      "id": "GHCND:US1SCRC0113",
      "elevationUnit": "METERS",
      "longitude": -81.05718
    },
    {
      "elevation": 115.2,
      "mindate": "2020-09-16",
      "maxdate": "2025-03-06",
      "latitude": 34.1798951,
      "name": "COLUMBIA 9.7 N, SC US",
      "datacoverage": 0.711,
      "id": "GHCND:US1SCRC0121",
      "elevationUnit": "METERS",
      "longitude": -80.8944797
    },
    {
      "elevation": 86.6,
      "mindate": "2020-09-25",
      "maxdate": "2025-03-07",
      "latitude": 33.980729,
      "name": "VALENCIA HEIGHTS 1.0 WNW, SC US",
      "datacoverage": 0.8658,
      "id": "GHCND:US1SCRC0122",
      "elevationUnit": "METERS",
      "longitude": -81.002108
    },
    {
      "elevation": 75,
      "mindate": "2020-10-10",
      "maxdate": "2025-03-06",
      "latitude": 33.9661,
      "name": "COLUMBIA 5.6 SSW, SC US",
      "datacoverage": 1,
      "id": "GHCND:US1SCRC0123",
      "elevationUnit": "METERS",
      "longitude": -80.9292
    },
    {
      "elevation": 86.9,
      "mindate": "2021-01-27",
      "maxdate": "2025-03-07",
      "latitude": 34.02805,
      "name": "COLUMBIA 2.1 NNW, SC US",
      "datacoverage": 1,
      "id": "GHCND:US1SCRC0127",
      "elevationUnit": "METERS",
      "longitude": -81.0495
    },
    {
      "elevation": 72.2,
      "mindate": "2021-04-12",
      "maxdate": "2025-02-25",
      "latitude": 34.006186,
      "name": "COLUMBIA 6.1 WSW, SC US",
      "datacoverage": 0.7662,
      "id": "GHCND:US1SCRC0132",
      "elevationUnit": "METERS",
      "longitude": -80.985945
    },
    {
      "elevation": 85.3,
      "mindate": "2021-03-15",
      "maxdate": "2025-03-07",
      "latitude": 34.006784,
      "name": "COLUMBIA 5.7 WSW, SC US",
      "datacoverage": 0.7159,
      "id": "GHCND:US1SCRC0134",
      "elevationUnit": "METERS",
      "longitude": -80.977728
    },
    {
      "elevation": 58.2,
      "mindate": "2021-04-08",
      "maxdate": "2025-03-06",
      "latitude": 34.034151,
      "name": "COLUMBIA 4.0 W, SC US",
      "datacoverage": 0.8397,
      "id": "GHCND:US1SCRC0139",
      "elevationUnit": "METERS",
      "longitude": -80.956479
    },
    {
      "elevation": 124.7,
      "mindate": "2021-07-07",
      "maxdate": "2025-03-06",
      "latitude": 34.126153,
      "name": "ELGIN 4.0 SW, SC US",
      "datacoverage": 0.7371,
      "id": "GHCND:US1SCRC0140",
      "elevationUnit": "METERS",
      "longitude": -80.839044
    },
    {
      "elevation": 114.9,
      "mindate": "2022-04-14",
      "maxdate": "2025-03-06",
      "latitude": 34.076303,
      "name": "IRMO 2.2 WSW, SC US",
      "datacoverage": 0.9819,
      "id": "GHCND:US1SCRC0142",
      "elevationUnit": "METERS",
      "longitude": -81.22033
    },
    {
      "elevation": 85.6,
      "mindate": "2022-09-30",
      "maxdate": "2023-03-04",
      "latitude": 33.989475,
      "name": "COLUMBIA 4.2 SE, SC US",
      "datacoverage": 0.9819,
      "id": "GHCND:US1SCRC0144",
      "elevationUnit": "METERS",
      "longitude": -80.845271
    },
    {
      "elevation": 116.7,
      "mindate": "2023-03-27",
      "maxdate": "2024-12-17",
      "latitude": 34.129206,
      "name": "CHAPIN 5.4 ESE, SC US",
      "datacoverage": 0.998,
      "id": "GHCND:US1SCRC0146",
      "elevationUnit": "METERS",
      "longitude": -81.264289
    },
    {
      "elevation": 111.3,
      "mindate": "2022-05-11",
      "maxdate": "2025-03-07",
      "latitude": 34.115358,
      "name": "COLUMBIA 6.2 NNW, SC US",
      "datacoverage": 1,
      "id": "GHCND:US1SCRC0147",
      "elevationUnit": "METERS",
      "longitude": -80.942044
    },
    {
      "elevation": 80.8,
      "mindate": "2023-05-21",
      "maxdate": "2025-03-07",
      "latitude": 34.02665,
      "name": "COLUMBIA 5.8 W, SC US",
      "datacoverage": 0.8645,
      "id": "GHCND:US1SCRC0150",
      "elevationUnit": "METERS",
      "longitude": -80.985872
    },
    {
      "elevation": 95.7,
      "mindate": "2023-04-29",
      "maxdate": "2025-03-05",
      "latitude": 34.0086002794718,
      "name": "COLUMBIA 1.8 ENE, SC US",
      "datacoverage": 0.6174,
      "id": "GHCND:US1SCRC0153",
      "elevationUnit": "METERS",
      "longitude": -81.0048207456207
    },
    {
      "elevation": 86,
      "mindate": "2023-12-01",
      "maxdate": "2025-03-05",
      "latitude": 33.926,
      "name": "EASTOVER 4.0 NW, SC US",
      "datacoverage": 0.7729,
      "id": "GHCND:US1SCRC0155",
      "elevationUnit": "METERS",
      "longitude": -80.735
    },
    {
      "elevation": 160,
      "mindate": "2008-05-01",
      "maxdate": "2024-10-07",
      "latitude": 33.946508,
      "name": "SALUDA 6.1 SW, SC US",
      "datacoverage": 0.9998,
      "id": "GHCND:US1SCSL0002",
      "elevationUnit": "METERS",
      "longitude": -81.855846
    },
    {
      "elevation": 123.7,
      "mindate": "2010-07-01",
      "maxdate": "2025-03-07",
      "latitude": 34.019034,
      "name": "SALUDA 3.5 ENE, SC US",
      "datacoverage": 0.9996,
      "id": "GHCND:US1SCSL0006",
      "elevationUnit": "METERS",
      "longitude": -81.715323
    },
    {
      "elevation": 137.5,
      "mindate": "2013-03-01",
      "maxdate": "2025-03-06",
      "latitude": 34.00942,
      "name": "SALUDA 0.6 NNE, SC US",
      "datacoverage": 1,
      "id": "GHCND:US1SCSL0009",
      "elevationUnit": "METERS",
      "longitude": -81.76829
    },
    {
      "elevation": 192.9,
      "mindate": "2013-08-01",
      "maxdate": "2025-03-05",
      "latitude": 33.84,
      "name": "RIDGE SPRING 0.4 SSW, SC US",
      "datacoverage": 1,
      "id": "GHCND:US1SCSL0010",
      "elevationUnit": "METERS",
      "longitude": -81.666272
    },
    {
      "elevation": 168.9,
      "mindate": "2016-10-26",
      "maxdate": "2020-12-13",
      "latitude": 33.942178,
      "name": "BATESBURG 3.2 NW, SC US",
      "datacoverage": 0.9841,
      "id": "GHCND:US1SCSL0012",
      "elevationUnit": "METERS",
      "longitude": -81.583848
    },
    {
      "elevation": 147.8,
      "mindate": "2018-05-11",
      "maxdate": "2025-03-07",
      "latitude": 34.034053,
      "name": "LEESVILLE 8.0 N, SC US",
      "datacoverage": 1,
      "id": "GHCND:US1SCSL0014",
      "elevationUnit": "METERS",
      "longitude": -81.520463
    },
    {
      "elevation": 56.1,
      "mindate": "2007-01-01",
      "maxdate": "2019-01-19",
      "latitude": 33.93229,
      "name": "SUMTER 1.3 SE, SC US",
      "datacoverage": 1,
      "id": "GHCND:US1SCSM0001",
      "elevationUnit": "METERS",
      "longitude": -80.3741003
    },
    {
      "elevation": 54.6,
      "mindate": "2013-05-01",
      "maxdate": "2025-03-07",
      "latitude": 33.945583,
      "name": "SUMTER 0.3 ENE, SC US",
      "datacoverage": 0.9994,
      "id": "GHCND:US1SCSM0010",
      "elevationUnit": "METERS",
      "longitude": -80.388
    },
    {
      "elevation": 54.9,
      "mindate": "2015-03-01",
      "maxdate": "2023-12-11",
      "latitude": 33.947119,
      "name": "SUMTER 0.2 NE, SC US",
      "datacoverage": 0.9967,
      "id": "GHCND:US1SCSM0013",
      "elevationUnit": "METERS",
      "longitude": -80.390141
    },
    {
      "elevation": 111.3,
      "mindate": "2016-05-01",
      "maxdate": "2025-03-07",
      "latitude": 34.0007,
      "name": "OAKLAND 1.5 NE, SC US",
      "datacoverage": 0.9986,
      "id": "GHCND:US1SCSM0014",
      "elevationUnit": "METERS",
      "longitude": -80.4792
    },
    {
      "elevation": 50.6,
      "mindate": "2016-09-01",
      "maxdate": "2025-02-28",
      "latitude": 34.0285671,
      "name": "SUMTER 6.8 NNE, SC US",
      "datacoverage": 0.8284,
      "id": "GHCND:US1SCSM0016",
      "elevationUnit": "METERS",
      "longitude": -80.3324782
    },
    {
      "elevation": 55.8,
      "mindate": "2017-03-01",
      "maxdate": "2022-01-17",
      "latitude": 33.894436,
      "name": "SUMTER 3.6 SSW, SC US",
      "datacoverage": 0.8817,
      "id": "GHCND:US1SCSM0020",
      "elevationUnit": "METERS",
      "longitude": -80.408261
    },
    {
      "elevation": 91.7,
      "mindate": "2017-04-24",
      "maxdate": "2021-07-08",
      "latitude": 33.98833,
      "name": "OAKLAND 2.1 W, SC US",
      "datacoverage": 0.0716,
      "id": "GHCND:US1SCSM0024",
      "elevationUnit": "METERS",
      "longitude": -80.53606
    },
    {
      "elevation": 63.1,
      "mindate": "2018-04-10",
      "maxdate": "2024-12-18",
      "latitude": 33.94196,
      "name": "SUMTER 1.9 W, SC US",
      "datacoverage": 0.8071,
      "id": "GHCND:US1SCSM0026",
      "elevationUnit": "METERS",
      "longitude": -80.4254
    },
    {
      "elevation": 52.7,
      "mindate": "2018-08-10",
      "maxdate": "2025-03-07",
      "latitude": 33.9291,
      "name": "SUMTER 1.1 SSW, SC US",
      "datacoverage": 0.8614,
      "id": "GHCND:US1SCSM0030",
      "elevationUnit": "METERS",
      "longitude": -80.397
    },
    {
      "elevation": 53,
      "mindate": "2012-09-01",
      "maxdate": "2025-03-05",
      "latitude": 33.8316,
      "name": "SUMTER 8.0 SSE, SC US",
      "datacoverage": 0.548,
      "id": "GHCND:US1SCSM0035",
      "elevationUnit": "METERS",
      "longitude": -80.3652
    },
    {
      "elevation": 107.9,
      "mindate": "2021-01-19",
      "maxdate": "2025-03-07",
      "latitude": 34.010738,
      "name": "DALZELL 2.3 W, SC US",
      "datacoverage": 1,
      "id": "GHCND:US1SCSM0037",
      "elevationUnit": "METERS",
      "longitude": -80.468887
    },
    {
      "elevation": 67.4,
      "mindate": "2021-03-09",
      "maxdate": "2025-01-22",
      "latitude": 33.9837,
      "name": "SUMTER 8.1 WNW, SC US",
      "datacoverage": 0.0989,
      "id": "GHCND:US1SCSM0039",
      "elevationUnit": "METERS",
      "longitude": -80.52605
    },
    {
      "elevation": 61.9,
      "mindate": "2021-04-26",
      "maxdate": "2025-02-12",
      "latitude": 33.90533,
      "name": "SUMTER 3.3 SW, SC US",
      "datacoverage": 1,
      "id": "GHCND:US1SCSM0040",
      "elevationUnit": "METERS",
      "longitude": -80.42409
    },
    {
      "elevation": 63.7,
      "mindate": "2021-08-01",
      "maxdate": "2023-04-16",
      "latitude": 33.91422,
      "name": "SUMTER 2.8 SW, SC US",
      "datacoverage": 1,
      "id": "GHCND:US1SCSM0041",
      "elevationUnit": "METERS",
      "longitude": -80.425858
    },
    {
      "elevation": 57.6,
      "mindate": "2022-09-25",
      "maxdate": "2024-12-12",
      "latitude": 33.9485914,
      "name": "SUMTER 0.6 ENE, SC US",
      "datacoverage": 0.8797,
      "id": "GHCND:US1SCSM0045",
      "elevationUnit": "METERS",
      "longitude": -80.3842822
    },
    {
      "elevation": 55.2,
      "mindate": "2023-04-10",
      "maxdate": "2025-03-06",
      "latitude": 33.81817,
      "name": "SUMTER 8.7 S, SC US",
      "datacoverage": 0.9994,
      "id": "GHCND:US1SCSM0046",
      "elevationUnit": "METERS",
      "longitude": -80.39344
    },
    {
      "elevation": 271.9,
      "mindate": "2008-03-01",
      "maxdate": "2016-01-10",
      "latitude": 34.837635,
      "name": "GREER 7.7 SSE, SC US",
      "datacoverage": 0.9785,
      "id": "GHCND:US1SCSP0004",
      "elevationUnit": "METERS",
      "longitude": -82.176644
    },
    {
      "elevation": 230.1,
      "mindate": "1998-06-01",
      "maxdate": "2016-04-29",
      "latitude": 34.8919900557973,
      "name": "BERRY S POND 0.1 N, SC US",
      "datacoverage": 0.9677,
      "id": "GHCND:US1SCSP0006",
      "elevationUnit": "METERS",
      "longitude": -82.1061301231384
    },
    {
      "elevation": 208.2,
      "mindate": "2008-03-01",
      "maxdate": "2018-12-17",
      "latitude": 34.913358,
      "name": "SPARTANBURG 3.7 SE, SC US",
      "datacoverage": 0.9895,
      "id": "GHCND:US1SCSP0008",
      "elevationUnit": "METERS",
      "longitude": -81.874807
    },
    {
      "elevation": 232.9,
      "mindate": "2008-06-01",
      "maxdate": "2025-03-06",
      "latitude": 34.876255,
      "name": "MOORE 4.9 NW, SC US",
      "datacoverage": 1,
      "id": "GHCND:US1SCSP0010",
      "elevationUnit": "METERS",
      "longitude": -82.057075
    },
    {
      "elevation": 285,
      "mindate": "2008-03-01",
      "maxdate": "2025-03-07",
      "latitude": 34.964,
      "name": "LYMAN 4.1 WNW, SC US",
      "datacoverage": 0.9993,
      "id": "GHCND:US1SCSP0011",
      "elevationUnit": "METERS",
      "longitude": -82.194
    },
    {
      "elevation": 252.7,
      "mindate": "2008-03-01",
      "maxdate": "2014-08-10",
      "latitude": 34.970716,
      "name": "LYMAN 1.5 NNW, SC US",
      "datacoverage": 0.9819,
      "id": "GHCND:US1SCSP0012",
      "elevationUnit": "METERS",
      "longitude": -82.135195
    },
    {
      "elevation": 280.1,
      "mindate": "2008-04-01",
      "maxdate": "2010-12-01",
      "latitude": 35.188089,
      "name": "CAMPOBELLO 7.5 NE, SC US",
      "datacoverage": 0.8783,
      "id": "GHCND:US1SCSP0013",
      "elevationUnit": "METERS",
      "longitude": -82.049583
    },
    {
      "elevation": 222.8,
      "mindate": "2008-04-01",
      "maxdate": "2014-08-13",
      "latitude": 34.973182,
      "name": "SPARTANBURG 4.7 ENE, SC US",
      "datacoverage": 0.7112,
      "id": "GHCND:US1SCSP0014",
      "elevationUnit": "METERS",
      "longitude": -81.852237
    },
    {
      "elevation": 307.8,
      "mindate": "2008-05-01",
      "maxdate": "2022-12-11",
      "latitude": 35.089301,
      "name": "INMAN 2.6 N, SC US",
      "datacoverage": 0.9998,
      "id": "GHCND:US1SCSP0016",
      "elevationUnit": "METERS",
      "longitude": -82.09686
    },
    {
      "elevation": 262.1,
      "mindate": "2008-08-01",
      "maxdate": "2012-04-02",
      "latitude": 34.8679,
      "name": "DUNCAN 4.7 S, SC US",
      "datacoverage": 0.8671,
      "id": "GHCND:US1SCSP0017",
      "elevationUnit": "METERS",
      "longitude": -82.1335
    },
    {
      "elevation": 237.4,
      "mindate": "2008-05-01",
      "maxdate": "2023-10-16",
      "latitude": 34.879646,
      "name": "DUNCAN 5.1 SE, SC US",
      "datacoverage": 0.9893,
      "id": "GHCND:US1SCSP0018",
      "elevationUnit": "METERS",
      "longitude": -82.077712
    },
    {
      "elevation": 267.9,
      "mindate": "2009-02-01",
      "maxdate": "2025-03-07",
      "latitude": 34.9891222,
      "name": "LYMAN 5.3 WNW, SC US",
      "datacoverage": 1,
      "id": "GHCND:US1SCSP0023",
      "elevationUnit": "METERS",
      "longitude": -82.2055501
    },
    {
      "elevation": 214,
      "mindate": "2009-03-01",
      "maxdate": "2025-02-25",
      "latitude": 34.957222,
      "name": "SPARTANBURG 3.4 ENE, SC US",
      "datacoverage": 0.5476,
      "id": "GHCND:US1SCSP0025",
      "elevationUnit": "METERS",
      "longitude": -81.870375
    },
    {
      "elevation": 230.4,
      "mindate": "2009-03-01",
      "maxdate": "2020-12-15",
      "latitude": 34.962691,
      "name": "SPARTANBURG 2.6 ENE, SC US",
      "datacoverage": 0.8821,
      "id": "GHCND:US1SCSP0026",
      "elevationUnit": "METERS",
      "longitude": -81.888
    },
    {
      "elevation": 252.7,
      "mindate": "2010-04-01",
      "maxdate": "2025-03-07",
      "latitude": 34.93035,
      "name": "SPARTANBURG 5.1 WSW, SC US",
      "datacoverage": 0.9998,
      "id": "GHCND:US1SCSP0028",
      "elevationUnit": "METERS",
      "longitude": -82.018871
    },
    {
      "elevation": 267.3,
      "mindate": "2010-05-01",
      "maxdate": "2012-10-02",
      "latitude": 35.04809,
      "name": "BOILING SPRINGS 0.9 ENE, SC US",
      "datacoverage": 0.9991,
      "id": "GHCND:US1SCSP0029",
      "elevationUnit": "METERS",
      "longitude": -81.96162
    },
    {
      "elevation": 231.6,
      "mindate": "2010-05-01",
      "maxdate": "2022-12-17",
      "latitude": 35.097869,
      "name": "CHESNEE 3.9 SSW, SC US",
      "datacoverage": 0.9996,
      "id": "GHCND:US1SCSP0031",
      "elevationUnit": "METERS",
      "longitude": -81.894062
    },
    {
      "elevation": 283.2,
      "mindate": "2011-07-01",
      "maxdate": "2015-02-21",
      "latitude": 35.080601,
      "name": "INMAN 6.7 ENE, SC US",
      "datacoverage": 0.9055,
      "id": "GHCND:US1SCSP0035",
      "elevationUnit": "METERS",
      "longitude": -81.980106
    },
    {
      "elevation": 282.9,
      "mindate": "2012-03-01",
      "maxdate": "2013-03-05",
      "latitude": 34.972519,
      "name": "LYMAN 2.4 NW, SC US",
      "datacoverage": 0.9992,
      "id": "GHCND:US1SCSP0037",
      "elevationUnit": "METERS",
      "longitude": -82.156865
    },
    {
      "elevation": 201.5,
      "mindate": "2012-04-01",
      "maxdate": "2019-10-31",
      "latitude": 34.7307662963867,
      "name": "WOODRUFF 3.0 ESE, SC US",
      "datacoverage": 1,
      "id": "GHCND:US1SCSP0038",
      "elevationUnit": "METERS",
      "longitude": -81.9809875488281
    },
    {
      "elevation": 281.3,
      "mindate": "1998-06-01",
      "maxdate": "2020-03-02",
      "latitude": 34.9792366027832,
      "name": "GREER 3.0 NNE, SC US",
      "datacoverage": 0.9893,
      "id": "GHCND:US1SCSP0040",
      "elevationUnit": "METERS",
      "longitude": -82.2119369506836
    },
    {
      "elevation": 252.1,
      "mindate": "2018-11-01",
      "maxdate": "2025-03-07",
      "latitude": 34.9174308776855,
      "name": "SPARTANBURG 3.6 WSW, SC US",
      "datacoverage": 0.7857,
      "id": "GHCND:US1SCSP0043",
      "elevationUnit": "METERS",
      "longitude": -81.9824981689453
    },
    {
      "elevation": 274.9,
      "mindate": "2013-08-01",
      "maxdate": "2014-01-13",
      "latitude": 35.017627,
      "name": "INMAN 2.8 SSW, SC US",
      "datacoverage": 1,
      "id": "GHCND:US1SCSP0044",
      "elevationUnit": "METERS",
      "longitude": -82.120615
    },
    {
      "elevation": 272.2,
      "mindate": "2013-08-01",
      "maxdate": "2016-05-30",
      "latitude": 34.9197273254395,
      "name": "GREER 1.5 SSE, SC US",
      "datacoverage": 1,
      "id": "GHCND:US1SCSP0045",
      "elevationUnit": "METERS",
      "longitude": -82.2201232910156
    },
    {
      "elevation": 267.6,
      "mindate": "2012-06-01",
      "maxdate": "2025-03-07",
      "latitude": 35.0886,
      "name": "INMAN 6.5 ENE, SC US",
      "datacoverage": 0.6957,
      "id": "GHCND:US1SCSP0049",
      "elevationUnit": "METERS",
      "longitude": -81.98735
    },
    {
      "elevation": 242.9,
      "mindate": "2013-09-01",
      "maxdate": "2024-03-25",
      "latitude": 35.1073570251465,
      "name": "CHESNEE 3.9 SW, SC US",
      "datacoverage": 1,
      "id": "GHCND:US1SCSP0050",
      "elevationUnit": "METERS",
      "longitude": -81.9100875854492
    },
    {
      "elevation": 216.4,
      "mindate": "2013-11-01",
      "maxdate": "2021-01-05",
      "latitude": 34.9178199768066,
      "name": "SPARTANBURG 3.4 ESE, SC US",
      "datacoverage": 1,
      "id": "GHCND:US1SCSP0051",
      "elevationUnit": "METERS",
      "longitude": -81.8788223266602
    },
    {
      "elevation": 278,
      "mindate": "2014-06-01",
      "maxdate": "2025-03-06",
      "latitude": 35.168154,
      "name": "CHESNEE 4.5 WNW, SC US",
      "datacoverage": 1,
      "id": "GHCND:US1SCSP0053",
      "elevationUnit": "METERS",
      "longitude": -81.93896
    },
    {
      "elevation": 207.9,
      "mindate": "2014-06-01",
      "maxdate": "2025-03-06",
      "latitude": 34.7689018249512,
      "name": "PAULINE 4.5 SSE, SC US",
      "datacoverage": 0.9994,
      "id": "GHCND:US1SCSP0054",
      "elevationUnit": "METERS",
      "longitude": -81.8569717407227
    },
    {
      "elevation": 195.1,
      "mindate": "2014-09-01",
      "maxdate": "2025-02-13",
      "latitude": 34.7754,
      "name": "WOODRUFF 2.5 NNE, SC US",
      "datacoverage": 1,
      "id": "GHCND:US1SCSP0055",
      "elevationUnit": "METERS",
      "longitude": -82.0191
    },
    {
      "elevation": 237.4,
      "mindate": "2015-05-01",
      "maxdate": "2025-03-05",
      "latitude": 34.9732,
      "name": "SPARTANBURG 3.7 ENE, SC US",
      "datacoverage": 0.9965,
      "id": "GHCND:US1SCSP0057",
      "elevationUnit": "METERS",
      "longitude": -81.8732
    },
    {
      "elevation": 240.5,
      "mindate": "2015-06-01",
      "maxdate": "2025-03-05",
      "latitude": 34.91516,
      "name": "DUNCAN 1.6 SSE, SC US",
      "datacoverage": 0.1557,
      "id": "GHCND:US1SCSP0058",
      "elevationUnit": "METERS",
      "longitude": -82.12333
    },
    {
      "elevation": 232.6,
      "mindate": "2015-12-14",
      "maxdate": "2017-12-29",
      "latitude": 34.883623,
      "name": "DUNCAN 4.9 SE, SC US",
      "datacoverage": 0.4324,
      "id": "GHCND:US1SCSP0060",
      "elevationUnit": "METERS",
      "longitude": -82.079298
    },
    {
      "elevation": 198.1,
      "mindate": "2015-04-11",
      "maxdate": "2018-02-12",
      "latitude": 34.785437242725,
      "name": "PAULINE 4.5 SE, SC US",
      "datacoverage": 0.2281,
      "id": "GHCND:US1SCSP0061",
      "elevationUnit": "METERS",
      "longitude": -81.8181879090224
    },
    {
      "elevation": 269.4,
      "mindate": "2016-06-16",
      "maxdate": "2017-01-25",
      "latitude": 34.876206,
      "name": "ABNER CREEK 0.7 NW, SC US",
      "datacoverage": 0.9947,
      "id": "GHCND:US1SCSP0063",
      "elevationUnit": "METERS",
      "longitude": -82.173104
    },
    {
      "elevation": 267.9,
      "mindate": "2017-01-22",
      "maxdate": "2025-03-07",
      "latitude": 35.034562,
      "name": "BOILING SPRINGS 1.7 ESE, SC US",
      "datacoverage": 0.7389,
      "id": "GHCND:US1SCSP0065",
      "elevationUnit": "METERS",
      "longitude": -81.948755
    },
    {
      "elevation": 269.1,
      "mindate": "2017-02-06",
      "maxdate": "2025-03-07",
      "latitude": 34.9754,
      "name": "WELLFORD 2.8 ENE, SC US",
      "datacoverage": 1,
      "id": "GHCND:US1SCSP0066",
      "elevationUnit": "METERS",
      "longitude": -82.0532
    },
    {
      "elevation": 259.4,
      "mindate": "2017-06-03",
      "maxdate": "2021-04-08",
      "latitude": 35.1036796569824,
      "name": "CAMPOBELLO 2.9 ESE, SC US",
      "datacoverage": 0.8869,
      "id": "GHCND:US1SCSP0070",
      "elevationUnit": "METERS",
      "longitude": -82.1007080078125
    },
    {
      "elevation": 297.8,
      "mindate": "2017-04-09",
      "maxdate": "2025-03-05",
      "latitude": 35.104528,
      "name": "CAMPOBELLO 2.7 WSW, SC US",
      "datacoverage": 0.3352,
      "id": "GHCND:US1SCSP0071",
      "elevationUnit": "METERS",
      "longitude": -82.19451
    },
    {
      "elevation": 285.3,
      "mindate": "2017-07-01",
      "maxdate": "2021-09-29",
      "latitude": 34.972665,
      "name": "LYMAN 2.4 NW, SC US",
      "datacoverage": 0.8483,
      "id": "GHCND:US1SCSP0072",
      "elevationUnit": "METERS",
      "longitude": -82.156764
    },
    {
      "elevation": 239,
      "mindate": "2018-03-20",
      "maxdate": "2025-03-06",
      "latitude": 34.94617,
      "name": "SPARTANBURG 0.9 E, SC US",
      "datacoverage": 0.8479,
      "id": "GHCND:US1SCSP0076",
      "elevationUnit": "METERS",
      "longitude": -81.91295
    },
    {
      "elevation": 281,
      "mindate": "2018-04-16",
      "maxdate": "2019-07-06",
      "latitude": 34.923645,
      "name": "GREER 1.5 SE, SC US",
      "datacoverage": 1,
      "id": "GHCND:US1SCSP0077",
      "elevationUnit": "METERS",
      "longitude": -82.213947
    },
    {
      "elevation": 212.8,
      "mindate": "2018-04-30",
      "maxdate": "2019-06-18",
      "latitude": 34.88524,
      "name": "ROEBUCK 4.1 W, SC US",
      "datacoverage": 0.9819,
      "id": "GHCND:US1SCSP0079",
      "elevationUnit": "METERS",
      "longitude": -82.03606
    },
    {
      "elevation": 278.9,
      "mindate": "2019-03-26",
      "maxdate": "2021-07-31",
      "latitude": 35.1021,
      "name": "CAMPOBELLO 1.3 SE, SC US",
      "datacoverage": 0.9991,
      "id": "GHCND:US1SCSP0089",
      "elevationUnit": "METERS",
      "longitude": -82.13437
    },
    {
      "elevation": 233.5,
      "mindate": "2019-03-13",
      "maxdate": "2025-03-07",
      "latitude": 34.885564,
      "name": "BERRY S POND 0.3 SW, SC US",
      "datacoverage": 0.9214,
      "id": "GHCND:US1SCSP0091",
      "elevationUnit": "METERS",
      "longitude": -82.111839
    },
    {
      "elevation": 249.6,
      "mindate": "2022-10-30",
      "maxdate": "2025-03-06",
      "latitude": 34.782658,
      "name": "WOODRUFF 5.6 WNW, SC US",
      "datacoverage": 0.8219,
      "id": "GHCND:US1SCSP0092",
      "elevationUnit": "METERS",
      "longitude": -82.117018
    }
  ]
}
