{
  "metadata": {
    "resultset": {
      "offset": 149300,
      "count": 154115,
      "limit": 100
    }
  },
  "results": [
    {
      "elevation": 110,
      "mindate": "1945-01-01",
      "maxdate": "2011-04-11",
      "latitude": 40.2,
      "name": "WILLOW GROVE NAS, PA US",
      "datacoverage": 1,
      "id": "GHCND:USW00014793",
      "elevationUnit": "METERS",
      "longitude": -75.15
    },
    {
      "elevation": 19.8,
      "mindate": "1999-07-01",
      "maxdate": "2025-03-05",
      "latitude": 41.35092,
      "name": "WESTERLY STATE AIRPORT, RI US",
      "datacoverage": 1,
      "id": "GHCND:USW00014794",
      "elevationUnit": "METERS",
      "longitude": -71.80555
    },
    {
      "elevation": 396.8,
      "mindate": "1948-01-01",
      "maxdate": "1953-05-14",
      "latitude": 41.31667,
      "name": "BEAR MOUNTAIN WEATHER BUREAU, NY US",
      "datacoverage": 1,
      "id": "GHCND:USW00014797",
      "elevationUnit": "METERS",
      "longitude": -74
    },
    {
      "elevation": 277.1,
      "mindate": "1893-01-01",
      "maxdate": "1968-08-31",
      "latitude": 42.1,
      "name": "BINGHAMTON WEATHER BUREAU CITY, NY US",
      "datacoverage": 0.6179,
      "id": "GHCND:USW00014798",
      "elevationUnit": "METERS",
      "longitude": -75.91667
    },
    {
      "elevation": 13.1,
      "mindate": "1948-01-01",
      "maxdate": "1950-09-22",
      "latitude": 41.16667,
      "name": "BLOCK ISLAND, RI US",
      "datacoverage": 1,
      "id": "GHCND:USW00014799",
      "elevationUnit": "METERS",
      "longitude": -71.56667
    },
    {
      "elevation": 176.8,
      "mindate": "1896-08-01",
      "maxdate": "2025-01-31",
      "latitude": 42.6083,
      "name": "MOUNT CLEMENS ANG BASE, MI US",
      "datacoverage": 1,
      "id": "GHCND:USW00014804",
      "elevationUnit": "METERS",
      "longitude": -82.8183
    },
    {
      "elevation": 246.9,
      "mindate": "1951-01-01",
      "maxdate": "1952-01-31",
      "latitude": 41.01667,
      "name": "FORT WAYNE BAER FIELD, IN US",
      "datacoverage": 0.9986,
      "id": "GHCND:USW00014805",
      "elevationUnit": "METERS",
      "longitude": -85.21667
    },
    {
      "elevation": 230.1,
      "mindate": "1893-01-01",
      "maxdate": "2025-01-31",
      "latitude": 40.3131,
      "name": "RANTOUL, IL US",
      "datacoverage": 1,
      "id": "GHCND:USW00014806",
      "elevationUnit": "METERS",
      "longitude": -88.1596
    },
    {
      "elevation": 192.9,
      "mindate": "1951-01-01",
      "maxdate": "1970-12-31",
      "latitude": 44.45,
      "name": "OSCODA WURTSMITH AIRPORT, MI US",
      "datacoverage": 1,
      "id": "GHCND:USW00014808",
      "elevationUnit": "METERS",
      "longitude": -83.4
    },
    {
      "elevation": 353,
      "mindate": "1947-11-01",
      "maxdate": "1952-09-14",
      "latitude": 40.48333,
      "name": "GREATER PITTSBURGH AFB, PA US",
      "datacoverage": 1,
      "id": "GHCND:USW00014809",
      "elevationUnit": "METERS",
      "longitude": -80.21667
    },
    {
      "elevation": 200.9,
      "mindate": "1949-01-01",
      "maxdate": "2003-07-31",
      "latitude": 42.01694,
      "name": "PARK RIDGE, IL US",
      "datacoverage": 0.9995,
      "id": "GHCND:USW00014810",
      "elevationUnit": "METERS",
      "longitude": -87.83333
    },
    {
      "elevation": 394.1,
      "mindate": "1948-01-01",
      "maxdate": "1948-09-30",
      "latitude": 41.28333,
      "name": "MERCER WEATHER BUREAU AIRPORT, PA US",
      "datacoverage": 0.9998,
      "id": "GHCND:USW00014812",
      "elevationUnit": "METERS",
      "longitude": -80.2
    },
    {
      "elevation": 318.1,
      "mindate": "1948-01-01",
      "maxdate": "2025-03-06",
      "latitude": 41.03732,
      "name": "AKRON FULTON INTERNATIONAL AIRPORT, OH US",
      "datacoverage": 1,
      "id": "GHCND:USW00014813",
      "elevationUnit": "METERS",
      "longitude": -81.46341
    },
    {
      "elevation": 179.8,
      "mindate": "1948-01-01",
      "maxdate": "2025-01-31",
      "latitude": 45.0605,
      "name": "ALPENA WASTEWATER PLANT, MI US",
      "datacoverage": 1,
      "id": "GHCND:USW00014814",
      "elevationUnit": "METERS",
      "longitude": -83.428
    },
    {
      "elevation": 282.5,
      "mindate": "1998-02-01",
      "maxdate": "2025-03-06",
      "latitude": 42.31192,
      "name": "BATTLE CREEK KELLOGG AIRPORT, MI US",
      "datacoverage": 1,
      "id": "GHCND:USW00014815",
      "elevationUnit": "METERS",
      "longitude": -85.24147
    },
    {
      "elevation": 242,
      "mindate": "1948-01-01",
      "maxdate": "1959-01-31",
      "latitude": 41.23333,
      "name": "BRADFORD, IL US",
      "datacoverage": 1,
      "id": "GHCND:USW00014816",
      "elevationUnit": "METERS",
      "longitude": -89.61667
    },
    {
      "elevation": 394.7,
      "mindate": "1948-01-01",
      "maxdate": "2025-03-05",
      "latitude": 44.2655,
      "name": "CADILLAC, MI US",
      "datacoverage": 1,
      "id": "GHCND:USW00014817",
      "elevationUnit": "METERS",
      "longitude": -85.3966
    },
    {
      "elevation": 185.8,
      "mindate": "1997-05-01",
      "maxdate": "2025-03-06",
      "latitude": 41.78412,
      "name": "CHICAGO MIDWAY AIRPORT, IL US",
      "datacoverage": 1,
      "id": "GHCND:USW00014819",
      "elevationUnit": "METERS",
      "longitude": -87.75514
    },
    {
      "elevation": 236.8,
      "mindate": "1938-05-01",
      "maxdate": "2025-03-07",
      "latitude": 41.40568,
      "name": "CLEVELAND HOPKINS INTERNATIONAL AIRPORT, OH US",
      "datacoverage": 1,
      "id": "GHCND:USW00014820",
      "elevationUnit": "METERS",
      "longitude": -81.85191
    },
    {
      "elevation": 246.8,
      "mindate": "1945-04-01",
      "maxdate": "2025-03-07",
      "latitude": 39.99068,
      "name": "JOHN GLENN INTERNATIONAL AIRPORT, OH US",
      "datacoverage": 1,
      "id": "GHCND:USW00014821",
      "elevationUnit": "METERS",
      "longitude": -82.87703
    },
    {
      "elevation": 189.8,
      "mindate": "1948-01-01",
      "maxdate": "2025-03-06",
      "latitude": 42.40725,
      "name": "DETROIT CITY AIRPORT, MI US",
      "datacoverage": 1,
      "id": "GHCND:USW00014822",
      "elevationUnit": "METERS",
      "longitude": -83.00899
    },
    {
      "elevation": 355.1,
      "mindate": "1948-01-01",
      "maxdate": "1948-08-31",
      "latitude": 40.68333,
      "name": "EAST LIVERPOOL WEATHER BUREAU AIRPORT, OH US",
      "datacoverage": 1,
      "id": "GHCND:USW00014823",
      "elevationUnit": "METERS",
      "longitude": -80.63333
    },
    {
      "elevation": 180.1,
      "mindate": "1871-05-25",
      "maxdate": "2025-03-07",
      "latitude": 45.7438,
      "name": "ESCANABA, MI US",
      "datacoverage": 1,
      "id": "GHCND:USW00014824",
      "elevationUnit": "METERS",
      "longitude": -87.0406
    },
    {
      "elevation": 246.5,
      "mindate": "1942-01-01",
      "maxdate": "2025-03-06",
      "latitude": 41.01369,
      "name": "FINDLAY AIRPORT, OH US",
      "datacoverage": 1,
      "id": "GHCND:USW00014825",
      "elevationUnit": "METERS",
      "longitude": -83.66814
    },
    {
      "elevation": 234.8,
      "mindate": "1948-01-01",
      "maxdate": "2025-03-06",
      "latitude": 42.96684,
      "name": "FLINT FCWOS, MI US",
      "datacoverage": 1,
      "id": "GHCND:USW00014826",
      "elevationUnit": "METERS",
      "longitude": -83.74996
    },
    {
      "elevation": 243,
      "mindate": "1939-08-01",
      "maxdate": "2025-03-07",
      "latitude": 40.97248,
      "name": "FORT WAYNE INTERNATIONAL AIRPORT, IN US",
      "datacoverage": 1,
      "id": "GHCND:USW00014827",
      "elevationUnit": "METERS",
      "longitude": -85.20636
    },
    {
      "elevation": 236.2,
      "mindate": "1892-12-01",
      "maxdate": "2025-03-07",
      "latitude": 43.9758,
      "name": "GLADWIN, MI US",
      "datacoverage": 1,
      "id": "GHCND:USW00014828",
      "elevationUnit": "METERS",
      "longitude": -84.4908
    },
    {
      "elevation": 251.2,
      "mindate": "1948-09-01",
      "maxdate": "2025-03-06",
      "latitude": 41.52651,
      "name": "GOSHEN MUNICIPAL AIRPORT, IN US",
      "datacoverage": 1,
      "id": "GHCND:USW00014829",
      "elevationUnit": "METERS",
      "longitude": -85.78721
    },
    {
      "elevation": 213.1,
      "mindate": "1938-04-01",
      "maxdate": "1963-11-23",
      "latitude": 42.9,
      "name": "GRAND RAPIDS, MI US",
      "datacoverage": 1,
      "id": "GHCND:USW00014830",
      "elevationUnit": "METERS",
      "longitude": -85.66667
    },
    {
      "elevation": 295.9,
      "mindate": "1948-01-01",
      "maxdate": "2025-03-06",
      "latitude": 42.26373,
      "name": "JACKSON REYNOLDS FIELD, MI US",
      "datacoverage": 1,
      "id": "GHCND:USW00014833",
      "elevationUnit": "METERS",
      "longitude": -84.45644
    },
    {
      "elevation": 181.1,
      "mindate": "1893-11-01",
      "maxdate": "2025-03-06",
      "latitude": 41.5,
      "name": "JOLIET, IL US",
      "datacoverage": 0.9918,
      "id": "GHCND:USW00014834",
      "elevationUnit": "METERS",
      "longitude": -88.16667
    },
    {
      "elevation": 181.7,
      "mindate": "1944-01-01",
      "maxdate": "2025-03-06",
      "latitude": 40.41236,
      "name": "LAFAYETTE PURDUE UNIVERSITY AIRPORT, IN US",
      "datacoverage": 1,
      "id": "GHCND:USW00014835",
      "elevationUnit": "METERS",
      "longitude": -86.94739
    },
    {
      "elevation": 261.2,
      "mindate": "1948-01-01",
      "maxdate": "2025-03-07",
      "latitude": 42.77609,
      "name": "LANSING CAPITAL CITY AIRPORT, MI US",
      "datacoverage": 1,
      "id": "GHCND:USW00014836",
      "elevationUnit": "METERS",
      "longitude": -84.59972
    },
    {
      "elevation": 261.7,
      "mindate": "1939-10-01",
      "maxdate": "2025-03-07",
      "latitude": 43.14069,
      "name": "MADISON DANE CO REGIONAL AIRPORT, WI US",
      "datacoverage": 1,
      "id": "GHCND:USW00014837",
      "elevationUnit": "METERS",
      "longitude": -89.34521
    },
    {
      "elevation": 186.8,
      "mindate": "1857-09-01",
      "maxdate": "2025-03-06",
      "latitude": 46.5458,
      "name": "MARQUETTE, MI US",
      "datacoverage": 1,
      "id": "GHCND:USW00014838",
      "elevationUnit": "METERS",
      "longitude": -87.3795
    },
    {
      "elevation": 203.3,
      "mindate": "1938-04-01",
      "maxdate": "2025-03-07",
      "latitude": 42.95489,
      "name": "MILWAUKEE MITCHELL AIRPORT, WI US",
      "datacoverage": 1,
      "id": "GHCND:USW00014839",
      "elevationUnit": "METERS",
      "longitude": -87.9045
    },
    {
      "elevation": 190.3,
      "mindate": "1896-06-01",
      "maxdate": "2025-03-07",
      "latitude": 43.17111,
      "name": "MUSKEGON CO AIRPORT, MI US",
      "datacoverage": 1,
      "id": "GHCND:USW00014840",
      "elevationUnit": "METERS",
      "longitude": -86.23685
    },
    {
      "elevation": 215.3,
      "mindate": "1948-01-01",
      "maxdate": "2025-03-06",
      "latitude": 45.5644,
      "name": "PELLSTON REGIONAL AIRPORT, MI US",
      "datacoverage": 1,
      "id": "GHCND:USW00014841",
      "elevationUnit": "METERS",
      "longitude": -84.79291
    },
    {
      "elevation": 199.7,
      "mindate": "1943-01-01",
      "maxdate": "2025-03-07",
      "latitude": 40.66747,
      "name": "GENERAL WAYNE A. DOWNING INTERNATIONAL AIRPORT, IL US",
      "datacoverage": 1,
      "id": "GHCND:USW00014842",
      "elevationUnit": "METERS",
      "longitude": -89.68418
    },
    {
      "elevation": 210.9,
      "mindate": "1948-01-01",
      "maxdate": "1950-01-21",
      "latitude": 41.78333,
      "name": "PERRY CAA AIRPORT, OH US",
      "datacoverage": 0.9991,
      "id": "GHCND:USW00014843",
      "elevationUnit": "METERS",
      "longitude": -81.1
    },
    {
      "elevation": 225.9,
      "mindate": "1900-01-01",
      "maxdate": "1955-12-03",
      "latitude": 42.35,
      "name": "ROCKFORD CAA AIRPORT, IL US",
      "datacoverage": 0.6246,
      "id": "GHCND:USW00014844",
      "elevationUnit": "METERS",
      "longitude": -89.05
    },
    {
      "elevation": 201.7,
      "mindate": "1898-01-01",
      "maxdate": "2025-03-06",
      "latitude": 43.52808,
      "name": "SAGINAW MBS INTERNATIONAL AIRPORT, MI US",
      "datacoverage": 1,
      "id": "GHCND:USW00014845",
      "elevationUnit": "METERS",
      "longitude": -84.08133
    },
    {
      "elevation": 178,
      "mindate": "1936-01-01",
      "maxdate": "2025-01-31",
      "latitude": 41.452,
      "name": "SANDUSKY, OH US",
      "datacoverage": 1,
      "id": "GHCND:USW00014846",
      "elevationUnit": "METERS",
      "longitude": -82.723
    },
    {
      "elevation": 219.8,
      "mindate": "1931-01-01",
      "maxdate": "2025-03-07",
      "latitude": 46.47998,
      "name": "SAULT STE MARIE SANDERSON FIELD, MI US",
      "datacoverage": 1,
      "id": "GHCND:USW00014847",
      "elevationUnit": "METERS",
      "longitude": -84.35809
    },
    {
      "elevation": 235.4,
      "mindate": "1893-12-01",
      "maxdate": "2025-03-07",
      "latitude": 41.70722,
      "name": "SOUTH BEND AIRPORT, IN US",
      "datacoverage": 1,
      "id": "GHCND:USW00014848",
      "elevationUnit": "METERS",
      "longitude": -86.31628
    },
    {
      "elevation": 189,
      "mindate": "1939-07-01",
      "maxdate": "2025-03-04",
      "latitude": 41.56327,
      "name": "TOLEDO EXECUTIVE AIRPORT, OH US",
      "datacoverage": 0.9996,
      "id": "GHCND:USW00014849",
      "elevationUnit": "METERS",
      "longitude": -83.47671
    },
    {
      "elevation": 185.2,
      "mindate": "1896-06-01",
      "maxdate": "2025-03-06",
      "latitude": 44.73895,
      "name": "TRAVERSE CITY CHERRY CAPITAL AIRPORT, MI US",
      "datacoverage": 1,
      "id": "GHCND:USW00014850",
      "elevationUnit": "METERS",
      "longitude": -85.5679
    },
    {
      "elevation": 355.6,
      "mindate": "1934-08-01",
      "maxdate": "2025-03-07",
      "latitude": 41.25478,
      "name": "YOUNGSTOWN WARREN REGIONAL AIRPORT, OH US",
      "datacoverage": 1,
      "id": "GHCND:USW00014852",
      "elevationUnit": "METERS",
      "longitude": -80.67361
    },
    {
      "elevation": 215.7,
      "mindate": "1948-01-01",
      "maxdate": "2025-03-05",
      "latitude": 42.23666,
      "name": "DETROIT WILLOW RUN AIRPORT, MI US",
      "datacoverage": 1,
      "id": "GHCND:USW00014853",
      "elevationUnit": "METERS",
      "longitude": -83.52638
    },
    {
      "elevation": 246,
      "mindate": "1945-02-01",
      "maxdate": "1945-10-27",
      "latitude": 40.66667,
      "name": "BUNKER HILL NAS, IN US",
      "datacoverage": 1,
      "id": "GHCND:USW00014854",
      "elevationUnit": "METERS",
      "longitude": -86.11667
    },
    {
      "elevation": 196.9,
      "mindate": "1945-01-01",
      "maxdate": "2010-12-31",
      "latitude": 42.08333,
      "name": "GLENVIEW NAS, IL US",
      "datacoverage": 1,
      "id": "GHCND:USW00014855",
      "elevationUnit": "METERS",
      "longitude": -87.83333
    },
    {
      "elevation": 180.1,
      "mindate": "1945-01-01",
      "maxdate": "1969-09-30",
      "latitude": 42.1,
      "name": "GROSSE ILE NAS, MI US",
      "datacoverage": 0.8779,
      "id": "GHCND:USW00014856",
      "elevationUnit": "METERS",
      "longitude": -83.16667
    },
    {
      "elevation": 189.9,
      "mindate": "1945-02-01",
      "maxdate": "1945-10-22",
      "latitude": 44.71667,
      "name": "TRAVERSE CITY, MI US",
      "datacoverage": 1,
      "id": "GHCND:USW00014857",
      "elevationUnit": "METERS",
      "longitude": -85.55
    },
    {
      "elevation": 323.9,
      "mindate": "1948-01-01",
      "maxdate": "2025-03-06",
      "latitude": 47.16594,
      "name": "HANCOCK HOUGHTON CO AIRPORT, MI US",
      "datacoverage": 1,
      "id": "GHCND:USW00014858",
      "elevationUnit": "METERS",
      "longitude": -88.48076
    },
    {
      "elevation": 190.2,
      "mindate": "1940-01-01",
      "maxdate": "2010-12-31",
      "latitude": 46.66667,
      "name": "GRAND MARAIS, MI US",
      "datacoverage": 1,
      "id": "GHCND:USW00014859",
      "elevationUnit": "METERS",
      "longitude": -85.95
    },
    {
      "elevation": 222.2,
      "mindate": "1926-01-01",
      "maxdate": "2025-03-07",
      "latitude": 42.08026,
      "name": "ERIE INTERNATIONAL AIRPORT, PA US",
      "datacoverage": 1,
      "id": "GHCND:USW00014860",
      "elevationUnit": "METERS",
      "longitude": -80.18236
    },
    {
      "elevation": 310,
      "mindate": "1926-01-01",
      "maxdate": "1979-09-30",
      "latitude": 40.45,
      "name": "PITTSBURGH WEATHER SERVICE OFFICE CITY, PA US",
      "datacoverage": 0.9256,
      "id": "GHCND:USW00014861",
      "elevationUnit": "METERS",
      "longitude": -80
    },
    {
      "elevation": 185.9,
      "mindate": "1905-01-01",
      "maxdate": "1943-05-03",
      "latitude": 40.71667,
      "name": "PEORIA CITY OFFICE, IL US",
      "datacoverage": 1,
      "id": "GHCND:USW00014874",
      "elevationUnit": "METERS",
      "longitude": -89.6
    },
    {
      "elevation": 216.5,
      "mindate": "1999-09-01",
      "maxdate": "2025-03-06",
      "latitude": 42.42546,
      "name": "CHICAGO WAUKEGAN REGIONAL AIRPORT, IL US",
      "datacoverage": 1,
      "id": "GHCND:USW00014880",
      "elevationUnit": "METERS",
      "longitude": -87.8634
    },
    {
      "elevation": 180.1,
      "mindate": "1836-07-01",
      "maxdate": "1965-02-28",
      "latitude": 41.88333,
      "name": "CHICAGO WEATHER BUREAU CITY 2, IL US",
      "datacoverage": 0.6345,
      "id": "GHCND:USW00014881",
      "elevationUnit": "METERS",
      "longitude": -87.63333
    },
    {
      "elevation": 392.8,
      "mindate": "1948-08-01",
      "maxdate": "2025-03-07",
      "latitude": 40.8204,
      "name": "MANSFIELD LAHM REGIONAL AIRPORT, OH US",
      "datacoverage": 1,
      "id": "GHCND:USW00014891",
      "elevationUnit": "METERS",
      "longitude": -82.51769
    },
    {
      "elevation": 181.1,
      "mindate": "1926-01-01",
      "maxdate": "2010-12-31",
      "latitude": 41.78333,
      "name": "CHICAGO UNIVERSITY, IL US",
      "datacoverage": 1,
      "id": "GHCND:USW00014892",
      "elevationUnit": "METERS",
      "longitude": -87.6
    },
    {
      "elevation": 364.3,
      "mindate": "1948-08-01",
      "maxdate": "2025-03-06",
      "latitude": 40.16994,
      "name": "WHEELING OHIO CO AIRPORT, WV US",
      "datacoverage": 1,
      "id": "GHCND:USW00014894",
      "elevationUnit": "METERS",
      "longitude": -80.64406
    },
    {
      "elevation": 368.8,
      "mindate": "1948-01-01",
      "maxdate": "2025-03-07",
      "latitude": 40.91811,
      "name": "AKRON CANTON AIRPORT, OH US",
      "datacoverage": 1,
      "id": "GHCND:USW00014895",
      "elevationUnit": "METERS",
      "longitude": -81.44342
    },
    {
      "elevation": 323.1,
      "mindate": "1952-01-01",
      "maxdate": "1957-10-15",
      "latitude": 41.03333,
      "name": "AKRON NAS, OH US",
      "datacoverage": 1,
      "id": "GHCND:USW00014896",
      "elevationUnit": "METERS",
      "longitude": -81.48333
    },
    {
      "elevation": 366,
      "mindate": "1941-12-01",
      "maxdate": "2025-03-06",
      "latitude": 44.927497,
      "name": "WAUSAU ASOS, WI US",
      "datacoverage": 1,
      "id": "GHCND:USW00014897",
      "elevationUnit": "METERS",
      "longitude": -89.625279
    },
    {
      "elevation": 208.6,
      "mindate": "1886-09-01",
      "maxdate": "2025-03-07",
      "latitude": 44.47958,
      "name": "GREEN BAY A S INTERNATIONAL AIRPORT, WI US",
      "datacoverage": 1,
      "id": "GHCND:USW00014898",
      "elevationUnit": "METERS",
      "longitude": -88.1371
    },
    {
      "elevation": 356,
      "mindate": "1949-01-01",
      "maxdate": "1964-06-14",
      "latitude": 40.85,
      "name": "LINCOLN AFB, NE US",
      "datacoverage": 0.9993,
      "id": "GHCND:USW00014904",
      "elevationUnit": "METERS",
      "longitude": -96.76667
    },
    {
      "elevation": 649.2,
      "mindate": "2011-01-01",
      "maxdate": "2025-03-06",
      "latitude": 40.73333,
      "name": "KEARNEY MUNICIPAL AIRPORT, NE US",
      "datacoverage": 0.9831,
      "id": "GHCND:USW00014905",
      "elevationUnit": "METERS",
      "longitude": -99
    },
    {
      "elevation": 432.8,
      "mindate": "1940-05-01",
      "maxdate": "2025-03-06",
      "latitude": 45.86801,
      "name": "ALEXANDRIA CHANDLER FIELD, MN US",
      "datacoverage": 1,
      "id": "GHCND:USW00014910",
      "elevationUnit": "METERS",
      "longitude": -95.39399
    },
    {
      "elevation": 446.2,
      "mindate": "1921-01-01",
      "maxdate": "2014-07-02",
      "latitude": 48.1069,
      "name": "DEVILS LAKE KDLR, ND US",
      "datacoverage": 1,
      "id": "GHCND:USW00014912",
      "elevationUnit": "METERS",
      "longitude": -98.868
    },
    {
      "elevation": 433.4,
      "mindate": "1948-01-01",
      "maxdate": "2025-03-07",
      "latitude": 46.8436,
      "name": "DULUTH INTERNATIONAL AIRPORT, MN US",
      "datacoverage": 1,
      "id": "GHCND:USW00014913",
      "elevationUnit": "METERS",
      "longitude": -92.18658
    },
    {
      "elevation": 272.8,
      "mindate": "1891-05-01",
      "maxdate": "2025-03-07",
      "latitude": 46.92424,
      "name": "FARGO HECTOR INTERNATIONAL AIRPORT, ND US",
      "datacoverage": 1,
      "id": "GHCND:USW00014914",
      "elevationUnit": "METERS",
      "longitude": -96.81186
    },
    {
      "elevation": 255.5,
      "mindate": "1941-04-01",
      "maxdate": "2025-03-07",
      "latitude": 47.94281,
      "name": "GRAND FORKS INTERNATIONAL AIRPORT, ND US",
      "datacoverage": 1,
      "id": "GHCND:USW00014916",
      "elevationUnit": "METERS",
      "longitude": -97.18294
    },
    {
      "elevation": 352.6,
      "mindate": "1906-07-01",
      "maxdate": "2025-03-07",
      "latitude": 48.55943,
      "name": "INTERNATIONAL FALLS INTERNATIONAL AIRPORT, MN US",
      "datacoverage": 1,
      "id": "GHCND:USW00014918",
      "elevationUnit": "METERS",
      "longitude": -93.39554
    },
    {
      "elevation": 455.7,
      "mindate": "1948-01-01",
      "maxdate": "2025-03-06",
      "latitude": 46.92586,
      "name": "JAMESTOWN MUNICIPAL AIRPORT, ND US",
      "datacoverage": 1,
      "id": "GHCND:USW00014919",
      "elevationUnit": "METERS",
      "longitude": -98.67037
    },
    {
      "elevation": 198.2,
      "mindate": "1938-04-01",
      "maxdate": "2025-03-07",
      "latitude": 43.87922,
      "name": "LA CROSSE REGIONAL AIRPORT, WI US",
      "datacoverage": 1,
      "id": "GHCND:USW00014920",
      "elevationUnit": "METERS",
      "longitude": -91.25301
    },
    {
      "elevation": 218,
      "mindate": "1948-01-01",
      "maxdate": "2025-03-06",
      "latitude": 43.21106,
      "name": "LONE ROCK TRI CO AIRPORT, WI US",
      "datacoverage": 1,
      "id": "GHCND:USW00014921",
      "elevationUnit": "METERS",
      "longitude": -90.18739
    },
    {
      "elevation": 254.5,
      "mindate": "1938-04-01",
      "maxdate": "2025-03-07",
      "latitude": 44.88523,
      "name": "MINNEAPOLIS ST. PAUL INTERNATIONAL AIRPORT, MN US",
      "datacoverage": 1,
      "id": "GHCND:USW00014922",
      "elevationUnit": "METERS",
      "longitude": -93.23133
    },
    {
      "elevation": 175.5,
      "mindate": "1943-01-01",
      "maxdate": "2025-03-07",
      "latitude": 41.44816,
      "name": "MOLINE QUAD CITY INTERNATIONAL AIRPORT, IL US",
      "datacoverage": 1,
      "id": "GHCND:USW00014923",
      "elevationUnit": "METERS",
      "longitude": -90.52365
    },
    {
      "elevation": 240.8,
      "mindate": "1898-05-01",
      "maxdate": "2025-03-07",
      "latitude": 48.9713,
      "name": "PEMBINA, ND US",
      "datacoverage": 1,
      "id": "GHCND:USW00014924",
      "elevationUnit": "METERS",
      "longitude": -97.2414
    },
    {
      "elevation": 397.9,
      "mindate": "1893-01-01",
      "maxdate": "2025-03-07",
      "latitude": 43.904,
      "name": "ROCHESTER INTERNATIONAL AIRPORT, MN US",
      "datacoverage": 1,
      "id": "GHCND:USW00014925",
      "elevationUnit": "METERS",
      "longitude": -92.49207
    },
    {
      "elevation": 310.2,
      "mindate": "1904-01-01",
      "maxdate": "2025-03-07",
      "latitude": 45.54416,
      "name": "ST. CLOUD REGIONAL AIRPORT, MN US",
      "datacoverage": 1,
      "id": "GHCND:USW00014926",
      "elevationUnit": "METERS",
      "longitude": -94.0516
    },
    {
      "elevation": 213.3,
      "mindate": "1937-01-01",
      "maxdate": "2025-03-05",
      "latitude": 44.93234,
      "name": "ST. PAUL DOWNTOWN AIRPORT, MN US",
      "datacoverage": 1,
      "id": "GHCND:USW00014927",
      "elevationUnit": "METERS",
      "longitude": -93.05586
    },
    {
      "elevation": 345,
      "mindate": "1948-01-01",
      "maxdate": "1951-09-30",
      "latitude": 45.11667,
      "name": "WILLMAR, MN US",
      "datacoverage": 0.9991,
      "id": "GHCND:USW00014928",
      "elevationUnit": "METERS",
      "longitude": -95.08333
    },
    {
      "elevation": 395.6,
      "mindate": "1893-01-01",
      "maxdate": "2025-03-07",
      "latitude": 45.44358,
      "name": "ABERDEEN REGIONAL AIRPORT, SD US",
      "datacoverage": 1,
      "id": "GHCND:USW00014929",
      "elevationUnit": "METERS",
      "longitude": -98.41384
    },
    {
      "elevation": 360.3,
      "mindate": "1948-01-01",
      "maxdate": "2025-03-07",
      "latitude": 41.40722,
      "name": "ATLANTIC MUNICIPAL AIRPORT, IA US",
      "datacoverage": 0.1209,
      "id": "GHCND:USW00014930",
      "elevationUnit": "METERS",
      "longitude": -95.04667
    },
    {
      "elevation": 208.2,
      "mindate": "1897-07-01",
      "maxdate": "2025-03-07",
      "latitude": 40.77291,
      "name": "BURLINGTON MUNICIPAL AIRPORT, IA US",
      "datacoverage": 1,
      "id": "GHCND:USW00014931",
      "elevationUnit": "METERS",
      "longitude": -91.12546
    },
    {
      "elevation": 176.5,
      "mindate": "1901-01-01",
      "maxdate": "1984-05-31",
      "latitude": 41.52333,
      "name": "DAVENPORT WEATHER BUREAU OFFICE CITY, IA US",
      "datacoverage": 0.9361,
      "id": "GHCND:USW00014932",
      "elevationUnit": "METERS",
      "longitude": -90.57333
    },
    {
      "elevation": 286.3,
      "mindate": "1945-01-01",
      "maxdate": "2025-03-07",
      "latitude": 41.53395,
      "name": "DES MOINES INTERNATIONAL AIRPORT, IA US",
      "datacoverage": 1,
      "id": "GHCND:USW00014933",
      "elevationUnit": "METERS",
      "longitude": -93.65313
    },
    {
      "elevation": 207,
      "mindate": "1893-01-01",
      "maxdate": "1952-01-31",
      "latitude": 42.5,
      "name": "DUBUQUE WEATHER BUREAU CITY, IA US",
      "datacoverage": 0.9996,
      "id": "GHCND:USW00014934",
      "elevationUnit": "METERS",
      "longitude": -90.66667
    },
    {
      "elevation": 561.7,
      "mindate": "1938-01-01",
      "maxdate": "2025-03-07",
      "latitude": 40.96146,
      "name": "GRAND ISLAND CENTRAL NE REGIONAL AIRPORT, NE US",
      "datacoverage": 1,
      "id": "GHCND:USW00014935",
      "elevationUnit": "METERS",
      "longitude": -98.31304
    },
    {
      "elevation": 390.7,
      "mindate": "1881-07-01",
      "maxdate": "2025-03-07",
      "latitude": 44.37916,
      "name": "HURON REGIONAL AIRPORT, SD US",
      "datacoverage": 1,
      "id": "GHCND:USW00014936",
      "elevationUnit": "METERS",
      "longitude": -98.22275
    },
    {
      "elevation": 198.7,
      "mindate": "1948-01-01",
      "maxdate": "2025-03-06",
      "latitude": 41.6394,
      "name": "IOWA CITY MUNICIPAL AIRPORT, IA US",
      "datacoverage": 1,
      "id": "GHCND:USW00014937",
      "elevationUnit": "METERS",
      "longitude": -91.54455
    },
    {
      "elevation": 291.4,
      "mindate": "1948-01-01",
      "maxdate": "2025-03-06",
      "latitude": 40.09661,
      "name": "KIRKSVILLE REGIONAL AIRPORT, MO US",
      "datacoverage": 1,
      "id": "GHCND:USW00014938",
      "elevationUnit": "METERS",
      "longitude": -92.54696
    },
    {
      "elevation": 356.7,
      "mindate": "1942-10-01",
      "maxdate": "2025-03-07",
      "latitude": 40.84781,
      "name": "LINCOLN AIRPORT, NE US",
      "datacoverage": 1,
      "id": "GHCND:USW00014939",
      "elevationUnit": "METERS",
      "longitude": -96.76467
    },
    {
      "elevation": 362.1,
      "mindate": "1948-01-01",
      "maxdate": "2025-03-06",
      "latitude": 43.1544,
      "name": "MASON CITY MUNICIPAL AIRPORT, IA US",
      "datacoverage": 1,
      "id": "GHCND:USW00014940",
      "elevationUnit": "METERS",
      "longitude": -93.32611
    },
    {
      "elevation": 476.2,
      "mindate": "1945-10-01",
      "maxdate": "2025-03-07",
      "latitude": 41.97988,
      "name": "NORFOLK KARL STEFAN MEMORIAL AIRPORT, NE US",
      "datacoverage": 1,
      "id": "GHCND:USW00014941",
      "elevationUnit": "METERS",
      "longitude": -97.4335
    },
    {
      "elevation": 298.8,
      "mindate": "1948-01-01",
      "maxdate": "2025-03-07",
      "latitude": 41.31186,
      "name": "OMAHA EPPLEY AIRFIELD, NE US",
      "datacoverage": 1,
      "id": "GHCND:USW00014942",
      "elevationUnit": "METERS",
      "longitude": -95.90186
    },
    {
      "elevation": 332.8,
      "mindate": "1942-10-01",
      "maxdate": "2025-03-07",
      "latitude": 42.39169,
      "name": "SIOUX CITY AIRPORT, IA US",
      "datacoverage": 1,
      "id": "GHCND:USW00014943",
      "elevationUnit": "METERS",
      "longitude": -96.37948
    }
  ]
}
