{
  "metadata": {
    "resultset": {
      "offset": 800,
      "count": 154115,
      "limit": 100
    }
  },
  "results": [
    {
      "elevation": 335,
      "mindate": "1952-07-01",
      "maxdate": "1960-09-01",
      "latitude": 33.56667,
      "name": "WADDELL 3 SSE, AZ US",
      "datacoverage": 0.9998,
      "id": "COOP:028566",
      "elevationUnit": "METERS",
      "longitude": -112.4
    },
    {
      "elevation": 975.4,
      "mindate": "2009-11-01",
      "maxdate": "2011-12-01",
      "latitude": 32.0138,
      "name": "THREE POINTS FIRE DEPARTMENT, AZ US",
      "datacoverage": 0.8081,
      "id": "COOP:028569",
      "elevationUnit": "METERS",
      "longitude": -111.2638
    },
    {
      "elevation": 2097,
      "mindate": "1965-06-01",
      "maxdate": "1967-06-01",
      "latitude": 34.6108,
      "name": "BLUE RIDGE RANGER STATION, AZ US",
      "datacoverage": 1,
      "id": "COOP:028576",
      "elevationUnit": "METERS",
      "longitude": -111.1922
    },
    {
      "elevation": 770.2,
      "mindate": "2009-07-01",
      "maxdate": "2015-11-01",
      "latitude": 32.3391,
      "name": "TOHONO CHUL, AZ US",
      "datacoverage": 0.9999,
      "id": "COOP:028590",
      "elevationUnit": "METERS",
      "longitude": -110.9808
    },
    {
      "elevation": 312.4,
      "mindate": "1951-10-01",
      "maxdate": "2015-11-01",
      "latitude": 33.4519,
      "name": "TOLLESON 1 E, AZ US",
      "datacoverage": 0.9766,
      "id": "COOP:028598",
      "elevationUnit": "METERS",
      "longitude": -112.2433
    },
    {
      "elevation": 1420.1,
      "mindate": "1931-01-01",
      "maxdate": "2015-11-01",
      "latitude": 31.7119,
      "name": "TOMBSTONE, AZ US",
      "datacoverage": 0.9686,
      "id": "COOP:028619",
      "elevationUnit": "METERS",
      "longitude": -110.0686
    },
    {
      "elevation": 1681,
      "mindate": "1948-10-01",
      "maxdate": "1949-07-01",
      "latitude": 36.33333,
      "name": "TONALEA, AZ US",
      "datacoverage": 0.9011,
      "id": "COOP:028634",
      "elevationUnit": "METERS",
      "longitude": -110.95
    },
    {
      "elevation": 396.2,
      "mindate": "1951-09-01",
      "maxdate": "2010-07-01",
      "latitude": 33.4204,
      "name": "TONOPAH, AZ US",
      "datacoverage": 0.4753,
      "id": "COOP:028641",
      "elevationUnit": "METERS",
      "longitude": -112.86
    },
    {
      "elevation": 1915.1,
      "mindate": "1944-06-01",
      "maxdate": "1975-07-01",
      "latitude": 34.36667,
      "name": "TONTO CREEK FISH HAT, AZ US",
      "datacoverage": 0.9626,
      "id": "COOP:028649",
      "elevationUnit": "METERS",
      "longitude": -111.1
    },
    {
      "elevation": 1947.7,
      "mindate": "1975-08-01",
      "maxdate": "2010-11-01",
      "latitude": 34.3839,
      "name": "TONTO CK FISH HAT NUMBER 2, AZ US",
      "datacoverage": 0.9552,
      "id": "COOP:028650",
      "elevationUnit": "METERS",
      "longitude": -111.0972
    },
    {
      "elevation": 1122,
      "mindate": "1973-09-01",
      "maxdate": "1974-06-01",
      "latitude": 33.88333,
      "name": "TONTO HILLS, AZ US",
      "datacoverage": 1,
      "id": "COOP:028653",
      "elevationUnit": "METERS",
      "longitude": -111.83333
    },
    {
      "elevation": 1464,
      "mindate": "1931-04-01",
      "maxdate": "1966-12-01",
      "latitude": 34.61667,
      "name": "TONTO SPRINGS R S 4 W, AZ US",
      "datacoverage": 0.7925,
      "id": "COOP:028657",
      "elevationUnit": "METERS",
      "longitude": -112.75
    },
    {
      "elevation": 136.9,
      "mindate": "1961-01-01",
      "maxdate": "1963-12-01",
      "latitude": 34.71667,
      "name": "TOPOCK, AZ US",
      "datacoverage": 1,
      "id": "COOP:028678",
      "elevationUnit": "METERS",
      "longitude": -114.48333
    },
    {
      "elevation": 153,
      "mindate": "1948-05-01",
      "maxdate": "1960-08-01",
      "latitude": 34.7,
      "name": "TOPOCK 2 SSE, AZ US",
      "datacoverage": 0.9997,
      "id": "COOP:028686",
      "elevationUnit": "METERS",
      "longitude": -114.45
    },
    {
      "elevation": 869,
      "mindate": "1948-03-01",
      "maxdate": "1969-12-01",
      "latitude": 34.88333,
      "name": "TROUT CREEK STORE, AZ US",
      "datacoverage": 0.6758,
      "id": "COOP:028762",
      "elevationUnit": "METERS",
      "longitude": -113.65
    },
    {
      "elevation": 1164.3,
      "mindate": "1931-01-01",
      "maxdate": "2008-01-01",
      "latitude": 35.38806,
      "name": "TRUXTON CANYON, AZ US",
      "datacoverage": 0.9529,
      "id": "COOP:028778",
      "elevationUnit": "METERS",
      "longitude": -113.65944
    },
    {
      "elevation": 1520.3,
      "mindate": "1905-01-01",
      "maxdate": "2012-12-01",
      "latitude": 36.1305,
      "name": "TUBA CITY, AZ US",
      "datacoverage": 0.8356,
      "id": "COOP:028792",
      "elevationUnit": "METERS",
      "longitude": -111.2436
    },
    {
      "elevation": 780.6,
      "mindate": "1982-05-01",
      "maxdate": "2015-11-01",
      "latitude": 32.2541,
      "name": "TUCSON 17 NW, AZ US",
      "datacoverage": 0.9727,
      "id": "COOP:028795",
      "elevationUnit": "METERS",
      "longitude": -111.1961
    },
    {
      "elevation": 710.2,
      "mindate": "1949-02-01",
      "maxdate": "2012-12-01",
      "latitude": 32.2816,
      "name": "TUCSON CP AVE EXPERIMENTAL FM, AZ US",
      "datacoverage": 0.9896,
      "id": "COOP:028796",
      "elevationUnit": "METERS",
      "longitude": -110.9441
    },
    {
      "elevation": 769.9,
      "mindate": "1934-10-01",
      "maxdate": "1994-03-01",
      "latitude": 32.25,
      "name": "TUCSON MAGNETIC OBSERVATORY, AZ US",
      "datacoverage": 1,
      "id": "COOP:028800",
      "elevationUnit": "METERS",
      "longitude": -110.83333
    },
    {
      "elevation": 860.1,
      "mindate": "1943-10-01",
      "maxdate": "1954-12-01",
      "latitude": 32.25,
      "name": "ARIZONA SONORA DST M, AZ US",
      "datacoverage": 0.8294,
      "id": "COOP:028805",
      "elevationUnit": "METERS",
      "longitude": -111.16667
    },
    {
      "elevation": 816.9,
      "mindate": "1948-11-01",
      "maxdate": "1948-12-01",
      "latitude": 32.21667,
      "name": "TUCSON MOUNTAIN PARK, AZ US",
      "datacoverage": 0.499,
      "id": "COOP:028806",
      "elevationUnit": "METERS",
      "longitude": -111.13333
    },
    {
      "elevation": 686.1,
      "mindate": "1948-01-01",
      "maxdate": "1965-03-01",
      "latitude": 32.3,
      "name": "TUCSON NURSERY 4 NW, AZ US",
      "datacoverage": 1,
      "id": "COOP:028810",
      "elevationUnit": "METERS",
      "longitude": -111.05
    },
    {
      "elevation": 742.2,
      "mindate": "1931-01-01",
      "maxdate": "2008-01-01",
      "latitude": 32.22917,
      "name": "TUCSON WEATHER FORECAST OFFICE, AZ US",
      "datacoverage": 0.9935,
      "id": "COOP:028815",
      "elevationUnit": "METERS",
      "longitude": -110.95361
    },
    {
      "elevation": 705.6,
      "mindate": "1982-05-01",
      "maxdate": "2012-12-01",
      "latitude": 32.258,
      "name": "TUCSON U OF A NUMBER 1, AZ US",
      "datacoverage": 0.9754,
      "id": "COOP:028817",
      "elevationUnit": "METERS",
      "longitude": -111.0052
    },
    {
      "elevation": 777.6,
      "mindate": "1948-01-01",
      "maxdate": "2015-11-01",
      "latitude": 32.13153,
      "name": "TUCSON INTERNATIONAL AIRPORT, AZ US",
      "datacoverage": 1,
      "id": "COOP:028820",
      "elevationUnit": "METERS",
      "longitude": -110.95638
    },
    {
      "elevation": 995.8,
      "mindate": "1946-05-01",
      "maxdate": "2015-11-01",
      "latitude": 31.5677,
      "name": "TUMACACORI NM, AZ US",
      "datacoverage": 0.9928,
      "id": "COOP:028865",
      "elevationUnit": "METERS",
      "longitude": -111.0497
    },
    {
      "elevation": 2058.9,
      "mindate": "1955-06-01",
      "maxdate": "1966-03-28",
      "latitude": 33.75,
      "name": "TURKEY CREEK 1, AZ US",
      "datacoverage": 0.0448,
      "id": "COOP:028875",
      "elevationUnit": "METERS",
      "longitude": -109.8
    },
    {
      "elevation": 1455.4,
      "mindate": "1941-07-01",
      "maxdate": "2008-01-01",
      "latitude": 36.2861,
      "name": "TUWEEP, AZ US",
      "datacoverage": 0.9606,
      "id": "COOP:028895",
      "elevationUnit": "METERS",
      "longitude": -113.0636
    },
    {
      "elevation": 1057.7,
      "mindate": "1977-07-01",
      "maxdate": "2015-11-01",
      "latitude": 34.7705,
      "name": "TUZIGOOT, AZ US",
      "datacoverage": 0.9956,
      "id": "COOP:028904",
      "elevationUnit": "METERS",
      "longitude": -112.0263
    },
    {
      "elevation": 1521.9,
      "mindate": "1948-01-01",
      "maxdate": "1972-04-01",
      "latitude": 33.78333,
      "name": "PARKER CREEK MNTC YD, AZ US",
      "datacoverage": 0.9338,
      "id": "COOP:028940",
      "elevationUnit": "METERS",
      "longitude": -110.96667
    },
    {
      "elevation": 984.5,
      "mindate": "1977-09-01",
      "maxdate": "2010-06-01",
      "latitude": 32.0455,
      "name": "VAIL, AZ US",
      "datacoverage": 0.0105,
      "id": "COOP:028995",
      "elevationUnit": "METERS",
      "longitude": -110.7141
    },
    {
      "elevation": 908.3,
      "mindate": "1992-02-01",
      "maxdate": "2015-11-01",
      "latitude": 32.1263,
      "name": "VAIL 7 N, AZ US",
      "datacoverage": 0.8952,
      "id": "COOP:028998",
      "elevationUnit": "METERS",
      "longitude": -110.7247
    },
    {
      "elevation": 1795.9,
      "mindate": "1957-05-01",
      "maxdate": "1962-10-01",
      "latitude": 35.65,
      "name": "VALLE, AZ US",
      "datacoverage": 0.1666,
      "id": "COOP:029005",
      "elevationUnit": "METERS",
      "longitude": -112.2
    },
    {
      "elevation": 1830,
      "mindate": "1947-09-01",
      "maxdate": "1959-10-01",
      "latitude": 35.66667,
      "name": "VALLE AIRPORT, AZ US",
      "datacoverage": 0.7192,
      "id": "COOP:029007",
      "elevationUnit": "METERS",
      "longitude": -112.15
    },
    {
      "elevation": 360,
      "mindate": "1943-08-01",
      "maxdate": "1952-12-01",
      "latitude": 33.38333,
      "name": "TEMPE U. OF A. CITRUS EXP. STATION, AZ US",
      "datacoverage": 0.9995,
      "id": "COOP:029015",
      "elevationUnit": "METERS",
      "longitude": -111.96667
    },
    {
      "elevation": 335,
      "mindate": "1960-10-01",
      "maxdate": "1961-12-01",
      "latitude": 33.56667,
      "name": "WADDELL 3 SSE, AZ US",
      "datacoverage": 0.999,
      "id": "COOP:029095",
      "elevationUnit": "METERS",
      "longitude": -112.4
    },
    {
      "elevation": 580,
      "mindate": "1963-03-01",
      "maxdate": "1966-05-01",
      "latitude": 32.21667,
      "name": "WAHAK HOTRONTK, AZ US",
      "datacoverage": 0.9736,
      "id": "COOP:029109",
      "elevationUnit": "METERS",
      "longitude": -112.36667
    },
    {
      "elevation": 1136.9,
      "mindate": "1961-05-01",
      "maxdate": "2012-12-01",
      "latitude": 36.9953,
      "name": "WAHWEAP, AZ US",
      "datacoverage": 0.9757,
      "id": "COOP:029114",
      "elevationUnit": "METERS",
      "longitude": -111.4914
    },
    {
      "elevation": 2137.9,
      "mindate": "1931-01-01",
      "maxdate": "1959-04-01",
      "latitude": 34.53333,
      "name": "WALLACE R S, AZ US",
      "datacoverage": 0.8266,
      "id": "COOP:029150",
      "elevationUnit": "METERS",
      "longitude": -110.91667
    },
    {
      "elevation": 2040.6,
      "mindate": "1950-12-01",
      "maxdate": "2015-11-01",
      "latitude": 35.1721,
      "name": "WALNUT CANYON NATIONAL MONUMENT, AZ US",
      "datacoverage": 0.9949,
      "id": "COOP:029156",
      "elevationUnit": "METERS",
      "longitude": -111.5097
    },
    {
      "elevation": 1551.4,
      "mindate": "1931-01-01",
      "maxdate": "2015-11-01",
      "latitude": 34.9281,
      "name": "WALNUT CREEK, AZ US",
      "datacoverage": 0.9922,
      "id": "COOP:029158",
      "elevationUnit": "METERS",
      "longitude": -112.8097
    },
    {
      "elevation": 1147.3,
      "mindate": "1931-01-01",
      "maxdate": "2015-11-01",
      "latitude": 34.2974,
      "name": "WALNUT GROVE, AZ US",
      "datacoverage": 0.9932,
      "id": "COOP:029166",
      "elevationUnit": "METERS",
      "longitude": -112.5587
    },
    {
      "elevation": 78.9,
      "mindate": "1931-01-01",
      "maxdate": "1980-12-01",
      "latitude": 32.66667,
      "name": "WELLTON, AZ US",
      "datacoverage": 0.955,
      "id": "COOP:029211",
      "elevationUnit": "METERS",
      "longitude": -114.13333
    },
    {
      "elevation": 73.2,
      "mindate": "1950-03-01",
      "maxdate": "1951-10-01",
      "latitude": 32.71667,
      "name": "WELLTON 6 NE, AZ US",
      "datacoverage": 0.998,
      "id": "COOP:029215",
      "elevationUnit": "METERS",
      "longitude": -114.05
    },
    {
      "elevation": 566.9,
      "mindate": "1973-02-01",
      "maxdate": "1973-12-01",
      "latitude": 33.81667,
      "name": "WENDEN, AZ US",
      "datacoverage": 1,
      "id": "COOP:029223",
      "elevationUnit": "METERS",
      "longitude": -113.53333
    },
    {
      "elevation": 741,
      "mindate": "1962-04-01",
      "maxdate": "1966-11-01",
      "latitude": 35.7,
      "name": "WHITE HILLS 5 WSW, AZ US",
      "datacoverage": 0.7141,
      "id": "COOP:029269",
      "elevationUnit": "METERS",
      "longitude": -114.48333
    },
    {
      "elevation": 1575.8,
      "mindate": "1931-01-01",
      "maxdate": "2012-01-01",
      "latitude": 33.8215,
      "name": "WHITERIVER 1 SW, AZ US",
      "datacoverage": 0.8786,
      "id": "COOP:029271",
      "elevationUnit": "METERS",
      "longitude": -109.984
    },
    {
      "elevation": 1003.1,
      "mindate": "1939-01-01",
      "maxdate": "1967-03-01",
      "latitude": 32.81667,
      "name": "WHITLOCK VALLEY R2, AZ US",
      "datacoverage": 0.8809,
      "id": "COOP:029279",
      "elevationUnit": "METERS",
      "longitude": -109.51667
    },
    {
      "elevation": 638.6,
      "mindate": "1931-01-01",
      "maxdate": "2008-03-01",
      "latitude": 33.9792,
      "name": "WICKENBURG, AZ US",
      "datacoverage": 0.9795,
      "id": "COOP:029287",
      "elevationUnit": "METERS",
      "longitude": -112.7403
    },
    {
      "elevation": 612.6,
      "mindate": "1931-01-01",
      "maxdate": "2015-11-01",
      "latitude": 34.7055,
      "name": "WIKIEUP, AZ US",
      "datacoverage": 0.8911,
      "id": "COOP:029309",
      "elevationUnit": "METERS",
      "longitude": -113.6124
    },
    {
      "elevation": 1271,
      "mindate": "1939-11-01",
      "maxdate": "2015-11-01",
      "latitude": 32.2553,
      "name": "WILLCOX, AZ US",
      "datacoverage": 0.9847,
      "id": "COOP:029334",
      "elevationUnit": "METERS",
      "longitude": -109.8369
    },
    {
      "elevation": 1281.1,
      "mindate": "1931-01-01",
      "maxdate": "1939-04-01",
      "latitude": 32.31667,
      "name": "WILLCOX 8 NW, AZ US",
      "datacoverage": 0.9906,
      "id": "COOP:029337",
      "elevationUnit": "METERS",
      "longitude": -109.95
    },
    {
      "elevation": 2105.9,
      "mindate": "1907-04-01",
      "maxdate": "2015-11-01",
      "latitude": 35.2413,
      "name": "WILLIAMS, AZ US",
      "datacoverage": 0.9885,
      "id": "COOP:029359",
      "elevationUnit": "METERS",
      "longitude": -112.1929
    },
    {
      "elevation": 1754.1,
      "mindate": "1965-06-01",
      "maxdate": "1968-03-01",
      "latitude": 35.53333,
      "name": "WILLIAMS 24 NNW, AZ US",
      "datacoverage": 0.9999,
      "id": "COOP:029362",
      "elevationUnit": "METERS",
      "longitude": -112.4
    },
    {
      "elevation": 2122.9,
      "mindate": "1961-11-01",
      "maxdate": "1975-07-01",
      "latitude": 34.05,
      "name": "WILLIAMS CK HATCHERY, AZ US",
      "datacoverage": 0.9938,
      "id": "COOP:029367",
      "elevationUnit": "METERS",
      "longitude": -109.81667
    },
    {
      "elevation": 225.6,
      "mindate": "1967-10-01",
      "maxdate": "2007-09-01",
      "latitude": 35.8686,
      "name": "WILLOW BEACH, AZ US",
      "datacoverage": 0.9813,
      "id": "COOP:029376",
      "elevationUnit": "METERS",
      "longitude": -114.6611
    },
    {
      "elevation": 1125,
      "mindate": "1943-03-01",
      "maxdate": "1979-03-01",
      "latitude": 32.71667,
      "name": "WILLOW SPRINGS RANCH, AZ US",
      "datacoverage": 0.8544,
      "id": "COOP:029382",
      "elevationUnit": "METERS",
      "longitude": -110.86667
    },
    {
      "elevation": 2109.2,
      "mindate": "1949-01-01",
      "maxdate": "1999-09-01",
      "latitude": 35.61694,
      "name": "WINDOW ROCK 4 SW, AZ US",
      "datacoverage": 0.9886,
      "id": "COOP:029410",
      "elevationUnit": "METERS",
      "longitude": -109.12444
    },
    {
      "elevation": 634,
      "mindate": "1951-05-01",
      "maxdate": "1980-05-01",
      "latitude": 32.91667,
      "name": "WINKELMAN 6 S, AZ US",
      "datacoverage": 0.9712,
      "id": "COOP:029420",
      "elevationUnit": "METERS",
      "longitude": -110.71667
    },
    {
      "elevation": 789.4,
      "mindate": "1985-03-01",
      "maxdate": "1995-02-01",
      "latitude": 32.86667,
      "name": "WINKLEMAN 12 SE, AZ US",
      "datacoverage": 1,
      "id": "COOP:029425",
      "elevationUnit": "METERS",
      "longitude": -110.6
    },
    {
      "elevation": 1484.1,
      "mindate": "2004-05-01",
      "maxdate": "2007-10-01",
      "latitude": 35.0216,
      "name": "WINSLOW, AZ US",
      "datacoverage": 0.9519,
      "id": "COOP:029437",
      "elevationUnit": "METERS",
      "longitude": -110.696
    },
    {
      "elevation": 1489.2,
      "mindate": "1948-01-01",
      "maxdate": "2015-11-01",
      "latitude": 35.02795,
      "name": "WINSLOW AIRPORT, AZ US",
      "datacoverage": 1,
      "id": "COOP:029439",
      "elevationUnit": "METERS",
      "longitude": -110.72206
    },
    {
      "elevation": 513,
      "mindate": "1931-01-01",
      "maxdate": "2015-11-01",
      "latitude": 33.7776,
      "name": "WITTMANN 1 SE, AZ US",
      "datacoverage": 0.5407,
      "id": "COOP:029464",
      "elevationUnit": "METERS",
      "longitude": -112.523
    },
    {
      "elevation": 2126,
      "mindate": "1948-01-01",
      "maxdate": "1986-03-01",
      "latitude": 33.81667,
      "name": "WORKMAN CREEK 1, AZ US",
      "datacoverage": 0.956,
      "id": "COOP:029534",
      "elevationUnit": "METERS",
      "longitude": -110.91667
    },
    {
      "elevation": 2126,
      "mindate": "1950-08-10",
      "maxdate": "1950-08-10",
      "latitude": 33.81667,
      "name": "WORKMAN CREEK 2, AZ US",
      "datacoverage": 0.2381,
      "id": "COOP:029535",
      "elevationUnit": "METERS",
      "longitude": -110.91667
    },
    {
      "elevation": 1496,
      "mindate": "1939-09-01",
      "maxdate": "2015-11-01",
      "latitude": 35.51974,
      "name": "WUPATKI NM, AZ US",
      "datacoverage": 0.9716,
      "id": "COOP:029542",
      "elevationUnit": "METERS",
      "longitude": -111.37181
    },
    {
      "elevation": 1399,
      "mindate": "1939-01-01",
      "maxdate": "2012-12-01",
      "latitude": 31.4516,
      "name": "Y LIGHTNING RANCH, AZ US",
      "datacoverage": 0.9718,
      "id": "COOP:029562",
      "elevationUnit": "METERS",
      "longitude": -110.2266
    },
    {
      "elevation": 1830,
      "mindate": "1931-01-01",
      "maxdate": "1948-08-01",
      "latitude": 34.68333,
      "name": "YAEGER CANYON, AZ US",
      "datacoverage": 0.9764,
      "id": "COOP:029572",
      "elevationUnit": "METERS",
      "longitude": -112.16667
    },
    {
      "elevation": 1153.1,
      "mindate": "1946-12-01",
      "maxdate": "1975-04-01",
      "latitude": 34.45,
      "name": "YAVA 6 ESE, AZ US",
      "datacoverage": 1,
      "id": "COOP:029601",
      "elevationUnit": "METERS",
      "longitude": -112.8
    },
    {
      "elevation": 1579.8,
      "mindate": "1931-01-01",
      "maxdate": "1964-08-01",
      "latitude": 34.1003,
      "name": "PLEASANT VALLEY, AZ US",
      "datacoverage": 0.9653,
      "id": "COOP:029622",
      "elevationUnit": "METERS",
      "longitude": -110.9659
    },
    {
      "elevation": 1989.1,
      "mindate": "1952-04-01",
      "maxdate": "1956-12-01",
      "latitude": 34.26667,
      "name": "YOUNG 12 N, AZ US",
      "datacoverage": 0.9994,
      "id": "COOP:029626",
      "elevationUnit": "METERS",
      "longitude": -110.9
    },
    {
      "elevation": 345.9,
      "mindate": "1964-03-01",
      "maxdate": "2015-11-01",
      "latitude": 33.59434,
      "name": "YOUNGTOWN, AZ US",
      "datacoverage": 0.9984,
      "id": "COOP:029634",
      "elevationUnit": "METERS",
      "longitude": -112.30067
    },
    {
      "elevation": 594.4,
      "mindate": "1953-06-01",
      "maxdate": "2010-12-01",
      "latitude": 34.8775,
      "name": "YUCCA 1 NNE, AZ US",
      "datacoverage": 0.9696,
      "id": "COOP:029645",
      "elevationUnit": "METERS",
      "longitude": -114.1344
    },
    {
      "elevation": 58.2,
      "mindate": "1931-01-01",
      "maxdate": "2006-03-01",
      "latitude": 32.6114,
      "name": "YUMA CITRUS STATION, AZ US",
      "datacoverage": 0.9735,
      "id": "COOP:029652",
      "elevationUnit": "METERS",
      "longitude": -114.635
    },
    {
      "elevation": 98.8,
      "mindate": "1958-01-01",
      "maxdate": "2015-11-01",
      "latitude": 32.8356,
      "name": "YUMA PROVING GROUND, AZ US",
      "datacoverage": 0.9799,
      "id": "COOP:029654",
      "elevationUnit": "METERS",
      "longitude": -114.3942
    },
    {
      "elevation": 48.8,
      "mindate": "1993-01-01",
      "maxdate": "2015-11-01",
      "latitude": 32.72793,
      "name": "YUMA QUARTERMASTER DEPOT, AZ US",
      "datacoverage": 0.9347,
      "id": "COOP:029656",
      "elevationUnit": "METERS",
      "longitude": -114.62217
    },
    {
      "elevation": 36.6,
      "mindate": "1931-01-01",
      "maxdate": "1992-12-01",
      "latitude": 32.71667,
      "name": "YUMA VALLEY, AZ US",
      "datacoverage": 0.9368,
      "id": "COOP:029657",
      "elevationUnit": "METERS",
      "longitude": -114.71667
    },
    {
      "elevation": 121.9,
      "mindate": "2001-03-01",
      "maxdate": "2004-02-01",
      "latitude": 32.63806,
      "name": "YUMA FOOTHILLS, AZ US",
      "datacoverage": 0.8609,
      "id": "COOP:029659",
      "elevationUnit": "METERS",
      "longitude": -114.40944
    },
    {
      "elevation": 62.8,
      "mindate": "1948-09-01",
      "maxdate": "1996-08-01",
      "latitude": 32.66667,
      "name": "YUMA INTERNATIONAL AIRPORT, AZ US",
      "datacoverage": 0.9964,
      "id": "COOP:029660",
      "elevationUnit": "METERS",
      "longitude": -114.6
    },
    {
      "elevation": 73.2,
      "mindate": "1948-01-01",
      "maxdate": "1974-04-01",
      "latitude": 32.73333,
      "name": "YUMA WEATHER BUREAU CITY, CA US",
      "datacoverage": 0.9906,
      "id": "COOP:029662",
      "elevationUnit": "METERS",
      "longitude": -114.61667
    },
    {
      "elevation": 207.3,
      "mindate": "1941-07-01",
      "maxdate": "2015-11-01",
      "latitude": 35.0237,
      "name": "ABBOTT, AR US",
      "datacoverage": 0.9451,
      "id": "COOP:030006",
      "elevationUnit": "METERS",
      "longitude": -94.1594
    },
    {
      "elevation": 78.6,
      "mindate": "1948-05-01",
      "maxdate": "2015-11-01",
      "latitude": 35.93068,
      "name": "ALICIA 2 NNE, AR US",
      "datacoverage": 0.8914,
      "id": "COOP:030064",
      "elevationUnit": "METERS",
      "longitude": -91.05428
    },
    {
      "elevation": 121.9,
      "mindate": "1944-04-01",
      "maxdate": "1949-12-01",
      "latitude": 34.23333,
      "name": "ALPINE, AR US",
      "datacoverage": 0.7388,
      "id": "COOP:030118",
      "elevationUnit": "METERS",
      "longitude": -93.28333
    },
    {
      "elevation": 212.8,
      "mindate": "1937-02-01",
      "maxdate": "2015-11-01",
      "latitude": 34.7961,
      "name": "ALUM FORK, AR US",
      "datacoverage": 0.9948,
      "id": "COOP:030130",
      "elevationUnit": "METERS",
      "longitude": -92.8417
    },
    {
      "elevation": 274,
      "mindate": "1948-01-01",
      "maxdate": "1984-03-01",
      "latitude": 34.8,
      "name": "ALY, AR US",
      "datacoverage": 0.9928,
      "id": "COOP:030136",
      "elevationUnit": "METERS",
      "longitude": -93.46667
    },
    {
      "elevation": 158.5,
      "mindate": "1931-01-01",
      "maxdate": "2015-11-01",
      "latitude": 34.26861,
      "name": "AMITY, AR US",
      "datacoverage": 0.843,
      "id": "COOP:030150",
      "elevationUnit": "METERS",
      "longitude": -93.46972
    },
    {
      "elevation": 91.4,
      "mindate": "1940-04-01",
      "maxdate": "2015-11-01",
      "latitude": 34.0275,
      "name": "ANTOINE 1 SW, AR US",
      "datacoverage": 0.9053,
      "id": "COOP:030178",
      "elevationUnit": "METERS",
      "longitude": -93.4332
    },
    {
      "elevation": 121.9,
      "mindate": "1944-01-01",
      "maxdate": "1975-04-01",
      "latitude": 34.96667,
      "name": "APLIN 1, AR US",
      "datacoverage": 1,
      "id": "COOP:030188",
      "elevationUnit": "METERS",
      "longitude": -93
    },
    {
      "elevation": 159.1,
      "mindate": "1948-01-01",
      "maxdate": "1966-10-01",
      "latitude": 35.41667,
      "name": "APPLETON, AR US",
      "datacoverage": 0.3319,
      "id": "COOP:030196",
      "elevationUnit": "METERS",
      "longitude": -92.88333
    },
    {
      "elevation": 59.7,
      "mindate": "1931-01-01",
      "maxdate": "2015-11-01",
      "latitude": 34.1433,
      "name": "ARKADELPHIA 2 N, AR US",
      "datacoverage": 0.9725,
      "id": "COOP:030220",
      "elevationUnit": "METERS",
      "longitude": -93.0589
    },
    {
      "elevation": 51.8,
      "mindate": "1931-01-01",
      "maxdate": "2015-11-01",
      "latitude": 33.63778,
      "name": "ARKANSAS CITY, AR US",
      "datacoverage": 0.9657,
      "id": "COOP:030234",
      "elevationUnit": "METERS",
      "longitude": -91.21194
    },
    {
      "elevation": 59.1,
      "mindate": "1963-09-01",
      "maxdate": "2015-11-01",
      "latitude": 34.025,
      "name": "ARKANSAS POST, AR US",
      "datacoverage": 0.9968,
      "id": "COOP:030240",
      "elevationUnit": "METERS",
      "longitude": -91.3444
    },
    {
      "elevation": 97.5,
      "mindate": "1945-03-01",
      "maxdate": "2015-11-01",
      "latitude": 33.6195,
      "name": "ASHDOWN 4 SSE, AR US",
      "datacoverage": 0.914,
      "id": "COOP:030286",
      "elevationUnit": "METERS",
      "longitude": -94.0994
    },
    {
      "elevation": 292.6,
      "mindate": "1948-07-01",
      "maxdate": "2013-12-01",
      "latitude": 34.32528,
      "name": "ATHENS, AR US",
      "datacoverage": 0.9465,
      "id": "COOP:030300",
      "elevationUnit": "METERS",
      "longitude": -93.98111
    },
    {
      "elevation": 100.9,
      "mindate": "1948-05-03",
      "maxdate": "1950-09-01",
      "latitude": 33.11667,
      "name": "ATLANTA, AR US",
      "datacoverage": 0.7913,
      "id": "COOP:030310",
      "elevationUnit": "METERS",
      "longitude": -93.03333
    },
    {
      "elevation": 59.4,
      "mindate": "1943-12-01",
      "maxdate": "2015-11-01",
      "latitude": 35.2894,
      "name": "AUGUSTA, AR US",
      "datacoverage": 0.9769,
      "id": "COOP:030326",
      "elevationUnit": "METERS",
      "longitude": -91.3533
    },
    {
      "elevation": 70.1,
      "mindate": "1950-01-01",
      "maxdate": "1967-03-01",
      "latitude": 35.3,
      "name": "BALD KNOB, AR US",
      "datacoverage": 0.9906,
      "id": "COOP:030350",
      "elevationUnit": "METERS",
      "longitude": -91.56667
    },
    {
      "elevation": 177.1,
      "mindate": "1967-01-01",
      "maxdate": "1975-03-01",
      "latitude": 35.38333,
      "name": "BALD KNOB 5 N, AR US",
      "datacoverage": 1,
      "id": "COOP:030355",
      "elevationUnit": "METERS",
      "longitude": -91.56667
    },
    {
      "elevation": 110,
      "mindate": "1937-03-01",
      "maxdate": "1951-01-31",
      "latitude": 35.76667,
      "name": "BATESVILLE AIRWAY, AR US",
      "datacoverage": 0.9996,
      "id": "COOP:030456",
      "elevationUnit": "METERS",
      "longitude": -91.65
    }
  ]
}
