{
  "metadata": {
    "resultset": {
      "offset": 89600,
      "count": 154115,
      "limit": 100
    }
  },
  "results": [
    {
      "elevation": 211.8,
      "mindate": "2024-04-10",
      "maxdate": "2024-08-07",
      "latitude": 41.0129593,
      "name": "TOLUCA 0.5 N, IL US",
      "datacoverage": 0.9925,
      "id": "GHCND:US1ILMH0007",
      "elevationUnit": "METERS",
      "longitude": -89.1328747
    },
    {
      "elevation": 162.2,
      "mindate": "2010-02-01",
      "maxdate": "2011-11-29",
      "latitude": 38.50046,
      "name": "CENTRALIA 5.8 ESE, IL US",
      "datacoverage": 0.998,
      "id": "GHCND:US1ILMN0002",
      "elevationUnit": "METERS",
      "longitude": -89.02358
    },
    {
      "elevation": 157.9,
      "mindate": "2014-03-01",
      "maxdate": "2019-10-26",
      "latitude": 38.609946,
      "name": "ODIN 0.5 SSE, IL US",
      "datacoverage": 0.9986,
      "id": "GHCND:US1ILMN0005",
      "elevationUnit": "METERS",
      "longitude": -89.051579
    },
    {
      "elevation": 159.7,
      "mindate": "2019-06-20",
      "maxdate": "2025-01-25",
      "latitude": 38.5178,
      "name": "CENTRALIA 5.2 E, IL US",
      "datacoverage": 0.9989,
      "id": "GHCND:US1ILMN0006",
      "elevationUnit": "METERS",
      "longitude": -89.03187
    },
    {
      "elevation": 156.4,
      "mindate": "2009-10-01",
      "maxdate": "2011-12-01",
      "latitude": 38.420517,
      "name": "COLUMBIA 2.9 SE, IL US",
      "datacoverage": 1,
      "id": "GHCND:US1ILMO0002",
      "elevationUnit": "METERS",
      "longitude": -90.194567
    },
    {
      "elevation": 197.5,
      "mindate": "2012-12-01",
      "maxdate": "2025-03-07",
      "latitude": 38.186825,
      "name": "FULTS 3.7 ENE, IL US",
      "datacoverage": 1,
      "id": "GHCND:US1ILMO0004",
      "elevationUnit": "METERS",
      "longitude": -90.150752
    },
    {
      "elevation": 154.2,
      "mindate": "2018-07-13",
      "maxdate": "2021-05-28",
      "latitude": 38.4495,
      "name": "COLUMBIA 0.4 S, IL US",
      "datacoverage": 0.1503,
      "id": "GHCND:US1ILMO0006",
      "elevationUnit": "METERS",
      "longitude": -90.2257
    },
    {
      "elevation": 174.3,
      "mindate": "2018-11-12",
      "maxdate": "2025-03-07",
      "latitude": 38.3872,
      "name": "COLUMBIA 4.7 S, IL US",
      "datacoverage": 0.8102,
      "id": "GHCND:US1ILMO0007",
      "elevationUnit": "METERS",
      "longitude": -90.2149
    },
    {
      "elevation": 180.7,
      "mindate": "2024-01-01",
      "maxdate": "2025-03-05",
      "latitude": 38.340378,
      "name": "WATERLOO 2.9 ENE, IL US",
      "datacoverage": 1,
      "id": "GHCND:US1ILMO0010",
      "elevationUnit": "METERS",
      "longitude": -90.102778
    },
    {
      "elevation": 200.9,
      "mindate": "2008-02-01",
      "maxdate": "2024-12-31",
      "latitude": 39.44688,
      "name": "GIRARD 1.2 W, IL US",
      "datacoverage": 1,
      "id": "GHCND:US1ILMP0004",
      "elevationUnit": "METERS",
      "longitude": -89.805333
    },
    {
      "elevation": 199,
      "mindate": "2008-04-01",
      "maxdate": "2017-07-23",
      "latitude": 39.449461,
      "name": "GIRARD 8.8 W, IL US",
      "datacoverage": 0.9375,
      "id": "GHCND:US1ILMP0005",
      "elevationUnit": "METERS",
      "longitude": -89.899192
    },
    {
      "elevation": 182.9,
      "mindate": "2008-04-01",
      "maxdate": "2010-10-20",
      "latitude": 39.001237,
      "name": "STAUNTON 1.5 WSW, IL US",
      "datacoverage": 0.9995,
      "id": "GHCND:US1ILMP0006",
      "elevationUnit": "METERS",
      "longitude": -89.812516
    },
    {
      "elevation": 187.1,
      "mindate": "2008-04-01",
      "maxdate": "2025-03-06",
      "latitude": 39.244467,
      "name": "CARLINVILLE 3.4 SW, IL US",
      "datacoverage": 1,
      "id": "GHCND:US1ILMP0007",
      "elevationUnit": "METERS",
      "longitude": -89.923627
    },
    {
      "elevation": 190.2,
      "mindate": "2009-09-01",
      "maxdate": "2018-09-10",
      "latitude": 39.287311,
      "name": "CARLINVILLE 0.5 NNE, IL US",
      "datacoverage": 0.998,
      "id": "GHCND:US1ILMP0009",
      "elevationUnit": "METERS",
      "longitude": -89.876273
    },
    {
      "elevation": 207,
      "mindate": "2010-03-01",
      "maxdate": "2024-12-31",
      "latitude": 39.066387,
      "name": "MOUNT OLIVE 0.4 S, IL US",
      "datacoverage": 0.9997,
      "id": "GHCND:US1ILMP0010",
      "elevationUnit": "METERS",
      "longitude": -89.72805
    },
    {
      "elevation": 177.4,
      "mindate": "2010-03-01",
      "maxdate": "2011-02-28",
      "latitude": 39.205878,
      "name": "MEDORA 2.9 NE, IL US",
      "datacoverage": 0.998,
      "id": "GHCND:US1ILMP0011",
      "elevationUnit": "METERS",
      "longitude": -90.103435
    },
    {
      "elevation": 189,
      "mindate": "2010-06-01",
      "maxdate": "2018-07-30",
      "latitude": 39.280038,
      "name": "CARLINVILLE 1.1 E, IL US",
      "datacoverage": 0.9998,
      "id": "GHCND:US1ILMP0012",
      "elevationUnit": "METERS",
      "longitude": -89.860797
    },
    {
      "elevation": 176.5,
      "mindate": "2012-03-01",
      "maxdate": "2012-09-16",
      "latitude": 39.346599,
      "name": "HETTICK 3.7 W, IL US",
      "datacoverage": 0.9956,
      "id": "GHCND:US1ILMP0015",
      "elevationUnit": "METERS",
      "longitude": -90.105779
    },
    {
      "elevation": 204.2,
      "mindate": "2013-09-01",
      "maxdate": "2020-03-29",
      "latitude": 39.445904,
      "name": "GIRARD 0.1 WSW, IL US",
      "datacoverage": 1,
      "id": "GHCND:US1ILMP0018",
      "elevationUnit": "METERS",
      "longitude": -89.784582
    },
    {
      "elevation": 200.3,
      "mindate": "2014-09-01",
      "maxdate": "2017-06-18",
      "latitude": 39.094772,
      "name": "SHIPMAN 3.9 ESE, IL US",
      "datacoverage": 0.8426,
      "id": "GHCND:US1ILMP0019",
      "elevationUnit": "METERS",
      "longitude": -89.981505
    },
    {
      "elevation": 194.5,
      "mindate": "2023-08-08",
      "maxdate": "2025-03-02",
      "latitude": 39.10775,
      "name": "EAGARVILLE 0.2 S, IL US",
      "datacoverage": 0.8918,
      "id": "GHCND:US1ILMP0022",
      "elevationUnit": "METERS",
      "longitude": -89.78413
    },
    {
      "elevation": 220.1,
      "mindate": "2007-07-01",
      "maxdate": "2010-06-08",
      "latitude": 41.207131,
      "name": "ALEDO 0.8 NW, IL US",
      "datacoverage": 0.9998,
      "id": "GHCND:US1ILMR0002",
      "elevationUnit": "METERS",
      "longitude": -90.75861
    },
    {
      "elevation": 232,
      "mindate": "2007-09-01",
      "maxdate": "2014-10-14",
      "latitude": 41.3261,
      "name": "REYNOLDS 4.3 E, IL US",
      "datacoverage": 0.8982,
      "id": "GHCND:US1ILMR0003",
      "elevationUnit": "METERS",
      "longitude": -90.5903
    },
    {
      "elevation": 224.6,
      "mindate": "2010-03-01",
      "maxdate": "2015-09-03",
      "latitude": 41.201729,
      "name": "ALEDO 0.4 NE, IL US",
      "datacoverage": 0.9997,
      "id": "GHCND:US1ILMR0004",
      "elevationUnit": "METERS",
      "longitude": -90.741682
    },
    {
      "elevation": 228.3,
      "mindate": "2001-06-01",
      "maxdate": "2015-05-30",
      "latitude": 41.259363,
      "name": "MATHERVILLE 0.2 E, IL US",
      "datacoverage": 0.328,
      "id": "GHCND:US1ILMR0005",
      "elevationUnit": "METERS",
      "longitude": -90.60257
    },
    {
      "elevation": 224.9,
      "mindate": "2014-08-01",
      "maxdate": "2021-06-27",
      "latitude": 41.20218,
      "name": "ALEDO 0.4 NE, IL US",
      "datacoverage": 0.6497,
      "id": "GHCND:US1ILMR0006",
      "elevationUnit": "METERS",
      "longitude": -90.742028
    },
    {
      "elevation": 222.8,
      "mindate": "2015-09-23",
      "maxdate": "2023-03-20",
      "latitude": 41.20751,
      "name": "ALEDO 0.7 NNW, IL US",
      "datacoverage": 0.596,
      "id": "GHCND:US1ILMR0007",
      "elevationUnit": "METERS",
      "longitude": -90.752141
    },
    {
      "elevation": 241.1,
      "mindate": "2023-09-14",
      "maxdate": "2024-12-10",
      "latitude": 41.20411,
      "name": "VIOLA 0.4 E, IL US",
      "datacoverage": 0.8982,
      "id": "GHCND:US1ILMR0010",
      "elevationUnit": "METERS",
      "longitude": -90.57997
    },
    {
      "elevation": 209.7,
      "mindate": "2024-03-31",
      "maxdate": "2025-03-06",
      "latitude": 41.2997975,
      "name": "NEW BOSTON 9.3 NNE, IL US",
      "datacoverage": 0.9113,
      "id": "GHCND:US1ILMR0011",
      "elevationUnit": "METERS",
      "longitude": -90.956418
    },
    {
      "elevation": 143.3,
      "mindate": "2015-05-01",
      "maxdate": "2018-09-22",
      "latitude": 40.2838034927845,
      "name": "HAVANA 1.4 SW, IL US",
      "datacoverage": 0.9925,
      "id": "GHCND:US1ILMS0002",
      "elevationUnit": "METERS",
      "longitude": -90.0739485025406
    },
    {
      "elevation": 152.4,
      "mindate": "2018-04-19",
      "maxdate": "2024-12-16",
      "latitude": 40.296846,
      "name": "HAVANA 3.0 E, IL US",
      "datacoverage": 0.5866,
      "id": "GHCND:US1ILMS0004",
      "elevationUnit": "METERS",
      "longitude": -89.99953
    },
    {
      "elevation": 131.1,
      "mindate": "2021-07-01",
      "maxdate": "2021-12-27",
      "latitude": 40.323984,
      "name": "HAVANA 1.8 N, IL US",
      "datacoverage": 0.9944,
      "id": "GHCND:US1ILMS0006",
      "elevationUnit": "METERS",
      "longitude": -90.052865
    },
    {
      "elevation": 200.9,
      "mindate": "2009-02-01",
      "maxdate": "2024-11-20",
      "latitude": 39.726192,
      "name": "ARTHUR 0.8 NNW, IL US",
      "datacoverage": 0.8587,
      "id": "GHCND:US1ILMU0001",
      "elevationUnit": "METERS",
      "longitude": -88.474327
    },
    {
      "elevation": 207,
      "mindate": "2009-02-01",
      "maxdate": "2011-04-02",
      "latitude": 39.593198,
      "name": "SULLIVAN 0.9 WSW, IL US",
      "datacoverage": 0.8919,
      "id": "GHCND:US1ILMU0002",
      "elevationUnit": "METERS",
      "longitude": -88.623884
    },
    {
      "elevation": 207,
      "mindate": "2009-02-01",
      "maxdate": "2015-12-30",
      "latitude": 39.7053,
      "name": "LOVINGTON 4.5 E, IL US",
      "datacoverage": 0.6389,
      "id": "GHCND:US1ILMU0003",
      "elevationUnit": "METERS",
      "longitude": -88.5479
    },
    {
      "elevation": 206,
      "mindate": "2021-04-01",
      "maxdate": "2025-03-07",
      "latitude": 39.77124,
      "name": "LOVINGTON 4.1 NNW, IL US",
      "datacoverage": 0.8876,
      "id": "GHCND:US1ILMU0008",
      "elevationUnit": "METERS",
      "longitude": -88.650595
    },
    {
      "elevation": 205.4,
      "mindate": "2022-07-07",
      "maxdate": "2024-07-16",
      "latitude": 39.7681193,
      "name": "ARTHUR 4.2 NNW, IL US",
      "datacoverage": 0.3711,
      "id": "GHCND:US1ILMU0010",
      "elevationUnit": "METERS",
      "longitude": -88.5065345
    },
    {
      "elevation": 199.9,
      "mindate": "2023-08-30",
      "maxdate": "2025-03-05",
      "latitude": 39.602038,
      "name": "SULLIVAN 1.4 ENE, IL US",
      "datacoverage": 0.946,
      "id": "GHCND:US1ILMU0011",
      "elevationUnit": "METERS",
      "longitude": -88.581124
    },
    {
      "elevation": 196,
      "mindate": "2007-09-01",
      "maxdate": "2025-03-06",
      "latitude": 39.34698,
      "name": "NOKOMIS 4.5 NW, IL US",
      "datacoverage": 0.9903,
      "id": "GHCND:US1ILMY0001",
      "elevationUnit": "METERS",
      "longitude": -89.345486
    },
    {
      "elevation": 210,
      "mindate": "2008-05-01",
      "maxdate": "2014-10-06",
      "latitude": 39.173739,
      "name": "LITCHFIELD 0.2 SE, IL US",
      "datacoverage": 0.9739,
      "id": "GHCND:US1ILMY0008",
      "elevationUnit": "METERS",
      "longitude": -89.654111
    },
    {
      "elevation": 207,
      "mindate": "2009-05-01",
      "maxdate": "2011-11-27",
      "latitude": 39.169559,
      "name": "LITCHFIELD 0.8 SE, IL US",
      "datacoverage": 0.7738,
      "id": "GHCND:US1ILMY0009",
      "elevationUnit": "METERS",
      "longitude": -89.643948
    },
    {
      "elevation": 199.6,
      "mindate": "2011-02-01",
      "maxdate": "2019-05-09",
      "latitude": 39.255391,
      "name": "LITCHFIELD 5.8 NNE, IL US",
      "datacoverage": 0.4357,
      "id": "GHCND:US1ILMY0010",
      "elevationUnit": "METERS",
      "longitude": -89.6235
    },
    {
      "elevation": 260,
      "mindate": "2007-01-01",
      "maxdate": "2010-07-22",
      "latitude": 41.9824,
      "name": "POLO 0.4 WSW, IL US",
      "datacoverage": 0.7446,
      "id": "GHCND:US1ILOG0003",
      "elevationUnit": "METERS",
      "longitude": -89.5859
    },
    {
      "elevation": 224.9,
      "mindate": "2007-04-01",
      "maxdate": "2018-11-25",
      "latitude": 42.1747,
      "name": "BYRON 3.2 N, IL US",
      "datacoverage": 0.9813,
      "id": "GHCND:US1ILOG0004",
      "elevationUnit": "METERS",
      "longitude": -89.2678
    },
    {
      "elevation": 248.1,
      "mindate": "2007-06-01",
      "maxdate": "2008-10-12",
      "latitude": 42.013692,
      "name": "OREGON 1.3 E, IL US",
      "datacoverage": 0.8211,
      "id": "GHCND:US1ILOG0005",
      "elevationUnit": "METERS",
      "longitude": -89.309232
    },
    {
      "elevation": 232.6,
      "mindate": "2010-06-01",
      "maxdate": "2011-10-08",
      "latitude": 42.0601,
      "name": "LINDENWOOD 0.5 N, IL US",
      "datacoverage": 0.9819,
      "id": "GHCND:US1ILOG0011",
      "elevationUnit": "METERS",
      "longitude": -89.031217
    },
    {
      "elevation": 249.9,
      "mindate": "2014-03-01",
      "maxdate": "2014-12-08",
      "latitude": 42.092993,
      "name": "DAVIS JUNCTION 1.1 SW, IL US",
      "datacoverage": 0.998,
      "id": "GHCND:US1ILOG0012",
      "elevationUnit": "METERS",
      "longitude": -89.108642
    },
    {
      "elevation": 276.5,
      "mindate": "2015-08-01",
      "maxdate": "2020-12-08",
      "latitude": 42.0445365905762,
      "name": "MOUNT MORRIS 0.3 S, IL US",
      "datacoverage": 0.998,
      "id": "GHCND:US1ILOG0014",
      "elevationUnit": "METERS",
      "longitude": -89.4326858520508
    },
    {
      "elevation": 216.1,
      "mindate": "2017-04-28",
      "maxdate": "2017-11-13",
      "latitude": 42.133231,
      "name": "BYRON 0.6 ENE, IL US",
      "datacoverage": 0.9925,
      "id": "GHCND:US1ILOG0015",
      "elevationUnit": "METERS",
      "longitude": -89.248407
    },
    {
      "elevation": 240.5,
      "mindate": "2024-03-24",
      "maxdate": "2025-03-07",
      "latitude": 41.9348442,
      "name": "ROCHELLE 5.1 WNW, IL US",
      "datacoverage": 0.894,
      "id": "GHCND:US1ILOG0016",
      "elevationUnit": "METERS",
      "longitude": -89.1601441
    },
    {
      "elevation": 124.1,
      "mindate": "2019-09-13",
      "maxdate": "2025-03-07",
      "latitude": 37.269159,
      "name": "NEW GRAND CHAIN 1.1 NNW, IL US",
      "datacoverage": 0.66,
      "id": "GHCND:US1ILPL0002",
      "elevationUnit": "METERS",
      "longitude": -89.02112
    },
    {
      "elevation": 108.8,
      "mindate": "2023-06-26",
      "maxdate": "2025-03-05",
      "latitude": 37.278772,
      "name": "ULLIN 0.4 WSW, IL US",
      "datacoverage": 0.9819,
      "id": "GHCND:US1ILPL0003",
      "elevationUnit": "METERS",
      "longitude": -89.18938
    },
    {
      "elevation": 209.7,
      "mindate": "2022-07-16",
      "maxdate": "2025-03-07",
      "latitude": 41.1918391,
      "name": "MCNABB 1.4 NW, IL US",
      "datacoverage": 1,
      "id": "GHCND:US1ILPM0006",
      "elevationUnit": "METERS",
      "longitude": -89.2291213
    },
    {
      "elevation": 142,
      "mindate": "2015-03-01",
      "maxdate": "2015-10-11",
      "latitude": 37.35991,
      "name": "GOLCONDA 0.2 SSW, IL US",
      "datacoverage": 0.998,
      "id": "GHCND:US1ILPP0001",
      "elevationUnit": "METERS",
      "longitude": -88.488808
    },
    {
      "elevation": 169.2,
      "mindate": "2017-12-23",
      "maxdate": "2024-12-30",
      "latitude": 37.391872,
      "name": "GOLCONDA 2.0 N, IL US",
      "datacoverage": 0.1368,
      "id": "GHCND:US1ILPP0004",
      "elevationUnit": "METERS",
      "longitude": -88.490997
    },
    {
      "elevation": 224.3,
      "mindate": "2018-04-27",
      "maxdate": "2019-01-24",
      "latitude": 37.549608,
      "name": "STONEFORT 8.7 ESE, IL US",
      "datacoverage": 0.8901,
      "id": "GHCND:US1ILPP0005",
      "elevationUnit": "METERS",
      "longitude": -88.572417
    },
    {
      "elevation": 190.8,
      "mindate": "2007-06-01",
      "maxdate": "2010-12-03",
      "latitude": 40.785215,
      "name": "ELMWOOD 1.2 ENE, IL US",
      "datacoverage": 0.6738,
      "id": "GHCND:US1ILPR0002",
      "elevationUnit": "METERS",
      "longitude": -89.945304
    },
    {
      "elevation": 221.9,
      "mindate": "2007-11-01",
      "maxdate": "2025-03-06",
      "latitude": 40.886493,
      "name": "DUNLAP 2.6 NE, IL US",
      "datacoverage": 1,
      "id": "GHCND:US1ILPR0004",
      "elevationUnit": "METERS",
      "longitude": -89.641025
    },
    {
      "elevation": 192.9,
      "mindate": "2008-01-01",
      "maxdate": "2011-09-16",
      "latitude": 40.722372,
      "name": "PEORIA 1.7 SSE, IL US",
      "datacoverage": 1,
      "id": "GHCND:US1ILPR0005",
      "elevationUnit": "METERS",
      "longitude": -89.598649
    },
    {
      "elevation": 179.2,
      "mindate": "2009-08-01",
      "maxdate": "2013-10-31",
      "latitude": 40.72308,
      "name": "PEORIA 2.4 SW, IL US",
      "datacoverage": 0.9996,
      "id": "GHCND:US1ILPR0007",
      "elevationUnit": "METERS",
      "longitude": -89.644114
    },
    {
      "elevation": 182.9,
      "mindate": "2011-09-01",
      "maxdate": "2025-03-07",
      "latitude": 40.768333,
      "name": "PEORIA 3.4 WNW, IL US",
      "datacoverage": 1,
      "id": "GHCND:US1ILPR0008",
      "elevationUnit": "METERS",
      "longitude": -89.667222
    },
    {
      "elevation": 216.4,
      "mindate": "2013-08-01",
      "maxdate": "2025-03-07",
      "latitude": 40.8234100341797,
      "name": "DUNLAP 2.6 S, IL US",
      "datacoverage": 1,
      "id": "GHCND:US1ILPR0009",
      "elevationUnit": "METERS",
      "longitude": -89.6813507080078
    },
    {
      "elevation": 190.5,
      "mindate": "2016-03-31",
      "maxdate": "2017-07-27",
      "latitude": 40.754776,
      "name": "PEORIA 3.5 W, IL US",
      "datacoverage": 0.998,
      "id": "GHCND:US1ILPR0013",
      "elevationUnit": "METERS",
      "longitude": -89.674217
    },
    {
      "elevation": 211.2,
      "mindate": "2016-04-10",
      "maxdate": "2021-02-04",
      "latitude": 40.865157,
      "name": "PRINCEVILLE 5.1 SSW, IL US",
      "datacoverage": 0.9478,
      "id": "GHCND:US1ILPR0014",
      "elevationUnit": "METERS",
      "longitude": -89.798636
    },
    {
      "elevation": 154.8,
      "mindate": "2019-08-25",
      "maxdate": "2021-02-28",
      "latitude": 40.91568,
      "name": "CHILLICOTHE 0.5 ESE, IL US",
      "datacoverage": 0.7326,
      "id": "GHCND:US1ILPR0017",
      "elevationUnit": "METERS",
      "longitude": -89.49096
    },
    {
      "elevation": 197.8,
      "mindate": "2020-03-19",
      "maxdate": "2025-03-07",
      "latitude": 40.778804,
      "name": "ELMWOOD 0.4 W, IL US",
      "datacoverage": 1,
      "id": "GHCND:US1ILPR0020",
      "elevationUnit": "METERS",
      "longitude": -89.974879
    },
    {
      "elevation": 192.9,
      "mindate": "2020-04-28",
      "maxdate": "2022-11-16",
      "latitude": 40.777475,
      "name": "ELMWOOD 0.9 E, IL US",
      "datacoverage": 0.9657,
      "id": "GHCND:US1ILPR0022",
      "elevationUnit": "METERS",
      "longitude": -89.94944133
    },
    {
      "elevation": 228.6,
      "mindate": "2021-03-21",
      "maxdate": "2025-03-05",
      "latitude": 40.697185,
      "name": "TRIVOLI 0.4 E, IL US",
      "datacoverage": 0.491,
      "id": "GHCND:US1ILPR0023",
      "elevationUnit": "METERS",
      "longitude": -89.8832107
    },
    {
      "elevation": 227.4,
      "mindate": "2023-07-15",
      "maxdate": "2024-09-11",
      "latitude": 40.6973624,
      "name": "TRIVOLI 1.3 W, IL US",
      "datacoverage": 0.4235,
      "id": "GHCND:US1ILPR0032",
      "elevationUnit": "METERS",
      "longitude": -89.9154314
    },
    {
      "elevation": 222.8,
      "mindate": "2024-06-01",
      "maxdate": "2024-10-15",
      "latitude": 40.91474,
      "name": "EDELSTEIN 3.1 SE, IL US",
      "datacoverage": 0.998,
      "id": "GHCND:US1ILPR0034",
      "elevationUnit": "METERS",
      "longitude": -89.58729
    },
    {
      "elevation": 218.8,
      "mindate": "2007-12-01",
      "maxdate": "2025-03-05",
      "latitude": 40.068963,
      "name": "MONTICELLO 3.5 NNE, IL US",
      "datacoverage": 0.9999,
      "id": "GHCND:US1ILPT0001",
      "elevationUnit": "METERS",
      "longitude": -88.539028
    },
    {
      "elevation": 214,
      "mindate": "2008-04-01",
      "maxdate": "2024-08-16",
      "latitude": 40.040647,
      "name": "CISCO 2.1 NNE, IL US",
      "datacoverage": 0.7813,
      "id": "GHCND:US1ILPT0002",
      "elevationUnit": "METERS",
      "longitude": -88.703908
    },
    {
      "elevation": 205.1,
      "mindate": "2008-04-01",
      "maxdate": "2024-12-02",
      "latitude": 39.853258,
      "name": "ATWOOD 5.4 NW, IL US",
      "datacoverage": 0.7917,
      "id": "GHCND:US1ILPT0003",
      "elevationUnit": "METERS",
      "longitude": -88.538214
    },
    {
      "elevation": 205.1,
      "mindate": "2008-05-01",
      "maxdate": "2009-04-28",
      "latitude": 40.023721,
      "name": "MONTICELLO 0.9 E, IL US",
      "datacoverage": 0.8316,
      "id": "GHCND:US1ILPT0004",
      "elevationUnit": "METERS",
      "longitude": -88.558756
    },
    {
      "elevation": 205.1,
      "mindate": "2000-04-19",
      "maxdate": "2025-03-07",
      "latitude": 39.985764,
      "name": "MONTICELLO 6.5 WSW, IL US",
      "datacoverage": 0.9998,
      "id": "GHCND:US1ILPT0006",
      "elevationUnit": "METERS",
      "longitude": -88.686458
    },
    {
      "elevation": 205.4,
      "mindate": "2008-12-01",
      "maxdate": "2025-03-07",
      "latitude": 40.136693,
      "name": "WHITE HEATH 3.7 NNE, IL US",
      "datacoverage": 0.9888,
      "id": "GHCND:US1ILPT0008",
      "elevationUnit": "METERS",
      "longitude": -88.48164
    },
    {
      "elevation": 207.9,
      "mindate": "2009-04-01",
      "maxdate": "2021-10-31",
      "latitude": 39.806056,
      "name": "ATWOOD 0.4 N, IL US",
      "datacoverage": 0.7594,
      "id": "GHCND:US1ILPT0011",
      "elevationUnit": "METERS",
      "longitude": -88.463277
    },
    {
      "elevation": 216.1,
      "mindate": "2009-05-01",
      "maxdate": "2013-12-09",
      "latitude": 40.100082,
      "name": "MONTICELLO 5.6 NNE, IL US",
      "datacoverage": 0.9991,
      "id": "GHCND:US1ILPT0012",
      "elevationUnit": "METERS",
      "longitude": -88.530307
    },
    {
      "elevation": 218.8,
      "mindate": "2009-03-01",
      "maxdate": "2023-11-21",
      "latitude": 40.189041,
      "name": "MANSFIELD 3.0 WSW, IL US",
      "datacoverage": 1,
      "id": "GHCND:US1ILPT0013",
      "elevationUnit": "METERS",
      "longitude": -88.558361
    },
    {
      "elevation": 207.9,
      "mindate": "2011-03-01",
      "maxdate": "2024-11-09",
      "latitude": 39.946469,
      "name": "CERRO GORDO 3.9 N, IL US",
      "datacoverage": 0.7536,
      "id": "GHCND:US1ILPT0014",
      "elevationUnit": "METERS",
      "longitude": -88.723374
    },
    {
      "elevation": 215.8,
      "mindate": "2012-08-01",
      "maxdate": "2025-01-01",
      "latitude": 40.174004,
      "name": "MAHOMET 3.6 WSW, IL US",
      "datacoverage": 0.8638,
      "id": "GHCND:US1ILPT0015",
      "elevationUnit": "METERS",
      "longitude": -88.465574
    },
    {
      "elevation": 215.2,
      "mindate": "2013-04-01",
      "maxdate": "2025-03-05",
      "latitude": 40.167774,
      "name": "MANSFIELD 3.1 S, IL US",
      "datacoverage": 1,
      "id": "GHCND:US1ILPT0016",
      "elevationUnit": "METERS",
      "longitude": -88.519502
    },
    {
      "elevation": 208.2,
      "mindate": "2013-12-01",
      "maxdate": "2016-02-26",
      "latitude": 40.07443,
      "name": "MONTICELLO 3.8 NNE, IL US",
      "datacoverage": 1,
      "id": "GHCND:US1ILPT0017",
      "elevationUnit": "METERS",
      "longitude": -88.546235
    },
    {
      "elevation": 206,
      "mindate": "2020-03-31",
      "maxdate": "2022-10-29",
      "latitude": 40.063164,
      "name": "MONTICELLO 2.8 NNE, IL US",
      "datacoverage": 0.842,
      "id": "GHCND:US1ILPT0018",
      "elevationUnit": "METERS",
      "longitude": -88.557999
    },
    {
      "elevation": 212.8,
      "mindate": "2019-05-04",
      "maxdate": "2022-06-26",
      "latitude": 40.0179586,
      "name": "MONTICELLO 0.8 SE, IL US",
      "datacoverage": 0.4757,
      "id": "GHCND:US1ILPT0019",
      "elevationUnit": "METERS",
      "longitude": -88.5634833
    },
    {
      "elevation": 207.6,
      "mindate": "2020-05-26",
      "maxdate": "2025-03-07",
      "latitude": 40.0295,
      "name": "MONTICELLO 0.6 ENE, IL US",
      "datacoverage": 0.6835,
      "id": "GHCND:US1ILPT0020",
      "elevationUnit": "METERS",
      "longitude": -88.5649
    },
    {
      "elevation": 228.3,
      "mindate": "2021-04-13",
      "maxdate": "2024-03-16",
      "latitude": 39.937865,
      "name": "BEMENT 2.9 WNW, IL US",
      "datacoverage": 0.9167,
      "id": "GHCND:US1ILPT0021",
      "elevationUnit": "METERS",
      "longitude": -88.621818
    },
    {
      "elevation": 214.9,
      "mindate": "2023-03-30",
      "maxdate": "2025-03-06",
      "latitude": 40.082156,
      "name": "DE LAND 2.7 S, IL US",
      "datacoverage": 0.9965,
      "id": "GHCND:US1ILPT0025",
      "elevationUnit": "METERS",
      "longitude": -88.648845
    },
    {
      "elevation": 204.5,
      "mindate": "2023-04-21",
      "maxdate": "2025-03-07",
      "latitude": 39.9052918,
      "name": "BEMENT 1.5 SE, IL US",
      "datacoverage": 0.9008,
      "id": "GHCND:US1ILPT0026",
      "elevationUnit": "METERS",
      "longitude": -88.5553847
    },
    {
      "elevation": 161.5,
      "mindate": "2016-08-31",
      "maxdate": "2021-10-28",
      "latitude": 38.153962,
      "name": "COULTERVILLE 3.5 SE, IL US",
      "datacoverage": 0.6199,
      "id": "GHCND:US1ILPY0001",
      "elevationUnit": "METERS",
      "longitude": -89.553554
    },
    {
      "elevation": 141.4,
      "mindate": "2018-04-30",
      "maxdate": "2020-02-03",
      "latitude": 38.01753,
      "name": "DU QUOIN 1.1 NW, IL US",
      "datacoverage": 0.8574,
      "id": "GHCND:US1ILPY0002",
      "elevationUnit": "METERS",
      "longitude": -89.246769
    },
    {
      "elevation": 168.9,
      "mindate": "2023-04-15",
      "maxdate": "2025-01-01",
      "latitude": 38.176009,
      "name": "COULTERVILLE 5.5 E, IL US",
      "datacoverage": 0.3902,
      "id": "GHCND:US1ILPY0004",
      "elevationUnit": "METERS",
      "longitude": -89.504326
    },
    {
      "elevation": 154.8,
      "mindate": "2006-12-01",
      "maxdate": "2013-11-12",
      "latitude": 38.7269,
      "name": "OLNEY 0.4 SE, IL US",
      "datacoverage": 0.9925,
      "id": "GHCND:US1ILRC0001",
      "elevationUnit": "METERS",
      "longitude": -88.0802
    },
    {
      "elevation": 145.7,
      "mindate": "2008-11-01",
      "maxdate": "2018-09-10",
      "latitude": 38.68557,
      "name": "OLNEY 3.2 S, IL US",
      "datacoverage": 1,
      "id": "GHCND:US1ILRC0002",
      "elevationUnit": "METERS",
      "longitude": -88.08533
    },
    {
      "elevation": 152.4,
      "mindate": "2009-06-01",
      "maxdate": "2023-12-10",
      "latitude": 38.731887,
      "name": "OLNEY 0.7 E, IL US",
      "datacoverage": 0.939,
      "id": "GHCND:US1ILRC0003",
      "elevationUnit": "METERS",
      "longitude": -88.072428
    },
    {
      "elevation": 157,
      "mindate": "2016-03-18",
      "maxdate": "2019-05-22",
      "latitude": 38.7440032958984,
      "name": "CLAREMONT 1.8 NNE, IL US",
      "datacoverage": 0.8574,
      "id": "GHCND:US1ILRC0004",
      "elevationUnit": "METERS",
      "longitude": -87.9647369384766
    },
    {
      "elevation": 154.8,
      "mindate": "2017-11-01",
      "maxdate": "2019-12-21",
      "latitude": 38.707057,
      "name": "OLNEY 5.5 ESE, IL US",
      "datacoverage": 1,
      "id": "GHCND:US1ILRC0005",
      "elevationUnit": "METERS",
      "longitude": -87.987569
    },
    {
      "elevation": 147.5,
      "mindate": "2018-03-01",
      "maxdate": "2025-03-07",
      "latitude": 38.748566,
      "name": "OLNEY 1.5 NE, IL US",
      "datacoverage": 0.9384,
      "id": "GHCND:US1ILRC0006",
      "elevationUnit": "METERS",
      "longitude": -88.067111
    },
    {
      "elevation": 149.4,
      "mindate": "2019-01-01",
      "maxdate": "2025-03-07",
      "latitude": 38.8344844437183,
      "name": "DUNDAS 1.4 E, IL US",
      "datacoverage": 0.9384,
      "id": "GHCND:US1ILRC0007",
      "elevationUnit": "METERS",
      "longitude": -88.0591181141367
    },
    {
      "elevation": 143,
      "mindate": "2007-01-01",
      "maxdate": "2012-04-10",
      "latitude": 38.202846,
      "name": "RED BUD 0.5 S, IL US",
      "datacoverage": 0.9986,
      "id": "GHCND:US1ILRH0001",
      "elevationUnit": "METERS",
      "longitude": -89.996256
    }
  ]
}
