{
  "metadata": {
    "resultset": {
      "offset": 99800,
      "count": 154115,
      "limit": 100
    }
  },
  "results": [
    {
      "elevation": 94.8,
      "mindate": "2010-05-01",
      "maxdate": "2012-08-09",
      "latitude": 33.996074,
      "name": "BRUCE 0.3 NNW, MS US",
      "datacoverage": 0.9925,
      "id": "GHCND:US1MSCN0001",
      "elevationUnit": "METERS",
      "longitude": -89.346961
    },
    {
      "elevation": 145.1,
      "mindate": "2008-11-01",
      "maxdate": "2025-03-07",
      "latitude": 31.858527,
      "name": "HAZLEHURST 0.8 WSW, MS US",
      "datacoverage": 1,
      "id": "GHCND:US1MSCP0003",
      "elevationUnit": "METERS",
      "longitude": -90.402878
    },
    {
      "elevation": 106.7,
      "mindate": "2009-04-01",
      "maxdate": "2024-11-05",
      "latitude": 31.809359,
      "name": "HAZLEHURST 8.3 WSW, MS US",
      "datacoverage": 0.988,
      "id": "GHCND:US1MSCP0004",
      "elevationUnit": "METERS",
      "longitude": -90.516126
    },
    {
      "elevation": 114,
      "mindate": "2010-03-01",
      "maxdate": "2014-04-13",
      "latitude": 32.005081,
      "name": "CRYSTAL SPRINGS 4.0 ENE, MS US",
      "datacoverage": 0.9345,
      "id": "GHCND:US1MSCP0005",
      "elevationUnit": "METERS",
      "longitude": -90.289321
    },
    {
      "elevation": 118,
      "mindate": "2018-06-21",
      "maxdate": "2019-02-15",
      "latitude": 32.00513,
      "name": "CRYSTAL SPRINGS 4.0 ENE, MS US",
      "datacoverage": 0.9925,
      "id": "GHCND:US1MSCP0007",
      "elevationUnit": "METERS",
      "longitude": -90.289644
    },
    {
      "elevation": 113.7,
      "mindate": "2010-03-01",
      "maxdate": "2025-03-07",
      "latitude": 33.3580932,
      "name": "VAIDEN 4.8 WNW, MS US",
      "datacoverage": 0.9995,
      "id": "GHCND:US1MSCR0001",
      "elevationUnit": "METERS",
      "longitude": -89.830654
    },
    {
      "elevation": 97.8,
      "mindate": "2013-05-08",
      "maxdate": "2020-07-10",
      "latitude": 33.49660833,
      "name": "GREENWOOD 9.8 E, MS US",
      "datacoverage": 0.0431,
      "id": "GHCND:US1MSCR0003",
      "elevationUnit": "METERS",
      "longitude": -90.0238
    },
    {
      "elevation": 124.1,
      "mindate": "2016-11-15",
      "maxdate": "2025-03-05",
      "latitude": 33.605,
      "name": "CARROLLTON 7.6 NNW, MS US",
      "datacoverage": 1,
      "id": "GHCND:US1MSCR0004",
      "elevationUnit": "METERS",
      "longitude": -89.977
    },
    {
      "elevation": 89,
      "mindate": "2008-08-01",
      "maxdate": "2009-01-14",
      "latitude": 33.8152,
      "name": "HOUSTON 6.7 SSE, MS US",
      "datacoverage": 0.998,
      "id": "GHCND:US1MSCS0001",
      "elevationUnit": "METERS",
      "longitude": -88.9381
    },
    {
      "elevation": 127.1,
      "mindate": "2008-07-01",
      "maxdate": "2011-07-24",
      "latitude": 33.517502,
      "name": "MATHISTON 2.4 SW, MS US",
      "datacoverage": 1,
      "id": "GHCND:US1MSCT0001",
      "elevationUnit": "METERS",
      "longitude": -89.160373
    },
    {
      "elevation": 167.9,
      "mindate": "2008-10-01",
      "maxdate": "2024-10-28",
      "latitude": 33.31428,
      "name": "ACKERMAN 4.9 W, MS US",
      "datacoverage": 1,
      "id": "GHCND:US1MSCT0002",
      "elevationUnit": "METERS",
      "longitude": -89.25686
    },
    {
      "elevation": 174,
      "mindate": "2020-05-07",
      "maxdate": "2024-04-01",
      "latitude": 33.3133333333333,
      "name": "ACKERMAN 3.9 W, MS US",
      "datacoverage": 0.1052,
      "id": "GHCND:US1MSCT0004",
      "elevationUnit": "METERS",
      "longitude": -89.2386111111111
    },
    {
      "elevation": 64,
      "mindate": "2008-08-01",
      "maxdate": "2025-03-05",
      "latitude": 33.592446,
      "name": "WEST POINT 1.0 SSE, MS US",
      "datacoverage": 1,
      "id": "GHCND:US1MSCY0001",
      "elevationUnit": "METERS",
      "longitude": -88.640965
    },
    {
      "elevation": 76.5,
      "mindate": "2014-12-01",
      "maxdate": "2025-03-06",
      "latitude": 33.66724,
      "name": "WEST POINT 4.3 N, MS US",
      "datacoverage": 1,
      "id": "GHCND:US1MSCY0003",
      "elevationUnit": "METERS",
      "longitude": -88.632574
    },
    {
      "elevation": 117,
      "mindate": "2008-08-01",
      "maxdate": "2009-06-07",
      "latitude": 34.836006,
      "name": "HERNANDO 0.6 N, MS US",
      "datacoverage": 0.9925,
      "id": "GHCND:US1MSDS0001",
      "elevationUnit": "METERS",
      "longitude": -89.987035
    },
    {
      "elevation": 103.3,
      "mindate": "2009-09-01",
      "maxdate": "2012-12-20",
      "latitude": 34.927394,
      "name": "OLIVE BRANCH 3.2 SW, MS US",
      "datacoverage": 0.9996,
      "id": "GHCND:US1MSDS0004",
      "elevationUnit": "METERS",
      "longitude": -89.875292
    },
    {
      "elevation": 115.5,
      "mindate": "2010-07-01",
      "maxdate": "2012-08-06",
      "latitude": 34.824083,
      "name": "HERNANDO 0.7 WSW, MS US",
      "datacoverage": 0.998,
      "id": "GHCND:US1MSDS0006",
      "elevationUnit": "METERS",
      "longitude": -89.997547
    },
    {
      "elevation": 78,
      "mindate": "2013-03-01",
      "maxdate": "2019-12-28",
      "latitude": 31.465696,
      "name": "BUDE 0.5 ENE, MS US",
      "datacoverage": 0.9993,
      "id": "GHCND:US1MSFK0003",
      "elevationUnit": "METERS",
      "longitude": -90.843762
    },
    {
      "elevation": 57.9,
      "mindate": "2008-08-01",
      "maxdate": "2022-07-29",
      "latitude": 31.322907,
      "name": "HATTIESBURG 0.7 NNW, MS US",
      "datacoverage": 1,
      "id": "GHCND:US1MSFR0001",
      "elevationUnit": "METERS",
      "longitude": -89.310361
    },
    {
      "elevation": 54.9,
      "mindate": "2009-05-01",
      "maxdate": "2009-12-17",
      "latitude": 31.108401,
      "name": "HATTIESBURG 14.2 S, MS US",
      "datacoverage": 0.998,
      "id": "GHCND:US1MSFR0005",
      "elevationUnit": "METERS",
      "longitude": -89.284004
    },
    {
      "elevation": 95.1,
      "mindate": "2010-04-01",
      "maxdate": "2018-07-31",
      "latitude": 31.416711,
      "name": "HATTIESBURG 7.3 N, MS US",
      "datacoverage": 0.9998,
      "id": "GHCND:US1MSFR0009",
      "elevationUnit": "METERS",
      "longitude": -89.330601
    },
    {
      "elevation": 73.5,
      "mindate": "2020-03-13",
      "maxdate": "2025-02-14",
      "latitude": 31.023978,
      "name": "BROOKLYN 2.4 S, MS US",
      "datacoverage": 1,
      "id": "GHCND:US1MSFR0015",
      "elevationUnit": "METERS",
      "longitude": -89.198446
    },
    {
      "elevation": 79.2,
      "mindate": "2020-03-13",
      "maxdate": "2025-02-14",
      "latitude": 31.354404,
      "name": "PETAL 0.7 N, MS US",
      "datacoverage": 1,
      "id": "GHCND:US1MSFR0017",
      "elevationUnit": "METERS",
      "longitude": -89.250578
    },
    {
      "elevation": 63.7,
      "mindate": "2009-10-01",
      "maxdate": "2022-01-06",
      "latitude": 33.7432,
      "name": "GRENADA 2.5 SSE, MS US",
      "datacoverage": 1,
      "id": "GHCND:US1MSGD0003",
      "elevationUnit": "METERS",
      "longitude": -89.7989
    },
    {
      "elevation": 55.8,
      "mindate": "2010-03-01",
      "maxdate": "2017-03-18",
      "latitude": 33.77704,
      "name": "GRENADA 6.2 W, MS US",
      "datacoverage": 0.9995,
      "id": "GHCND:US1MSGD0006",
      "elevationUnit": "METERS",
      "longitude": -89.918358
    },
    {
      "elevation": 107.3,
      "mindate": "2011-04-01",
      "maxdate": "2022-06-14",
      "latitude": 33.8890482,
      "name": "GRENADA 7.9 NNW, MS US",
      "datacoverage": 0.9996,
      "id": "GHCND:US1MSGD0009",
      "elevationUnit": "METERS",
      "longitude": -89.8409658
    },
    {
      "elevation": 99.7,
      "mindate": "2016-03-16",
      "maxdate": "2025-03-07",
      "latitude": 33.69027,
      "name": "GRENADA 6.4 SSW, MS US",
      "datacoverage": 0.9389,
      "id": "GHCND:US1MSGD0010",
      "elevationUnit": "METERS",
      "longitude": -89.846567
    },
    {
      "elevation": 46.3,
      "mindate": "2011-02-01",
      "maxdate": "2025-03-05",
      "latitude": 30.794,
      "name": "LUCEDALE 13.1 SE, MS US",
      "datacoverage": 0.7908,
      "id": "GHCND:US1MSGG0002",
      "elevationUnit": "METERS",
      "longitude": -88.429
    },
    {
      "elevation": 28.3,
      "mindate": "2022-06-26",
      "maxdate": "2024-04-30",
      "latitude": 30.8446,
      "name": "LUCEDALE 13.1 WSW, MS US",
      "datacoverage": 0.6861,
      "id": "GHCND:US1MSGG0003",
      "elevationUnit": "METERS",
      "longitude": -88.79595
    },
    {
      "elevation": 3.7,
      "mindate": "2008-09-01",
      "maxdate": "2015-03-07",
      "latitude": 30.387764,
      "name": "DIAMONDHEAD 0.6 WNW, MS US",
      "datacoverage": 0.988,
      "id": "GHCND:US1MSHC0002",
      "elevationUnit": "METERS",
      "longitude": -89.378089
    },
    {
      "elevation": 7,
      "mindate": "2007-07-30",
      "maxdate": "2025-03-05",
      "latitude": 30.3947,
      "name": "DIAMONDHEAD 0.9 NNW, MS US",
      "datacoverage": 0.923,
      "id": "GHCND:US1MSHC0005",
      "elevationUnit": "METERS",
      "longitude": -89.3764
    },
    {
      "elevation": 7.9,
      "mindate": "2009-02-01",
      "maxdate": "2019-12-07",
      "latitude": 30.40394,
      "name": "DIAMONDHEAD 1.4 NNW, MS US",
      "datacoverage": 1,
      "id": "GHCND:US1MSHC0007",
      "elevationUnit": "METERS",
      "longitude": -89.374272
    },
    {
      "elevation": 21,
      "mindate": "2009-02-01",
      "maxdate": "2018-02-04",
      "latitude": 30.3833,
      "name": "DIAMONDHEAD 0.4 E, MS US",
      "datacoverage": 1,
      "id": "GHCND:US1MSHC0008",
      "elevationUnit": "METERS",
      "longitude": -89.3612
    },
    {
      "elevation": 27.4,
      "mindate": "2009-02-01",
      "maxdate": "2025-03-07",
      "latitude": 30.464891,
      "name": "KILN 3.3 N, MS US",
      "datacoverage": 1,
      "id": "GHCND:US1MSHC0009",
      "elevationUnit": "METERS",
      "longitude": -89.43236
    },
    {
      "elevation": 21.9,
      "mindate": "2009-03-01",
      "maxdate": "2014-08-10",
      "latitude": 30.400688,
      "name": "DIAMONDHEAD 1.5 NE, MS US",
      "datacoverage": 0.9994,
      "id": "GHCND:US1MSHC0010",
      "elevationUnit": "METERS",
      "longitude": -89.353049
    },
    {
      "elevation": 4,
      "mindate": "2009-10-01",
      "maxdate": "2013-06-01",
      "latitude": 30.29732,
      "name": "WAVELAND 1.1 NW, MS US",
      "datacoverage": 1,
      "id": "GHCND:US1MSHC0011",
      "elevationUnit": "METERS",
      "longitude": -89.398677
    },
    {
      "elevation": 36,
      "mindate": "2010-04-01",
      "maxdate": "2025-03-07",
      "latitude": 30.52,
      "name": "KILN 6.6 N, MS US",
      "datacoverage": 0.9998,
      "id": "GHCND:US1MSHC0013",
      "elevationUnit": "METERS",
      "longitude": -89.4308
    },
    {
      "elevation": 4.3,
      "mindate": "2015-04-01",
      "maxdate": "2018-09-24",
      "latitude": 30.3119,
      "name": "PEARLINGTON 4.4 N, MS US",
      "datacoverage": 0.998,
      "id": "GHCND:US1MSHC0017",
      "elevationUnit": "METERS",
      "longitude": -89.6046
    },
    {
      "elevation": 5.2,
      "mindate": "2015-05-01",
      "maxdate": "2025-03-07",
      "latitude": 30.297565,
      "name": "WAVELAND 1.0 NW, MS US",
      "datacoverage": 1,
      "id": "GHCND:US1MSHC0018",
      "elevationUnit": "METERS",
      "longitude": -89.396141
    },
    {
      "elevation": 9.1,
      "mindate": "2020-02-08",
      "maxdate": "2021-02-02",
      "latitude": 30.39413,
      "name": "DIAMONDHEAD 0.8 NNW, MS US",
      "datacoverage": 0.9032,
      "id": "GHCND:US1MSHC0021",
      "elevationUnit": "METERS",
      "longitude": -89.37529
    },
    {
      "elevation": 8.5,
      "mindate": "2021-06-17",
      "maxdate": "2025-03-07",
      "latitude": 30.302327,
      "name": "BAY ST LOUIS 1.4 WSW, MS US",
      "datacoverage": 0.9991,
      "id": "GHCND:US1MSHC0023",
      "elevationUnit": "METERS",
      "longitude": -89.352253
    },
    {
      "elevation": 96,
      "mindate": "2008-08-01",
      "maxdate": "2015-07-06",
      "latitude": 32.389984,
      "name": "JACKSON 5.9 NNE, MS US",
      "datacoverage": 0.6788,
      "id": "GHCND:US1MSHD0003",
      "elevationUnit": "METERS",
      "longitude": -90.136086
    },
    {
      "elevation": 96.9,
      "mindate": "2008-08-01",
      "maxdate": "2013-03-07",
      "latitude": 32.34336,
      "name": "CLINTON 0.6 WNW, MS US",
      "datacoverage": 1,
      "id": "GHCND:US1MSHD0004",
      "elevationUnit": "METERS",
      "longitude": -90.343419
    },
    {
      "elevation": 107.9,
      "mindate": "2009-09-01",
      "maxdate": "2025-03-05",
      "latitude": 32.16814,
      "name": "TERRY 5.7 NW, MS US",
      "datacoverage": 0.9243,
      "id": "GHCND:US1MSHD0012",
      "elevationUnit": "METERS",
      "longitude": -90.358852
    },
    {
      "elevation": 86,
      "mindate": "2010-02-01",
      "maxdate": "2018-07-17",
      "latitude": 32.37808,
      "name": "JACKSON 5.8 NE, MS US",
      "datacoverage": 0.9871,
      "id": "GHCND:US1MSHD0013",
      "elevationUnit": "METERS",
      "longitude": -90.134319
    },
    {
      "elevation": 88.4,
      "mindate": "2014-08-01",
      "maxdate": "2017-11-02",
      "latitude": 32.176468,
      "name": "BYRAM 2.5 E, MS US",
      "datacoverage": 0.9996,
      "id": "GHCND:US1MSHD0014",
      "elevationUnit": "METERS",
      "longitude": -90.286755
    },
    {
      "elevation": 108.8,
      "mindate": "2010-03-01",
      "maxdate": "2010-11-30",
      "latitude": 32.35712,
      "name": "JACKSON 4.8 ENE, MS US",
      "datacoverage": 0.9961,
      "id": "GHCND:US1MSHD0016",
      "elevationUnit": "METERS",
      "longitude": -90.13717
    },
    {
      "elevation": 85,
      "mindate": "2010-04-01",
      "maxdate": "2025-03-06",
      "latitude": 32.31524,
      "name": "CLINTON 2.1 SW, MS US",
      "datacoverage": 0.9986,
      "id": "GHCND:US1MSHD0017",
      "elevationUnit": "METERS",
      "longitude": -90.35735
    },
    {
      "elevation": 91.1,
      "mindate": "2010-11-01",
      "maxdate": "2025-03-07",
      "latitude": 32.383628,
      "name": "JACKSON 6.0 NE, MS US",
      "datacoverage": 1,
      "id": "GHCND:US1MSHD0018",
      "elevationUnit": "METERS",
      "longitude": -90.136259
    },
    {
      "elevation": 93,
      "mindate": "2012-02-01",
      "maxdate": "2015-05-18",
      "latitude": 32.3018112182617,
      "name": "JACKSON 2.1 SE, MS US",
      "datacoverage": 0.8696,
      "id": "GHCND:US1MSHD0021",
      "elevationUnit": "METERS",
      "longitude": -90.1792449951172
    },
    {
      "elevation": 83.5,
      "mindate": "2012-08-01",
      "maxdate": "2022-02-15",
      "latitude": 32.3416023254395,
      "name": "JACKSON 2.8 ENE, MS US",
      "datacoverage": 1,
      "id": "GHCND:US1MSHD0024",
      "elevationUnit": "METERS",
      "longitude": -90.1659774780273
    },
    {
      "elevation": 109.1,
      "mindate": "1998-06-01",
      "maxdate": "2025-03-06",
      "latitude": 32.2646789550781,
      "name": "RAYMOND 2.7 E, MS US",
      "datacoverage": 0.9734,
      "id": "GHCND:US1MSHD0025",
      "elevationUnit": "METERS",
      "longitude": -90.3772506713867
    },
    {
      "elevation": 97.8,
      "mindate": "2014-02-01",
      "maxdate": "2014-08-31",
      "latitude": 32.3441772460938,
      "name": "CLINTON 0.6 WNW, MS US",
      "datacoverage": 1,
      "id": "GHCND:US1MSHD0028",
      "elevationUnit": "METERS",
      "longitude": -90.3446578979492
    },
    {
      "elevation": 103,
      "mindate": "2021-03-19",
      "maxdate": "2025-03-07",
      "latitude": 32.3225,
      "name": "JACKSON 2.8 E, MS US",
      "datacoverage": 0.9991,
      "id": "GHCND:US1MSHD0032",
      "elevationUnit": "METERS",
      "longitude": -90.1603
    },
    {
      "elevation": 82,
      "mindate": "2007-11-01",
      "maxdate": "2010-06-04",
      "latitude": 32.970464,
      "name": "GOODMAN 0.2 N, MS US",
      "datacoverage": 0.3128,
      "id": "GHCND:US1MSHL0001",
      "elevationUnit": "METERS",
      "longitude": -89.912727
    },
    {
      "elevation": 21.3,
      "mindate": "2008-08-01",
      "maxdate": "2009-10-12",
      "latitude": 30.504926,
      "name": "BILOXI 6.6 NNW, MS US",
      "datacoverage": 0.999,
      "id": "GHCND:US1MSHR0002",
      "elevationUnit": "METERS",
      "longitude": -88.971703
    },
    {
      "elevation": 4.9,
      "mindate": "2008-07-01",
      "maxdate": "2010-02-07",
      "latitude": 30.471056,
      "name": "BILOXI 4.3 NNW, MS US",
      "datacoverage": 1,
      "id": "GHCND:US1MSHR0003",
      "elevationUnit": "METERS",
      "longitude": -88.966436
    },
    {
      "elevation": 7,
      "mindate": "2008-11-01",
      "maxdate": "2010-05-03",
      "latitude": 30.397689,
      "name": "GULFPORT 2.9 ENE, MS US",
      "datacoverage": 0.9898,
      "id": "GHCND:US1MSHR0005",
      "elevationUnit": "METERS",
      "longitude": -89.020297
    },
    {
      "elevation": 36.6,
      "mindate": "2009-02-01",
      "maxdate": "2010-07-17",
      "latitude": 30.57483,
      "name": "SAUCIER 6.6 SW, MS US",
      "datacoverage": 1,
      "id": "GHCND:US1MSHR0006",
      "elevationUnit": "METERS",
      "longitude": -89.21883
    },
    {
      "elevation": 13.1,
      "mindate": "2009-02-01",
      "maxdate": "2018-12-08",
      "latitude": 30.44733,
      "name": "GULFPORT 4.3 NNW, MS US",
      "datacoverage": 1,
      "id": "GHCND:US1MSHR0007",
      "elevationUnit": "METERS",
      "longitude": -89.084383
    },
    {
      "elevation": 4.9,
      "mindate": "2009-02-01",
      "maxdate": "2011-04-20",
      "latitude": 30.430985,
      "name": "BILOXI 1.5 NW, MS US",
      "datacoverage": 1,
      "id": "GHCND:US1MSHR0008",
      "elevationUnit": "METERS",
      "longitude": -88.949358
    },
    {
      "elevation": 11.9,
      "mindate": "2009-02-01",
      "maxdate": "2025-03-07",
      "latitude": 30.360757,
      "name": "PASS CHRISTIAN 3.5 NE, MS US",
      "datacoverage": 1,
      "id": "GHCND:US1MSHR0010",
      "elevationUnit": "METERS",
      "longitude": -89.208383
    },
    {
      "elevation": 4.9,
      "mindate": "2009-02-01",
      "maxdate": "2018-04-25",
      "latitude": 30.407089,
      "name": "GULFPORT 2.0 NE, MS US",
      "datacoverage": 1,
      "id": "GHCND:US1MSHR0013",
      "elevationUnit": "METERS",
      "longitude": -89.043525
    },
    {
      "elevation": 25.3,
      "mindate": "2009-03-01",
      "maxdate": "2025-03-06",
      "latitude": 30.443395,
      "name": "PASS CHRISTIAN 8.9 NNW, MS US",
      "datacoverage": 0.9997,
      "id": "GHCND:US1MSHR0015",
      "elevationUnit": "METERS",
      "longitude": -89.281349
    },
    {
      "elevation": 15.5,
      "mindate": "2010-04-01",
      "maxdate": "2025-03-06",
      "latitude": 30.391131,
      "name": "PASS CHRISTIAN 5.0 N, MS US",
      "datacoverage": 0.9998,
      "id": "GHCND:US1MSHR0019",
      "elevationUnit": "METERS",
      "longitude": -89.250341
    },
    {
      "elevation": 9.1,
      "mindate": "2010-04-01",
      "maxdate": "2015-11-07",
      "latitude": 30.399809,
      "name": "BILOXI 4.3 WSW, MS US",
      "datacoverage": 0.9999,
      "id": "GHCND:US1MSHR0020",
      "elevationUnit": "METERS",
      "longitude": -89.001334
    },
    {
      "elevation": 16.5,
      "mindate": "2010-08-01",
      "maxdate": "2011-09-21",
      "latitude": 30.451,
      "name": "GULFPORT 6.2 NW, MS US",
      "datacoverage": 1,
      "id": "GHCND:US1MSHR0021",
      "elevationUnit": "METERS",
      "longitude": -89.1395
    },
    {
      "elevation": 59.1,
      "mindate": "1998-06-26",
      "maxdate": "2025-03-05",
      "latitude": 30.659225,
      "name": "SAUCIER 1.7 NNE, MS US",
      "datacoverage": 0.9762,
      "id": "GHCND:US1MSHR0022",
      "elevationUnit": "METERS",
      "longitude": -89.129681
    },
    {
      "elevation": 52.4,
      "mindate": "2010-12-01",
      "maxdate": "2013-10-06",
      "latitude": 30.617024,
      "name": "SAUCIER 6.4 ESE, MS US",
      "datacoverage": 0.9994,
      "id": "GHCND:US1MSHR0023",
      "elevationUnit": "METERS",
      "longitude": -89.030033
    },
    {
      "elevation": 6.4,
      "mindate": "2011-01-01",
      "maxdate": "2014-08-12",
      "latitude": 30.347649,
      "name": "LONG BEACH 1.3 SE, MS US",
      "datacoverage": 1,
      "id": "GHCND:US1MSHR0025",
      "elevationUnit": "METERS",
      "longitude": -89.153378
    },
    {
      "elevation": 7.9,
      "mindate": "2011-07-01",
      "maxdate": "2018-10-12",
      "latitude": 30.351536,
      "name": "LONG BEACH 0.7 S, MS US",
      "datacoverage": 0.9994,
      "id": "GHCND:US1MSHR0027",
      "elevationUnit": "METERS",
      "longitude": -89.1675489
    },
    {
      "elevation": 43.9,
      "mindate": "2014-01-01",
      "maxdate": "2025-03-05",
      "latitude": 30.574442,
      "name": "BILOXI 13.1 NNW, MS US",
      "datacoverage": 1,
      "id": "GHCND:US1MSHR0034",
      "elevationUnit": "METERS",
      "longitude": -89.053558
    },
    {
      "elevation": 31.1,
      "mindate": "2016-07-01",
      "maxdate": "2025-03-06",
      "latitude": 30.455758,
      "name": "PASS CHRISTIAN 9.8 NNW, MS US",
      "datacoverage": 0.9905,
      "id": "GHCND:US1MSHR0037",
      "elevationUnit": "METERS",
      "longitude": -89.283504
    },
    {
      "elevation": 17.1,
      "mindate": "2020-01-16",
      "maxdate": "2025-03-04",
      "latitude": 30.4437,
      "name": "GULFPORT 5.3 NW, MS US",
      "datacoverage": 0.8544,
      "id": "GHCND:US1MSHR0039",
      "elevationUnit": "METERS",
      "longitude": -89.1265
    },
    {
      "elevation": 42.1,
      "mindate": "2021-04-15",
      "maxdate": "2025-03-06",
      "latitude": 30.5022128,
      "name": "GULFPORT 9.2 NNW, MS US",
      "datacoverage": 0.5745,
      "id": "GHCND:US1MSHR0041",
      "elevationUnit": "METERS",
      "longitude": -89.1427494
    },
    {
      "elevation": 7,
      "mindate": "2021-09-18",
      "maxdate": "2024-09-17",
      "latitude": 30.402876,
      "name": "GULFPORT 1.6 NE, MS US",
      "datacoverage": 0.5027,
      "id": "GHCND:US1MSHR0044",
      "elevationUnit": "METERS",
      "longitude": -89.049438
    },
    {
      "elevation": 6.7,
      "mindate": "2018-09-17",
      "maxdate": "2024-03-26",
      "latitude": 30.354144,
      "name": "PASS CHRISTIAN 2.8 NNE, MS US",
      "datacoverage": 0.6121,
      "id": "GHCND:US1MSHR0048",
      "elevationUnit": "METERS",
      "longitude": -89.217344
    },
    {
      "elevation": 7,
      "mindate": "2023-09-22",
      "maxdate": "2024-09-04",
      "latitude": 30.322,
      "name": "PASS CHRISTIAN 2.6 W, MS US",
      "datacoverage": 0.8309,
      "id": "GHCND:US1MSHR0051",
      "elevationUnit": "METERS",
      "longitude": -89.2849
    },
    {
      "elevation": 4.3,
      "mindate": "2024-01-01",
      "maxdate": "2025-03-07",
      "latitude": 30.410194,
      "name": "BILOXI 1.8 ESE, MS US",
      "datacoverage": 0.8832,
      "id": "GHCND:US1MSHR0053",
      "elevationUnit": "METERS",
      "longitude": -88.90295
    },
    {
      "elevation": 30.5,
      "mindate": "2024-03-01",
      "maxdate": "2025-03-07",
      "latitude": 30.505405,
      "name": "GULFPORT 10.0 NW, MS US",
      "datacoverage": 1,
      "id": "GHCND:US1MSHR0054",
      "elevationUnit": "METERS",
      "longitude": -89.162505
    },
    {
      "elevation": 30.2,
      "mindate": "2008-08-01",
      "maxdate": "2016-11-29",
      "latitude": 32.788889,
      "name": "ROLLING FORK 16.1 WSW, MS US",
      "datacoverage": 0.1897,
      "id": "GHCND:US1MSIS0001",
      "elevationUnit": "METERS",
      "longitude": -91.115833
    },
    {
      "elevation": 110,
      "mindate": "2010-02-01",
      "maxdate": "2025-03-07",
      "latitude": 34.372586,
      "name": "MANTACHIE 3.4 N, MS US",
      "datacoverage": 1,
      "id": "GHCND:US1MSIT0001",
      "elevationUnit": "METERS",
      "longitude": -88.493519
    },
    {
      "elevation": 4,
      "mindate": "2008-08-01",
      "maxdate": "2009-07-26",
      "latitude": 30.40919,
      "name": "OCEAN SPRINGS 3.0 E, MS US",
      "datacoverage": 1,
      "id": "GHCND:US1MSJC0001",
      "elevationUnit": "METERS",
      "longitude": -88.751099
    },
    {
      "elevation": 4,
      "mindate": "2008-09-01",
      "maxdate": "2025-03-06",
      "latitude": 30.41022,
      "name": "OCEAN SPRINGS 3.3 E, MS US",
      "datacoverage": 1,
      "id": "GHCND:US1MSJC0002",
      "elevationUnit": "METERS",
      "longitude": -88.74588
    },
    {
      "elevation": 7.9,
      "mindate": "2009-02-01",
      "maxdate": "2022-11-16",
      "latitude": 30.44715283,
      "name": "ST. MARTIN 0.7 NNW, MS US",
      "datacoverage": 1,
      "id": "GHCND:US1MSJC0007",
      "elevationUnit": "METERS",
      "longitude": -88.8742234
    },
    {
      "elevation": 6.1,
      "mindate": "2009-02-01",
      "maxdate": "2023-02-22",
      "latitude": 30.368724,
      "name": "OCEAN SPRINGS 3.2 SE, MS US",
      "datacoverage": 1,
      "id": "GHCND:US1MSJC0008",
      "elevationUnit": "METERS",
      "longitude": -88.769032
    },
    {
      "elevation": 1.2,
      "mindate": "2009-02-01",
      "maxdate": "2010-09-26",
      "latitude": 30.392207,
      "name": "MOSS POINT 2.5 SSW, MS US",
      "datacoverage": 0.9819,
      "id": "GHCND:US1MSJC0010",
      "elevationUnit": "METERS",
      "longitude": -88.543804
    },
    {
      "elevation": 1.5,
      "mindate": "2009-02-01",
      "maxdate": "2025-03-07",
      "latitude": 30.380203,
      "name": "OCEAN SPRINGS 3.6 ESE, MS US",
      "datacoverage": 1,
      "id": "GHCND:US1MSJC0012",
      "elevationUnit": "METERS",
      "longitude": -88.748659
    },
    {
      "elevation": 25.9,
      "mindate": "2009-03-01",
      "maxdate": "2014-01-12",
      "latitude": 30.593339,
      "name": "VANCLEAVE 4.1 NNW, MS US",
      "datacoverage": 0.6771,
      "id": "GHCND:US1MSJC0013",
      "elevationUnit": "METERS",
      "longitude": -88.701687
    },
    {
      "elevation": 2.1,
      "mindate": "2009-02-01",
      "maxdate": "2024-09-12",
      "latitude": 30.408164,
      "name": "OCEAN SPRINGS 1.7 W, MS US",
      "datacoverage": 0.9819,
      "id": "GHCND:US1MSJC0015",
      "elevationUnit": "METERS",
      "longitude": -88.830255
    },
    {
      "elevation": 6.7,
      "mindate": "2009-03-01",
      "maxdate": "2015-10-27",
      "latitude": 30.4626,
      "name": "GAUTIER 5.1 N, MS US",
      "datacoverage": 0.9996,
      "id": "GHCND:US1MSJC0016",
      "elevationUnit": "METERS",
      "longitude": -88.6465
    },
    {
      "elevation": 20.7,
      "mindate": "2009-04-01",
      "maxdate": "2012-06-16",
      "latitude": 30.526842,
      "name": "MOSS POINT 10.2 NE, MS US",
      "datacoverage": 0.9744,
      "id": "GHCND:US1MSJC0017",
      "elevationUnit": "METERS",
      "longitude": -88.404335
    },
    {
      "elevation": 5.2,
      "mindate": "2011-01-01",
      "maxdate": "2025-03-04",
      "latitude": 30.459497,
      "name": "GAUTIER 4.9 N, MS US",
      "datacoverage": 0.687,
      "id": "GHCND:US1MSJC0022",
      "elevationUnit": "METERS",
      "longitude": -88.64758
    },
    {
      "elevation": 13.7,
      "mindate": "2016-05-01",
      "maxdate": "2018-12-09",
      "latitude": 30.4959,
      "name": "VANCLEAVE 9.5 WSW, MS US",
      "datacoverage": 0.9995,
      "id": "GHCND:US1MSJC0023",
      "elevationUnit": "METERS",
      "longitude": -88.8171
    },
    {
      "elevation": 6.4,
      "mindate": "1998-06-17",
      "maxdate": "2024-03-10",
      "latitude": 30.41054,
      "name": "OCEAN SPRINGS 1.2 WNW, MS US",
      "datacoverage": 0.8463,
      "id": "GHCND:US1MSJC0024",
      "elevationUnit": "METERS",
      "longitude": -88.82207
    },
    {
      "elevation": 3,
      "mindate": "2020-06-30",
      "maxdate": "2023-10-18",
      "latitude": 30.4429577,
      "name": "MOSS POINT 1.2 NNW, MS US",
      "datacoverage": 0.8333,
      "id": "GHCND:US1MSJC0027",
      "elevationUnit": "METERS",
      "longitude": -88.5340781
    },
    {
      "elevation": 28.7,
      "mindate": "2021-03-14",
      "maxdate": "2025-03-05",
      "latitude": 30.5617078,
      "name": "VANCLEAVE 1.6 NNE, MS US",
      "datacoverage": 0.7736,
      "id": "GHCND:US1MSJC0028",
      "elevationUnit": "METERS",
      "longitude": -88.6529912
    },
    {
      "elevation": 7,
      "mindate": "2021-06-17",
      "maxdate": "2025-03-07",
      "latitude": 30.3521,
      "name": "PASCAGOULA 1.4 SE, MS US",
      "datacoverage": 1,
      "id": "GHCND:US1MSJC0031",
      "elevationUnit": "METERS",
      "longitude": -88.5314
    },
    {
      "elevation": 14,
      "mindate": "2020-01-25",
      "maxdate": "2025-03-05",
      "latitude": 30.43051,
      "name": "OCEAN SPRINGS 2.5 NW, MS US",
      "datacoverage": 0.7776,
      "id": "GHCND:US1MSJC0032",
      "elevationUnit": "METERS",
      "longitude": -88.833353
    },
    {
      "elevation": 20.1,
      "mindate": "2021-10-01",
      "maxdate": "2024-05-05",
      "latitude": 30.40571,
      "name": "OCEAN SPRINGS 2.1 E, MS US",
      "datacoverage": 0.2503,
      "id": "GHCND:US1MSJC0035",
      "elevationUnit": "METERS",
      "longitude": -88.76659
    }
  ]
}
