{
  "metadata": {
    "resultset": {
      "offset": 129700,
      "count": 154115,
      "limit": 100
    }
  },
  "results": [
    {
      "elevation": 288.6,
      "mindate": "1893-05-01",
      "maxdate": "1896-10-31",
      "latitude": 38.1,
      "name": "GREENDALE, KY US",
      "datacoverage": 0.9987,
      "id": "GHCND:USC00153408",
      "elevationUnit": "METERS",
      "longitude": -84.53333
    },
    {
      "elevation": 128,
      "mindate": "2013-01-01",
      "maxdate": "2015-10-19",
      "latitude": 37.3655,
      "name": "GREEN RIVER POWER STATION, KY US",
      "datacoverage": 1,
      "id": "GHCND:USC00153426",
      "elevationUnit": "METERS",
      "longitude": -87.1233
    },
    {
      "elevation": 178.3,
      "mindate": "1889-01-01",
      "maxdate": "2025-03-06",
      "latitude": 37.2571,
      "name": "GREENSBURG, KY US",
      "datacoverage": 1,
      "id": "GHCND:USC00153430",
      "elevationUnit": "METERS",
      "longitude": -85.5012
    },
    {
      "elevation": 213.4,
      "mindate": "1947-11-01",
      "maxdate": "2010-12-31",
      "latitude": 37.23333,
      "name": "GREENSBURG, KY US",
      "datacoverage": 1,
      "id": "GHCND:USC00153435",
      "elevationUnit": "METERS",
      "longitude": -85.55
    },
    {
      "elevation": 160.9,
      "mindate": "1919-10-01",
      "maxdate": "1961-07-31",
      "latitude": 38.64812,
      "name": "GREENUP LOCKS AND DAM, KY US",
      "datacoverage": 0.9462,
      "id": "GHCND:USC00153443",
      "elevationUnit": "METERS",
      "longitude": -82.86115
    },
    {
      "elevation": 167.6,
      "mindate": "1916-09-01",
      "maxdate": "1985-07-31",
      "latitude": 37.18333,
      "name": "GREENVILLE 2 W, KY US",
      "datacoverage": 0.9432,
      "id": "GHCND:USC00153451",
      "elevationUnit": "METERS",
      "longitude": -87.21667
    },
    {
      "elevation": 225.9,
      "mindate": "1940-04-01",
      "maxdate": "1951-09-30",
      "latitude": 37.05,
      "name": "HALEYS MILL, KY US",
      "datacoverage": 0.3696,
      "id": "GHCND:USC00153539",
      "elevationUnit": "METERS",
      "longitude": -87.33333
    },
    {
      "elevation": 217.9,
      "mindate": "1974-01-01",
      "maxdate": "2010-12-31",
      "latitude": 37.7822,
      "name": "HARDINSBURG, KY US",
      "datacoverage": 1,
      "id": "GHCND:USC00153604",
      "elevationUnit": "METERS",
      "longitude": -86.4622
    },
    {
      "elevation": 366.1,
      "mindate": "1918-09-01",
      "maxdate": "1952-02-19",
      "latitude": 36.83333,
      "name": "HARLAN, KY US",
      "datacoverage": 0.3781,
      "id": "GHCND:USC00153622",
      "elevationUnit": "METERS",
      "longitude": -83.31667
    },
    {
      "elevation": 378,
      "mindate": "2017-01-01",
      "maxdate": "2020-01-20",
      "latitude": 36.8058,
      "name": "HARLAN 3 S, KY US",
      "datacoverage": 0.9993,
      "id": "GHCND:USC00153623",
      "elevationUnit": "METERS",
      "longitude": -83.3441
    },
    {
      "elevation": 365.8,
      "mindate": "1982-01-01",
      "maxdate": "2018-02-11",
      "latitude": 36.81444,
      "name": "HARLAN KSP POST 10, KY US",
      "datacoverage": 1,
      "id": "GHCND:USC00153629",
      "elevationUnit": "METERS",
      "longitude": -83.31444
    },
    {
      "mindate": "1893-01-01",
      "maxdate": "1895-05-31",
      "latitude": 37.75,
      "name": "HARRODSBURG, KY US",
      "datacoverage": 1,
      "id": "GHCND:USC00153645",
      "longitude": -84.85
    },
    {
      "elevation": 131.1,
      "mindate": "1938-09-01",
      "maxdate": "1988-10-31",
      "latitude": 37.53333,
      "name": "HARTFORD 6 NW, KY US",
      "datacoverage": 0.9966,
      "id": "GHCND:USC00153652",
      "elevationUnit": "METERS",
      "longitude": -86.9
    },
    {
      "elevation": 264.9,
      "mindate": "1913-10-01",
      "maxdate": "1951-09-30",
      "latitude": 37.25,
      "name": "HAZARD, KY US",
      "datacoverage": 0.7478,
      "id": "GHCND:USC00153709",
      "elevationUnit": "METERS",
      "longitude": -83.2
    },
    {
      "elevation": 404.8,
      "mindate": "1981-01-01",
      "maxdate": "2016-11-17",
      "latitude": 37.298405,
      "name": "HAZARD STATE POLICE, KY US",
      "datacoverage": 1,
      "id": "GHCND:USC00153712",
      "elevationUnit": "METERS",
      "longitude": -83.215822
    },
    {
      "elevation": 310.9,
      "mindate": "2011-11-01",
      "maxdate": "2011-11-30",
      "latitude": 37.2511,
      "name": "HAZARD NUMBER 3, KY US",
      "datacoverage": 1,
      "id": "GHCND:USC00153713",
      "elevationUnit": "METERS",
      "longitude": -83.1883
    },
    {
      "elevation": 268.2,
      "mindate": "1950-02-01",
      "maxdate": "2025-02-21",
      "latitude": 37.2471,
      "name": "HAZARD WATER WKS, KY US",
      "datacoverage": 1,
      "id": "GHCND:USC00153714",
      "elevationUnit": "METERS",
      "longitude": -83.1817
    },
    {
      "elevation": 307.8,
      "mindate": "1984-01-01",
      "maxdate": "2002-10-31",
      "latitude": 37.78333,
      "name": "HAZEL GREEN 2 SW, KY US",
      "datacoverage": 0.9993,
      "id": "GHCND:USC00153716",
      "elevationUnit": "METERS",
      "longitude": -83.45
    },
    {
      "elevation": 262.1,
      "mindate": "1941-05-01",
      "maxdate": "1950-05-31",
      "latitude": 38.4,
      "name": "HEADQUARTERS, KY US",
      "datacoverage": 0.9995,
      "id": "GHCND:USC00153722",
      "elevationUnit": "METERS",
      "longitude": -84.11667
    },
    {
      "elevation": 202.7,
      "mindate": "1932-01-01",
      "maxdate": "2010-12-31",
      "latitude": 37.55,
      "name": "HEIDELBERG, KY US",
      "datacoverage": 1,
      "id": "GHCND:USC00153741",
      "elevationUnit": "METERS",
      "longitude": -83.76667
    },
    {
      "elevation": 350.5,
      "mindate": "2007-01-01",
      "maxdate": "2011-08-04",
      "latitude": 37.5787,
      "name": "HEIDELBERG 2 N, KY US",
      "datacoverage": 1,
      "id": "GHCND:USC00153744",
      "elevationUnit": "METERS",
      "longitude": -83.7659
    },
    {
      "elevation": 136.9,
      "mindate": "1894-01-01",
      "maxdate": "2023-10-31",
      "latitude": 37.7558,
      "name": "HENDERSON 8 SSW, KY US",
      "datacoverage": 1,
      "id": "GHCND:USC00153762",
      "elevationUnit": "METERS",
      "longitude": -87.6455
    },
    {
      "elevation": 128,
      "mindate": "1981-05-01",
      "maxdate": "2021-04-18",
      "latitude": 37.7922,
      "name": "HENDERSON STATE POLICE, KY US",
      "datacoverage": 1,
      "id": "GHCND:USC00153768",
      "elevationUnit": "METERS",
      "longitude": -87.5708
    },
    {
      "mindate": "1893-01-01",
      "maxdate": "1895-09-30",
      "latitude": 37.71667,
      "name": "HENDRICKS, KY US",
      "datacoverage": 0.9104,
      "id": "GHCND:USC00153781",
      "longitude": -83.1
    },
    {
      "elevation": 170.7,
      "mindate": "1948-08-01",
      "maxdate": "2025-03-06",
      "latitude": 36.6702,
      "name": "HERNDON 5 S, KY US",
      "datacoverage": 1,
      "id": "GHCND:USC00153798",
      "elevationUnit": "METERS",
      "longitude": -87.5588
    },
    {
      "elevation": 116.1,
      "mindate": "1950-01-01",
      "maxdate": "1981-01-31",
      "latitude": 36.56667,
      "name": "HICKMAN 1 E, KY US",
      "datacoverage": 0.9944,
      "id": "GHCND:USC00153816",
      "elevationUnit": "METERS",
      "longitude": -89.16667
    },
    {
      "elevation": 134.1,
      "mindate": "1949-01-01",
      "maxdate": "1962-03-31",
      "latitude": 36.8,
      "name": "HICKSVILLE, KY US",
      "datacoverage": 1,
      "id": "GHCND:USC00153821",
      "elevationUnit": "METERS",
      "longitude": -88.5
    },
    {
      "elevation": 164.6,
      "mindate": "1901-01-01",
      "maxdate": "1996-01-31",
      "latitude": 37.81667,
      "name": "HIGH BRIDGE LOCK 7, KY US",
      "datacoverage": 0.9608,
      "id": "GHCND:USC00153837",
      "elevationUnit": "METERS",
      "longitude": -84.71667
    },
    {
      "elevation": 243.8,
      "mindate": "2008-01-01",
      "maxdate": "2017-05-25",
      "latitude": 38.3217,
      "name": "HILLSBORO, KY US",
      "datacoverage": 0.9595,
      "id": "GHCND:USC00153840",
      "elevationUnit": "METERS",
      "longitude": -83.6641
    },
    {
      "elevation": 281,
      "mindate": "1966-03-01",
      "maxdate": "1975-06-30",
      "latitude": 37.45,
      "name": "HINDMAN 11 NNE, KY US",
      "datacoverage": 0.9993,
      "id": "GHCND:USC00153896",
      "elevationUnit": "METERS",
      "longitude": -82.88333
    },
    {
      "elevation": 363,
      "mindate": "1948-01-01",
      "maxdate": "1962-01-09",
      "latitude": 37.33333,
      "name": "HINDMAN, KY US",
      "datacoverage": 0.9997,
      "id": "GHCND:USC00153899",
      "elevationUnit": "METERS",
      "longitude": -82.98333
    },
    {
      "elevation": 225.6,
      "mindate": "1940-02-01",
      "maxdate": "1945-07-29",
      "latitude": 37.566667,
      "name": "HODGENVILLE, KY US",
      "datacoverage": 0.8337,
      "id": "GHCND:USC00153925",
      "elevationUnit": "METERS",
      "longitude": -85.766667
    },
    {
      "elevation": 240.2,
      "mindate": "1948-08-01",
      "maxdate": "2024-07-30",
      "latitude": 37.5316,
      "name": "HODGENVILLE LINCOLN P, KY US",
      "datacoverage": 1,
      "id": "GHCND:USC00153929",
      "elevationUnit": "METERS",
      "longitude": -85.735
    },
    {
      "elevation": 158.5,
      "mindate": "1896-05-01",
      "maxdate": "2025-02-17",
      "latitude": 36.84888,
      "name": "HOPKINSVILLE, KY US",
      "datacoverage": 1,
      "id": "GHCND:USC00153994",
      "elevationUnit": "METERS",
      "longitude": -87.52083
    },
    {
      "elevation": 295.7,
      "mindate": "1940-04-01",
      "maxdate": "2008-01-31",
      "latitude": 37.15,
      "name": "HYDEN, KY US",
      "datacoverage": 0.6953,
      "id": "GHCND:USC00154093",
      "elevationUnit": "METERS",
      "longitude": -83.36
    },
    {
      "elevation": 275.8,
      "mindate": "2007-10-01",
      "maxdate": "2008-06-30",
      "latitude": 37.18528,
      "name": "HYDEN 4 NW, KY US",
      "datacoverage": 0.7776,
      "id": "GHCND:USC00154095",
      "elevationUnit": "METERS",
      "longitude": -83.43417
    },
    {
      "elevation": 359.7,
      "mindate": "1978-01-01",
      "maxdate": "1990-10-31",
      "latitude": 37.13333,
      "name": "HYDEN 4 E, KY US",
      "datacoverage": 0.9997,
      "id": "GHCND:USC00154097",
      "elevationUnit": "METERS",
      "longitude": -83.33333
    },
    {
      "elevation": 195.1,
      "mindate": "1951-01-01",
      "maxdate": "1962-12-31",
      "latitude": 37.86667,
      "name": "INEZ, KY US",
      "datacoverage": 0.9442,
      "id": "GHCND:USC00154134",
      "elevationUnit": "METERS",
      "longitude": -82.53333
    },
    {
      "elevation": 216.4,
      "mindate": "1990-07-01",
      "maxdate": "2025-03-07",
      "latitude": 37.8725,
      "name": "INEZ 2 E, KY US",
      "datacoverage": 1,
      "id": "GHCND:USC00154138",
      "elevationUnit": "METERS",
      "longitude": -82.5195
    },
    {
      "elevation": 180.1,
      "mindate": "1897-07-01",
      "maxdate": "1973-12-31",
      "latitude": 37.88333,
      "name": "IRVINGTON, KY US",
      "datacoverage": 0.9967,
      "id": "GHCND:USC00154165",
      "elevationUnit": "METERS",
      "longitude": -86.28333
    },
    {
      "elevation": 204.2,
      "mindate": "1977-11-01",
      "maxdate": "2011-12-30",
      "latitude": 37.57528,
      "name": "IVEL, KY US",
      "datacoverage": 0.9732,
      "id": "GHCND:USC00154180",
      "elevationUnit": "METERS",
      "longitude": -82.66278
    },
    {
      "elevation": 227.1,
      "mindate": "1894-05-01",
      "maxdate": "1984-04-30",
      "latitude": 37.55,
      "name": "JACKSON, KY US",
      "datacoverage": 0.6362,
      "id": "GHCND:USC00154196",
      "elevationUnit": "METERS",
      "longitude": -83.38333
    },
    {
      "elevation": 271.3,
      "mindate": "1971-01-01",
      "maxdate": "2025-02-28",
      "latitude": 37.0055,
      "name": "JAMESTOWN WWTP, KY US",
      "datacoverage": 1,
      "id": "GHCND:USC00154208",
      "elevationUnit": "METERS",
      "longitude": -85.0616
    },
    {
      "mindate": "1925-01-01",
      "maxdate": "1951-05-31",
      "latitude": 37.2,
      "name": "JENKINS, KY US",
      "datacoverage": 0.8408,
      "id": "GHCND:USC00154236",
      "longitude": -82.6
    },
    {
      "elevation": 488,
      "mindate": "1948-08-01",
      "maxdate": "1950-09-30",
      "latitude": 37.16667,
      "name": "JENKINS WATER WORKS, KY US",
      "datacoverage": 0.885,
      "id": "GHCND:USC00154241",
      "elevationUnit": "METERS",
      "longitude": -82.63333
    },
    {
      "elevation": 335.3,
      "mindate": "1940-04-01",
      "maxdate": "2014-09-12",
      "latitude": 37.1614,
      "name": "JEREMIAH 1 S, KY US",
      "datacoverage": 0.9486,
      "id": "GHCND:USC00154255",
      "elevationUnit": "METERS",
      "longitude": -82.9364
    },
    {
      "elevation": 287.1,
      "mindate": "1978-01-01",
      "maxdate": "1984-09-30",
      "latitude": 38.65,
      "name": "JONESVILLE 1 S, KY US",
      "datacoverage": 0.9994,
      "id": "GHCND:USC00154309",
      "elevationUnit": "METERS",
      "longitude": -84.78333
    },
    {
      "elevation": 265.2,
      "mindate": "1941-05-01",
      "maxdate": "2010-12-31",
      "latitude": 37.93972,
      "name": "KEENE 1 WSW, KY US",
      "datacoverage": 1,
      "id": "GHCND:USC00154369",
      "elevationUnit": "METERS",
      "longitude": -84.65972
    },
    {
      "elevation": 147.5,
      "mindate": "2005-05-01",
      "maxdate": "2021-03-31",
      "latitude": 36.76,
      "name": "KENLAKE RESORT, KY US",
      "datacoverage": 1,
      "id": "GHCND:USC00154375",
      "elevationUnit": "METERS",
      "longitude": -88.1386
    },
    {
      "elevation": 298.4,
      "mindate": "2002-09-01",
      "maxdate": "2008-06-30",
      "latitude": 36.69389,
      "name": "KETTLE, KY US",
      "datacoverage": 1,
      "id": "GHCND:USC00154376",
      "elevationUnit": "METERS",
      "longitude": -85.41944
    },
    {
      "elevation": 109.7,
      "mindate": "1945-01-01",
      "maxdate": "1962-03-31",
      "latitude": 37.0147,
      "name": "GILBERTSVILLE KY DAM, KY US",
      "datacoverage": 1,
      "id": "GHCND:USC00154414",
      "elevationUnit": "METERS",
      "longitude": -88.2677
    },
    {
      "elevation": 396.2,
      "mindate": "2001-11-01",
      "maxdate": "2002-07-31",
      "latitude": 37.3975,
      "name": "KINGS MOUNTAIN 2 NE, KY US",
      "datacoverage": 1,
      "id": "GHCND:USC00154433",
      "elevationUnit": "METERS",
      "longitude": -84.65306
    },
    {
      "elevation": 310.9,
      "mindate": "2009-11-01",
      "maxdate": "2025-03-06",
      "latitude": 37.0245,
      "name": "KNOB LICK 4 S, KY US",
      "datacoverage": 1,
      "id": "GHCND:USC00154449",
      "elevationUnit": "METERS",
      "longitude": -85.6987
    },
    {
      "elevation": 140.2,
      "mindate": "1982-01-01",
      "maxdate": "1985-12-31",
      "latitude": 37.06667,
      "name": "KUTTAWA 2 NE, KY US",
      "datacoverage": 1,
      "id": "GHCND:USC00154453",
      "elevationUnit": "METERS",
      "longitude": -88.16667
    },
    {
      "elevation": 114,
      "mindate": "2006-10-01",
      "maxdate": "2007-04-30",
      "latitude": 37.1075,
      "name": "LA CENTER 2 N, KY US",
      "datacoverage": 0.8614,
      "id": "GHCND:USC00154580",
      "elevationUnit": "METERS",
      "longitude": -88.97861
    },
    {
      "elevation": 137.8,
      "mindate": "2006-08-01",
      "maxdate": "2008-11-30",
      "latitude": 37.02583,
      "name": "LA CENTER 7 SSE, KY US",
      "datacoverage": 1,
      "id": "GHCND:USC00154593",
      "elevationUnit": "METERS",
      "longitude": -88.93333
    },
    {
      "elevation": 238,
      "mindate": "1893-01-01",
      "maxdate": "1985-06-30",
      "latitude": 38.43333,
      "name": "LA GRANGE, KY US",
      "datacoverage": 0.5451,
      "id": "GHCND:USC00154595",
      "elevationUnit": "METERS",
      "longitude": -85.36667
    },
    {
      "elevation": 259.1,
      "mindate": "1985-03-01",
      "maxdate": "2001-09-30",
      "latitude": 38.38333,
      "name": "LAGRANGE ST POLICE, KY US",
      "datacoverage": 0.9898,
      "id": "GHCND:USC00154601",
      "elevationUnit": "METERS",
      "longitude": -85.4
    },
    {
      "elevation": 310.9,
      "mindate": "1925-09-01",
      "maxdate": "2010-12-31",
      "latitude": 37.61722,
      "name": "LANCASTER, KY US",
      "datacoverage": 1,
      "id": "GHCND:USC00154620",
      "elevationUnit": "METERS",
      "longitude": -84.57056
    },
    {
      "elevation": 207,
      "mindate": "1940-01-01",
      "maxdate": "1957-06-30",
      "latitude": 37.75,
      "name": "LAURA, KY US",
      "datacoverage": 1,
      "id": "GHCND:USC00154642",
      "elevationUnit": "METERS",
      "longitude": -82.43333
    },
    {
      "elevation": 245.4,
      "mindate": "2011-10-01",
      "maxdate": "2015-09-30",
      "latitude": 37.5725,
      "name": "LEBANON, KY US",
      "datacoverage": 0.6806,
      "id": "GHCND:USC00154649",
      "elevationUnit": "METERS",
      "longitude": -85.2557
    },
    {
      "elevation": 335.9,
      "mindate": "1962-01-01",
      "maxdate": "1963-03-31",
      "latitude": 37.33333,
      "name": "LEBURN 1 E, KY US",
      "datacoverage": 1,
      "id": "GHCND:USC00154672",
      "elevationUnit": "METERS",
      "longitude": -82.95
    },
    {
      "elevation": 189,
      "mindate": "1895-10-01",
      "maxdate": "2018-04-30",
      "latitude": 37.5108,
      "name": "LEITCHFIELD 2 N, KY US",
      "datacoverage": 1,
      "id": "GHCND:USC00154703",
      "elevationUnit": "METERS",
      "longitude": -86.2891
    },
    {
      "elevation": 132,
      "mindate": "2007-10-01",
      "maxdate": "2013-07-01",
      "latitude": 36.9925,
      "name": "LEWISBURG, KY US",
      "datacoverage": 0.3571,
      "id": "GHCND:USC00154720",
      "elevationUnit": "METERS",
      "longitude": -86.9447
    },
    {
      "elevation": 120.4,
      "mindate": "1996-01-01",
      "maxdate": "2015-02-14",
      "latitude": 37.8934,
      "name": "LEWISPORT 4 S, KY US",
      "datacoverage": 1,
      "id": "GHCND:USC00154732",
      "elevationUnit": "METERS",
      "longitude": -86.906
    },
    {
      "elevation": 265.2,
      "mindate": "1941-04-01",
      "maxdate": "2016-03-01",
      "latitude": 37.25083,
      "name": "LIBERTY, KY US",
      "datacoverage": 1,
      "id": "GHCND:USC00154755",
      "elevationUnit": "METERS",
      "longitude": -84.93278
    },
    {
      "elevation": 164.9,
      "mindate": "1951-10-01",
      "maxdate": "1952-05-31",
      "latitude": 37.91667,
      "name": "CLERMONT, KY US",
      "datacoverage": 1,
      "id": "GHCND:USC00154784",
      "elevationUnit": "METERS",
      "longitude": -85.66667
    },
    {
      "elevation": 158.8,
      "mindate": "1923-01-01",
      "maxdate": "1981-05-31",
      "latitude": 37.75,
      "name": "LITTLE HICKMAN LOCK, KY US",
      "datacoverage": 1,
      "id": "GHCND:USC00154825",
      "elevationUnit": "METERS",
      "longitude": -84.58333
    },
    {
      "elevation": 110,
      "mindate": "1975-04-01",
      "maxdate": "1976-05-31",
      "latitude": 37.48333,
      "name": "LIVERMORE, KY US",
      "datacoverage": 0.9819,
      "id": "GHCND:USC00154836",
      "elevationUnit": "METERS",
      "longitude": -87.13333
    },
    {
      "elevation": 133.2,
      "mindate": "2004-01-01",
      "maxdate": "2007-08-31",
      "latitude": 37.4941,
      "name": "LIVERMORE 1 ESE, KY US",
      "datacoverage": 1,
      "id": "GHCND:USC00154838",
      "elevationUnit": "METERS",
      "longitude": -87.1391
    },
    {
      "elevation": 160.9,
      "mindate": "1961-03-01",
      "maxdate": "2025-03-07",
      "latitude": 38.64812,
      "name": "GREENUP LOCKS AND DAM, KY US",
      "datacoverage": 1,
      "id": "GHCND:USC00154848",
      "elevationUnit": "METERS",
      "longitude": -82.86115
    },
    {
      "elevation": 149.4,
      "mindate": "1923-11-01",
      "maxdate": "2010-12-31",
      "latitude": 38.43333,
      "name": "LOCKPORT LOCK 2, KY US",
      "datacoverage": 1,
      "id": "GHCND:USC00154857",
      "elevationUnit": "METERS",
      "longitude": -84.97639
    },
    {
      "elevation": 235,
      "mindate": "1948-08-01",
      "maxdate": "1951-09-30",
      "latitude": 37.85,
      "name": "LOGLICK 1 S, KY US",
      "datacoverage": 1,
      "id": "GHCND:USC00154882",
      "elevationUnit": "METERS",
      "longitude": -84.03333
    },
    {
      "elevation": 390.8,
      "mindate": "1914-01-01",
      "maxdate": "2014-06-12",
      "latitude": 37.1475,
      "name": "LONDON, KY US",
      "datacoverage": 0.2017,
      "id": "GHCND:USC00154893",
      "elevationUnit": "METERS",
      "longitude": -84.0833
    },
    {
      "elevation": 370.3,
      "mindate": "1981-01-01",
      "maxdate": "2018-02-22",
      "latitude": 37.13583,
      "name": "LONDON STATE POLICE, KY US",
      "datacoverage": 1,
      "id": "GHCND:USC00154905",
      "elevationUnit": "METERS",
      "longitude": -84.10389
    },
    {
      "mindate": "1940-02-01",
      "maxdate": "1941-03-31",
      "latitude": 38.58333,
      "name": "LONG RIDGE, KY US",
      "datacoverage": 0.931,
      "id": "GHCND:USC00154914",
      "longitude": -84.81667
    },
    {
      "elevation": 207.6,
      "mindate": "1897-06-01",
      "maxdate": "1918-11-30",
      "latitude": 37.66667,
      "name": "LORETTO, KY US",
      "datacoverage": 0.9962,
      "id": "GHCND:USC00154938",
      "elevationUnit": "METERS",
      "longitude": -85.4
    },
    {
      "elevation": 198.1,
      "mindate": "1892-11-01",
      "maxdate": "1951-09-30",
      "latitude": 38.10861,
      "name": "LOUISA 2 S, KY US",
      "datacoverage": 0.6889,
      "id": "GHCND:USC00154943",
      "elevationUnit": "METERS",
      "longitude": -82.60278
    },
    {
      "elevation": 198.1,
      "mindate": "1951-09-01",
      "maxdate": "2010-12-31",
      "latitude": 38.10861,
      "name": "LOUISA 2 S, KY US",
      "datacoverage": 1,
      "id": "GHCND:USC00154946",
      "elevationUnit": "METERS",
      "longitude": -82.60278
    },
    {
      "elevation": 233.8,
      "mindate": "1996-12-01",
      "maxdate": "2025-03-07",
      "latitude": 38.12499,
      "name": "LOUISA 5 W, KY US",
      "datacoverage": 1,
      "id": "GHCND:USC00154948",
      "elevationUnit": "METERS",
      "longitude": -82.69341
    },
    {
      "elevation": 140.8,
      "mindate": "1955-01-01",
      "maxdate": "1982-04-14",
      "latitude": 38.23333,
      "name": "LOUISVILLE, KY US",
      "datacoverage": 0.9993,
      "id": "GHCND:USC00154949",
      "elevationUnit": "METERS",
      "longitude": -85.76667
    },
    {
      "elevation": 134.1,
      "mindate": "1948-06-01",
      "maxdate": "2025-03-07",
      "latitude": 38.2778,
      "name": "LOUISVILLE MCALPINE, KY US",
      "datacoverage": 1,
      "id": "GHCND:USC00154955",
      "elevationUnit": "METERS",
      "longitude": -85.7918
    },
    {
      "elevation": 161.8,
      "mindate": "1948-06-01",
      "maxdate": "1955-01-19",
      "latitude": 38.25,
      "name": "LOUISVILLE WEATHER BUREAU OFFICE, KY US",
      "datacoverage": 1,
      "id": "GHCND:USC00154956",
      "elevationUnit": "METERS",
      "longitude": -85.76667
    },
    {
      "elevation": 192.6,
      "mindate": "1997-01-01",
      "maxdate": "2025-03-06",
      "latitude": 38.1151,
      "name": "LOUISVILLE WEATHER FORECAST OFFICE, KY US",
      "datacoverage": 1,
      "id": "GHCND:USC00154958",
      "elevationUnit": "METERS",
      "longitude": -85.6445
    },
    {
      "elevation": 112.8,
      "mindate": "1925-04-01",
      "maxdate": "2010-12-31",
      "latitude": 36.96917,
      "name": "LOVELACEVILLE, KY US",
      "datacoverage": 1,
      "id": "GHCND:USC00154967",
      "elevationUnit": "METERS",
      "longitude": -88.83139
    },
    {
      "elevation": 225.9,
      "mindate": "1941-04-01",
      "maxdate": "1951-09-30",
      "latitude": 36.88333,
      "name": "LUCAS, KY US",
      "datacoverage": 0.6508,
      "id": "GHCND:USC00155002",
      "elevationUnit": "METERS",
      "longitude": -86.03333
    },
    {
      "elevation": 1216.2,
      "mindate": "1926-01-01",
      "maxdate": "1942-02-28",
      "latitude": 36.91667,
      "name": "LYNCH, KY US",
      "datacoverage": 0.9539,
      "id": "GHCND:USC00155048",
      "elevationUnit": "METERS",
      "longitude": -82.88333
    },
    {
      "elevation": 146.6,
      "mindate": "1906-01-01",
      "maxdate": "1910-10-31",
      "latitude": 36.56667,
      "name": "LYNNVILLE, KY US",
      "datacoverage": 1,
      "id": "GHCND:USC00155059",
      "elevationUnit": "METERS",
      "longitude": -88.58333
    },
    {
      "elevation": 129.5,
      "mindate": "1946-06-01",
      "maxdate": "2025-03-05",
      "latitude": 37.3475,
      "name": "MADISONVILLE, KY US",
      "datacoverage": 1,
      "id": "GHCND:USC00155067",
      "elevationUnit": "METERS",
      "longitude": -87.5238
    },
    {
      "elevation": 131.1,
      "mindate": "1981-10-01",
      "maxdate": "2010-12-31",
      "latitude": 37.22028,
      "name": "MADISONVILLE ST POL, KY US",
      "datacoverage": 1,
      "id": "GHCND:USC00155072",
      "elevationUnit": "METERS",
      "longitude": -87.42833
    },
    {
      "elevation": 231.6,
      "mindate": "1934-07-01",
      "maxdate": "2025-03-06",
      "latitude": 37.1318,
      "name": "MAMMOTH CAVE, KY US",
      "datacoverage": 1,
      "id": "GHCND:USC00155097",
      "elevationUnit": "METERS",
      "longitude": -86.1481
    },
    {
      "elevation": 136.9,
      "mindate": "1949-01-01",
      "maxdate": "1951-05-31",
      "latitude": 37.15,
      "name": "MANCHESTER, KY US",
      "datacoverage": 1,
      "id": "GHCND:USC00155110",
      "elevationUnit": "METERS",
      "longitude": -83.76667
    },
    {
      "elevation": 265.2,
      "mindate": "1901-01-01",
      "maxdate": "2010-12-31",
      "latitude": 37.15,
      "name": "MANCHESTER 4 W, KY US",
      "datacoverage": 1,
      "id": "GHCND:USC00155111",
      "elevationUnit": "METERS",
      "longitude": -83.81667
    },
    {
      "elevation": 174,
      "mindate": "1893-11-01",
      "maxdate": "1935-03-31",
      "latitude": 37.333333,
      "name": "MARION, KY US",
      "datacoverage": 0.9016,
      "id": "GHCND:USC00155148",
      "elevationUnit": "METERS",
      "longitude": -88.066667
    },
    {
      "elevation": 164.6,
      "mindate": "1981-01-01",
      "maxdate": "2025-03-07",
      "latitude": 37.31206,
      "name": "MARION 1 SSW, KY US",
      "datacoverage": 0.9879,
      "id": "GHCND:USC00155150",
      "elevationUnit": "METERS",
      "longitude": -88.09272
    },
    {
      "elevation": 195.1,
      "mindate": "1894-05-01",
      "maxdate": "2010-12-31",
      "latitude": 36.8425,
      "name": "MARROWBONE, KY US",
      "datacoverage": 1,
      "id": "GHCND:USC00155165",
      "elevationUnit": "METERS",
      "longitude": -85.5244
    },
    {
      "elevation": 200.9,
      "mindate": "1960-05-01",
      "maxdate": "1970-11-19",
      "latitude": 37.56667,
      "name": "MARTIN, KY US",
      "datacoverage": 0.9841,
      "id": "GHCND:USC00155171",
      "elevationUnit": "METERS",
      "longitude": -82.75
    },
    {
      "elevation": 192,
      "mindate": "1981-01-01",
      "maxdate": "2010-12-31",
      "latitude": 37.55,
      "name": "MARTIN 1 S, KY US",
      "datacoverage": 1,
      "id": "GHCND:USC00155175",
      "elevationUnit": "METERS",
      "longitude": -82.76667
    },
    {
      "mindate": "1893-01-01",
      "maxdate": "1895-08-31",
      "latitude": 36.83333,
      "name": "MATLOCK, KY US",
      "datacoverage": 0.7508,
      "id": "GHCND:USC00155184",
      "longitude": -86.48333
    },
    {
      "elevation": 110,
      "mindate": "1949-01-01",
      "maxdate": "1967-04-30",
      "latitude": 36.73333,
      "name": "MAYFIELD, KY US",
      "datacoverage": 0.9867,
      "id": "GHCND:USC00155230",
      "elevationUnit": "METERS",
      "longitude": -88.65
    }
  ]
}
