{
  "metadata": {
    "resultset": {
      "offset": 45800,
      "count": 154115,
      "limit": 100
    }
  },
  "results": [
    {
      "elevation": 21,
      "mindate": "1973-09-01",
      "maxdate": "1975-03-31",
      "latitude": 49.75,
      "name": "SQUAMISH ST DAVIDS, CA",
      "datacoverage": 0.8968,
      "id": "GHCND:CA001047669",
      "elevationUnit": "METERS",
      "longitude": -123
    },
    {
      "elevation": 6,
      "mindate": "1981-06-01",
      "maxdate": "1996-06-30",
      "latitude": 49.7333,
      "name": "SQUAMISH STP, CA",
      "datacoverage": 0.9724,
      "id": "GHCND:CA001047670",
      "elevationUnit": "METERS",
      "longitude": -123.15
    },
    {
      "elevation": 4,
      "mindate": "1986-08-01",
      "maxdate": "2005-10-31",
      "latitude": 49.7,
      "name": "SQUAMISH STP CENTRAL, CA",
      "datacoverage": 0.9999,
      "id": "GHCND:CA001047671",
      "elevationUnit": "METERS",
      "longitude": -123.1667
    },
    {
      "elevation": 46,
      "mindate": "1979-05-01",
      "maxdate": "2010-02-01",
      "latitude": 49.9,
      "name": "SQUAMISH UPPER, CA",
      "datacoverage": 0.7919,
      "id": "GHCND:CA001047672",
      "elevationUnit": "METERS",
      "longitude": -123.2833
    },
    {
      "elevation": 30,
      "mindate": "1990-04-01",
      "maxdate": "1991-09-30",
      "latitude": 49.8167,
      "name": "SQUAMISH 10 MILE, CA",
      "datacoverage": 0.9998,
      "id": "GHCND:CA001047673",
      "elevationUnit": "METERS",
      "longitude": -123.2
    },
    {
      "elevation": 52,
      "mindate": "1982-05-01",
      "maxdate": "2025-03-06",
      "latitude": 49.7833,
      "name": "SQUAMISH AUT0, CA",
      "datacoverage": 0.9901,
      "id": "GHCND:CA0010476F0",
      "elevationUnit": "METERS",
      "longitude": -123.1667
    },
    {
      "elevation": 7,
      "mindate": "1931-06-01",
      "maxdate": "2007-07-31",
      "latitude": 49.7667,
      "name": "STILLWATER POWER HOUSE, CA",
      "datacoverage": 0.9858,
      "id": "GHCND:CA001047770",
      "elevationUnit": "METERS",
      "longitude": -124.3167
    },
    {
      "elevation": 10,
      "mindate": "1975-09-01",
      "maxdate": "1996-12-31",
      "latitude": 49.7333,
      "name": "SQUAMISH GARIBALDI, CA",
      "datacoverage": 0.2109,
      "id": "GHCND:CA001047F6B",
      "elevationUnit": "METERS",
      "longitude": -123.15
    },
    {
      "elevation": 97,
      "mindate": "1960-06-01",
      "maxdate": "1993-12-31",
      "latitude": 49.7,
      "name": "TEXADA ISLAND A, CA",
      "datacoverage": 0.8039,
      "id": "GHCND:CA001048140",
      "elevationUnit": "METERS",
      "longitude": -124.5167
    },
    {
      "elevation": 671,
      "mindate": "1924-01-01",
      "maxdate": "1974-10-31",
      "latitude": 49.6167,
      "name": "TUNNEL CAMP, CA",
      "datacoverage": 0.9721,
      "id": "GHCND:CA001048310",
      "elevationUnit": "METERS",
      "longitude": -123.1333
    },
    {
      "elevation": 5,
      "mindate": "1983-09-01",
      "maxdate": "1984-01-31",
      "latitude": 50.25,
      "name": "WEST REDONDA ISLAND, CA",
      "datacoverage": 1,
      "id": "GHCND:CA001048816",
      "elevationUnit": "METERS",
      "longitude": -124.8167
    },
    {
      "elevation": 658,
      "mindate": "1976-11-01",
      "maxdate": "2024-04-28",
      "latitude": 50.1333,
      "name": "WHISTLER, CA",
      "datacoverage": 0.9895,
      "id": "GHCND:CA001048898",
      "elevationUnit": "METERS",
      "longitude": -122.95
    },
    {
      "elevation": 4,
      "mindate": "1960-04-01",
      "maxdate": "2006-02-28",
      "latitude": 49.5833,
      "name": "WOODFIBRE, CA",
      "datacoverage": 0.9311,
      "id": "GHCND:CA001048974",
      "elevationUnit": "METERS",
      "longitude": -123.8833
    },
    {
      "elevation": 869,
      "mindate": "1978-08-01",
      "maxdate": "1980-05-31",
      "latitude": 49.6833,
      "name": "WOODFIBRE HENRIETTA LK, CA",
      "datacoverage": 1,
      "id": "GHCND:CA001048975",
      "elevationUnit": "METERS",
      "longitude": -123.3167
    },
    {
      "elevation": 26,
      "mindate": "1987-01-01",
      "maxdate": "1993-06-30",
      "latitude": 49.7333,
      "name": "HARDY ISLAND",
      "datacoverage": 0.9363,
      "id": "GHCND:CA00104LC3N",
      "elevationUnit": "METERS",
      "longitude": -124.1833
    },
    {
      "elevation": 61,
      "mindate": "1987-08-01",
      "maxdate": "1989-06-30",
      "latitude": 49.8333,
      "name": "SQUAMISH PARADISE VALLEY, CA",
      "datacoverage": 0.6957,
      "id": "GHCND:CA00104PF64",
      "elevationUnit": "METERS",
      "longitude": -123.15
    },
    {
      "elevation": 89,
      "mindate": "1925-08-01",
      "maxdate": "1992-09-01",
      "latitude": 51.9333,
      "name": "CAPE ST JAMES",
      "datacoverage": 0.9305,
      "id": "GHCND:CA001051350",
      "elevationUnit": "METERS",
      "longitude": -131.0167
    },
    {
      "elevation": 88,
      "mindate": "1992-11-01",
      "maxdate": "2024-04-28",
      "latitude": 51.9333,
      "name": "CAPE ST JAMES CS",
      "datacoverage": 0.8898,
      "id": "GHCND:CA001051351",
      "elevationUnit": "METERS",
      "longitude": -131.0167
    },
    {
      "elevation": 76,
      "mindate": "1980-04-01",
      "maxdate": "1982-03-31",
      "latitude": 53.5,
      "name": "CINOLA MINE SITE, CA",
      "datacoverage": 0.9173,
      "id": "GHCND:CA001051630",
      "elevationUnit": "METERS",
      "longitude": -132.1333
    },
    {
      "elevation": 14,
      "mindate": "1939-02-01",
      "maxdate": "1958-01-31",
      "latitude": 53.3667,
      "name": "DEAD TREE POINT, CA",
      "datacoverage": 1,
      "id": "GHCND:CA001052310",
      "elevationUnit": "METERS",
      "longitude": -131.9333
    },
    {
      "elevation": 8,
      "mindate": "1992-11-01",
      "maxdate": "1995-06-14",
      "latitude": 52.5333,
      "name": "HOSKINS ISLET",
      "datacoverage": 0.669,
      "id": "GHCND:CA001053608",
      "elevationUnit": "METERS",
      "longitude": -131.55
    },
    {
      "elevation": 2,
      "mindate": "1908-07-01",
      "maxdate": "1920-08-31",
      "latitude": 52.2833,
      "name": "IKEDA BAY, CA",
      "datacoverage": 0.9381,
      "id": "GHCND:CA001053645",
      "elevationUnit": "METERS",
      "longitude": -131.1167
    },
    {
      "elevation": 43,
      "mindate": "1936-07-01",
      "maxdate": "2024-04-28",
      "latitude": 54.25,
      "name": "LANGARA, CA",
      "datacoverage": 0.9989,
      "id": "GHCND:CA001054500",
      "elevationUnit": "METERS",
      "longitude": -133.05
    },
    {
      "elevation": 44,
      "mindate": "1992-11-01",
      "maxdate": "2024-04-28",
      "latitude": 54.25,
      "name": "LANGARA ISLAND RCS, CA",
      "datacoverage": 0.9076,
      "id": "GHCND:CA001054503",
      "elevationUnit": "METERS",
      "longitude": -133.0667
    },
    {
      "elevation": 6,
      "mindate": "1897-06-01",
      "maxdate": "2008-06-30",
      "latitude": 54.0333,
      "name": "MASSET AIRPORT, CA",
      "datacoverage": 0.6617,
      "id": "GHCND:CA001054920",
      "elevationUnit": "METERS",
      "longitude": -132.1333
    },
    {
      "elevation": 13,
      "mindate": "1944-10-01",
      "maxdate": "2016-06-13",
      "latitude": 54,
      "name": "MASSET A",
      "datacoverage": 0.1593,
      "id": "GHCND:CA001054925",
      "elevationUnit": "METERS",
      "longitude": -132.1667
    },
    {
      "elevation": 12,
      "mindate": "1965-09-01",
      "maxdate": "1966-05-31",
      "latitude": 54.0333,
      "name": "MASSET INDIAN DAY SCHOOL",
      "datacoverage": 1,
      "id": "GHCND:CA001054926",
      "elevationUnit": "METERS",
      "longitude": -132.1833
    },
    {
      "elevation": 12,
      "mindate": "1971-11-01",
      "maxdate": "1981-02-28",
      "latitude": 54.0333,
      "name": "MASSET CFS",
      "datacoverage": 0.9824,
      "id": "GHCND:CA0010549BN",
      "elevationUnit": "METERS",
      "longitude": -132.0667
    },
    {
      "elevation": 2,
      "mindate": "1981-09-01",
      "maxdate": "1986-05-31",
      "latitude": 54.0333,
      "name": "MASSET TOW HILL",
      "datacoverage": 1,
      "id": "GHCND:CA001054RKF",
      "elevationUnit": "METERS",
      "longitude": -131.9667
    },
    {
      "elevation": 3,
      "mindate": "1991-04-01",
      "maxdate": "2007-12-31",
      "latitude": 52.9333,
      "name": "MORESBY ISLAND MITCHELL INLET, CA",
      "datacoverage": 0.9849,
      "id": "GHCND:CA0010551R8",
      "elevationUnit": "METERS",
      "longitude": -132.1333
    },
    {
      "elevation": 20,
      "mindate": "1980-06-01",
      "maxdate": "1998-07-31",
      "latitude": 53.05,
      "name": "PALLANT CREEK, CA",
      "datacoverage": 0.9955,
      "id": "GHCND:CA001055950",
      "elevationUnit": "METERS",
      "longitude": -132.05
    },
    {
      "elevation": 16,
      "mindate": "1967-01-01",
      "maxdate": "1988-02-29",
      "latitude": 53.6833,
      "name": "PORT CLEMENTS, CA",
      "datacoverage": 0.9993,
      "id": "GHCND:CA001056250",
      "elevationUnit": "METERS",
      "longitude": -132.1833
    },
    {
      "elevation": 12,
      "mindate": "1914-10-01",
      "maxdate": "1948-12-31",
      "latitude": 53.25,
      "name": "QUEEN CHARLOTTE CITY",
      "datacoverage": 0.9683,
      "id": "GHCND:CA001056590",
      "elevationUnit": "METERS",
      "longitude": -132.0833
    },
    {
      "elevation": 3,
      "mindate": "1974-07-01",
      "maxdate": "1975-11-30",
      "latitude": 53.3,
      "name": "RENNELL SOUND, CA",
      "datacoverage": 0.9989,
      "id": "GHCND:CA001056742",
      "elevationUnit": "METERS",
      "longitude": -132.4167
    },
    {
      "elevation": 7,
      "mindate": "1994-12-01",
      "maxdate": "2024-04-28",
      "latitude": 54.1667,
      "name": "ROSE SPIT AUT",
      "datacoverage": 0.8984,
      "id": "GHCND:CA001056869",
      "elevationUnit": "METERS",
      "longitude": -131.6667
    },
    {
      "elevation": 6,
      "mindate": "1945-09-01",
      "maxdate": "2017-03-31",
      "latitude": 53.25,
      "name": "SANDSPIT A, CA",
      "datacoverage": 0.967,
      "id": "GHCND:CA001057050",
      "elevationUnit": "METERS",
      "longitude": -131.8167
    },
    {
      "elevation": 6,
      "mindate": "2010-06-01",
      "maxdate": "2024-04-28",
      "latitude": 53.25,
      "name": "SANDSPIT, CA",
      "datacoverage": 0.9998,
      "id": "GHCND:CA001057052",
      "elevationUnit": "METERS",
      "longitude": -131.8167
    },
    {
      "elevation": 6,
      "mindate": "2002-01-01",
      "maxdate": "2013-04-08",
      "latitude": 53.25,
      "name": "SANDSPIT AWOS, CA",
      "datacoverage": 0.9636,
      "id": "GHCND:CA001057055",
      "elevationUnit": "METERS",
      "longitude": -131.8167
    },
    {
      "elevation": 5,
      "mindate": "1992-11-01",
      "maxdate": "1997-09-21",
      "latitude": 52.45,
      "name": "SCUDDER POINT",
      "datacoverage": 0.6199,
      "id": "GHCND:CA001057133",
      "elevationUnit": "METERS",
      "longitude": -131.2333
    },
    {
      "elevation": 15,
      "mindate": "1973-07-01",
      "maxdate": "1990-03-31",
      "latitude": 52.8833,
      "name": "SEWELL INLET, CA",
      "datacoverage": 0.9502,
      "id": "GHCND:CA001057192",
      "elevationUnit": "METERS",
      "longitude": -131.9833
    },
    {
      "elevation": 15,
      "mindate": "1963-01-01",
      "maxdate": "1984-10-31",
      "latitude": 52.7667,
      "name": "TASU SOUND",
      "datacoverage": 1,
      "id": "GHCND:CA001058003",
      "elevationUnit": "METERS",
      "longitude": -132.05
    },
    {
      "elevation": 5,
      "mindate": "1950-01-01",
      "maxdate": "1999-01-31",
      "latitude": 53.5,
      "name": "TLELL, CA",
      "datacoverage": 0.9983,
      "id": "GHCND:CA001058190",
      "elevationUnit": "METERS",
      "longitude": -131.95
    },
    {
      "elevation": 3,
      "mindate": "1974-07-01",
      "maxdate": "2015-06-30",
      "latitude": 53.7667,
      "name": "SEWALL MASSET INLET, CA",
      "datacoverage": 0.8293,
      "id": "GHCND:CA00105PA91",
      "elevationUnit": "METERS",
      "longitude": -132.3
    },
    {
      "elevation": 21,
      "mindate": "1978-01-01",
      "maxdate": "2024-04-28",
      "latitude": 51.6,
      "name": "ADDENBROKE ISLAND",
      "datacoverage": 0.9935,
      "id": "GHCND:CA001060080",
      "elevationUnit": "METERS",
      "longitude": -127.8667
    },
    {
      "elevation": 314,
      "mindate": "1948-01-01",
      "maxdate": "1964-09-30",
      "latitude": 55.6833,
      "name": "ALICE ARM, CA",
      "datacoverage": 1,
      "id": "GHCND:CA001060330",
      "elevationUnit": "METERS",
      "longitude": -129.5
    },
    {
      "elevation": 2,
      "mindate": "1973-06-01",
      "maxdate": "1978-09-30",
      "latitude": 55.4667,
      "name": "ALICE ARM",
      "datacoverage": 0.9688,
      "id": "GHCND:CA001060331",
      "elevationUnit": "METERS",
      "longitude": -129.4667
    },
    {
      "elevation": 113,
      "mindate": "1916-05-01",
      "maxdate": "1935-06-30",
      "latitude": 55.45,
      "name": "ANYOX, CA",
      "datacoverage": 1,
      "id": "GHCND:CA001060446",
      "elevationUnit": "METERS",
      "longitude": -129.8
    },
    {
      "elevation": 12,
      "mindate": "1933-04-01",
      "maxdate": "1977-10-31",
      "latitude": 52.1667,
      "name": "BELLA BELLA, CA",
      "datacoverage": 0.899,
      "id": "GHCND:CA001060810",
      "elevationUnit": "METERS",
      "longitude": -128.15
    },
    {
      "elevation": 43,
      "mindate": "2006-04-01",
      "maxdate": "2011-08-24",
      "latitude": 52.1833,
      "name": "BELLA BELLA A, CA",
      "datacoverage": 0.9997,
      "id": "GHCND:CA001060811",
      "elevationUnit": "METERS",
      "longitude": -128.15
    },
    {
      "elevation": 43,
      "mindate": "2011-08-01",
      "maxdate": "2024-04-28",
      "latitude": 52.1833,
      "name": "BELLA BELLA, CA",
      "datacoverage": 0.9997,
      "id": "GHCND:CA001060815",
      "elevationUnit": "METERS",
      "longitude": -128.15
    },
    {
      "elevation": 12,
      "mindate": "1960-04-01",
      "maxdate": "1964-06-30",
      "latitude": 52.15,
      "name": "BELLA BELLA SHEARWATER",
      "datacoverage": 0.8041,
      "id": "GHCND:CA001060820",
      "elevationUnit": "METERS",
      "longitude": -128.0833
    },
    {
      "elevation": 18,
      "mindate": "1895-05-01",
      "maxdate": "2002-10-31",
      "latitude": 52.3667,
      "name": "BELLA COOLA, CA",
      "datacoverage": 0.9837,
      "id": "GHCND:CA001060840",
      "elevationUnit": "METERS",
      "longitude": -126.6833
    },
    {
      "elevation": 36,
      "mindate": "1983-02-01",
      "maxdate": "2017-11-19",
      "latitude": 52.3833,
      "name": "BELLA COOLA A, CA",
      "datacoverage": 0.98,
      "id": "GHCND:CA001060841",
      "elevationUnit": "METERS",
      "longitude": -126.6
    },
    {
      "elevation": 14,
      "mindate": "1961-08-01",
      "maxdate": "1985-11-30",
      "latitude": 52.3667,
      "name": "BELLA COOLA BC HYDRO, CA",
      "datacoverage": 0.976,
      "id": "GHCND:CA001060842",
      "elevationUnit": "METERS",
      "longitude": -126.8167
    },
    {
      "elevation": 11,
      "mindate": "1974-06-01",
      "maxdate": "2024-04-23",
      "latitude": 52.65,
      "name": "BOAT BLUFF, CA",
      "datacoverage": 0.9514,
      "id": "GHCND:CA001060901",
      "elevationUnit": "METERS",
      "longitude": -128.5167
    },
    {
      "elevation": 16,
      "mindate": "1960-04-01",
      "maxdate": "2024-04-28",
      "latitude": 53.5,
      "name": "BONILLA ISLAND",
      "datacoverage": 0.9948,
      "id": "GHCND:CA001060902",
      "elevationUnit": "METERS",
      "longitude": -130.6333
    },
    {
      "elevation": 13,
      "mindate": "1994-12-01",
      "maxdate": "2024-04-28",
      "latitude": 53.5,
      "name": "BONILLA ISLAND AUT",
      "datacoverage": 0.957,
      "id": "GHCND:CA001060R0K",
      "elevationUnit": "METERS",
      "longitude": -130.6333
    },
    {
      "elevation": 15,
      "mindate": "1974-06-01",
      "maxdate": "1978-04-30",
      "latitude": 53.15,
      "name": "BUTEDALE, CA",
      "datacoverage": 1,
      "id": "GHCND:CA001061210",
      "elevationUnit": "METERS",
      "longitude": -128.7
    },
    {
      "elevation": 26,
      "mindate": "1994-12-01",
      "maxdate": "2024-04-28",
      "latitude": 52.1833,
      "name": "CATHEDRAL POINT AUT, CA",
      "datacoverage": 0.957,
      "id": "GHCND:CA001061458",
      "elevationUnit": "METERS",
      "longitude": -127.4667
    },
    {
      "elevation": 13,
      "mindate": "1992-11-01",
      "maxdate": "2024-04-28",
      "latitude": 53.0333,
      "name": "CUMSHEWA ISLAND",
      "datacoverage": 0.8791,
      "id": "GHCND:CA001062251",
      "elevationUnit": "METERS",
      "longitude": -131.6
    },
    {
      "elevation": 34,
      "mindate": "1973-05-01",
      "maxdate": "1988-10-31",
      "latitude": 51.5833,
      "name": "DAWSONS LANDING, CA",
      "datacoverage": 0.2472,
      "id": "GHCND:CA001062295",
      "elevationUnit": "METERS",
      "longitude": -127.5833
    },
    {
      "elevation": 4,
      "mindate": "1977-11-01",
      "maxdate": "2024-04-28",
      "latitude": 52.1833,
      "name": "DRYAD POINT, CA",
      "datacoverage": 1,
      "id": "GHCND:CA001062544",
      "elevationUnit": "METERS",
      "longitude": -128.1167
    },
    {
      "elevation": 14,
      "mindate": "1985-08-01",
      "maxdate": "1995-04-30",
      "latitude": 50.6,
      "name": "EAST CRACROFT ISL",
      "datacoverage": 0.9747,
      "id": "GHCND:CA001062593",
      "elevationUnit": "METERS",
      "longitude": -126.3167
    },
    {
      "elevation": 14,
      "mindate": "1965-12-01",
      "maxdate": "2024-04-28",
      "latitude": 51.25,
      "name": "EGG ISLAND, CA",
      "datacoverage": 0.9917,
      "id": "GHCND:CA001062646",
      "elevationUnit": "METERS",
      "longitude": -127.8333
    },
    {
      "elevation": 10,
      "mindate": "1957-12-01",
      "maxdate": "1991-05-31",
      "latitude": 53.05,
      "name": "ETHELDA BAY, CA",
      "datacoverage": 0.9777,
      "id": "GHCND:CA001062745",
      "elevationUnit": "METERS",
      "longitude": -129.6833
    },
    {
      "elevation": 18,
      "mindate": "1931-11-01",
      "maxdate": "1992-10-31",
      "latitude": 53.9833,
      "name": "FALLS RIVER, CA",
      "datacoverage": 0.9658,
      "id": "GHCND:CA001062790",
      "elevationUnit": "METERS",
      "longitude": -129.7333
    },
    {
      "elevation": 14,
      "mindate": "1971-05-01",
      "maxdate": "1972-05-31",
      "latitude": 51.6667,
      "name": "GENESEE RIVER, CA",
      "datacoverage": 0.998,
      "id": "GHCND:CA001063086",
      "elevationUnit": "METERS",
      "longitude": -126.75
    },
    {
      "elevation": 12,
      "mindate": "1978-10-01",
      "maxdate": "2024-04-28",
      "latitude": 54.5667,
      "name": "GREEN ISLAND",
      "datacoverage": 0.9933,
      "id": "GHCND:CA001063298",
      "elevationUnit": "METERS",
      "longitude": -130.7
    },
    {
      "elevation": 10,
      "mindate": "1994-12-01",
      "maxdate": "2024-04-29",
      "latitude": 54.5833,
      "name": "GREY ISLET AUT",
      "datacoverage": 0.8984,
      "id": "GHCND:CA001063303",
      "elevationUnit": "METERS",
      "longitude": -130.7
    },
    {
      "elevation": 2,
      "mindate": "1973-12-01",
      "maxdate": "1998-07-31",
      "latitude": 53.4167,
      "name": "HARTLEY BAY",
      "datacoverage": 0.875,
      "id": "GHCND:CA001063339",
      "elevationUnit": "METERS",
      "longitude": -129.25
    },
    {
      "elevation": 14,
      "mindate": "1994-12-01",
      "maxdate": "2024-04-28",
      "latitude": 50.9333,
      "name": "HERBERT ISLAND AUT",
      "datacoverage": 0.9883,
      "id": "GHCND:CA001063461",
      "elevationUnit": "METERS",
      "longitude": -127.6333
    },
    {
      "elevation": 9,
      "mindate": "1991-01-01",
      "maxdate": "2025-03-06",
      "latitude": 54.1667,
      "name": "HOLLAND ROCK",
      "datacoverage": 0.9175,
      "id": "GHCND:CA001063496",
      "elevationUnit": "METERS",
      "longitude": -130.3667
    },
    {
      "elevation": 10,
      "mindate": "1948-08-01",
      "maxdate": "2024-04-28",
      "latitude": 52.2667,
      "name": "IVORY ISLAND",
      "datacoverage": 0.5629,
      "id": "GHCND:CA001063690",
      "elevationUnit": "METERS",
      "longitude": -128.4
    },
    {
      "elevation": 87,
      "mindate": "1951-08-01",
      "maxdate": "2024-04-28",
      "latitude": 53.5667,
      "name": "KEMANO, CA",
      "datacoverage": 0.9673,
      "id": "GHCND:CA001064020",
      "elevationUnit": "METERS",
      "longitude": -127.95
    },
    {
      "elevation": 31,
      "mindate": "1966-05-01",
      "maxdate": "2000-08-31",
      "latitude": 53.8333,
      "name": "KILDALA, CA",
      "datacoverage": 0.995,
      "id": "GHCND:CA001064138",
      "elevationUnit": "METERS",
      "longitude": -128.4833
    },
    {
      "elevation": 2,
      "mindate": "1974-09-01",
      "maxdate": "1985-10-31",
      "latitude": 50.95,
      "name": "KINGCOME INLET, CA",
      "datacoverage": 0.9999,
      "id": "GHCND:CA001064227",
      "elevationUnit": "METERS",
      "longitude": -126.2
    },
    {
      "elevation": 13,
      "mindate": "1979-11-01",
      "maxdate": "1994-04-30",
      "latitude": 54.05,
      "name": "KITIMAT, CA",
      "datacoverage": 1,
      "id": "GHCND:CA001064288",
      "elevationUnit": "METERS",
      "longitude": -128.6833
    },
    {
      "elevation": 17,
      "mindate": "1951-06-01",
      "maxdate": "1966-07-31",
      "latitude": 54,
      "name": "KITIMAT, CA",
      "datacoverage": 0.9999,
      "id": "GHCND:CA001064289",
      "elevationUnit": "METERS",
      "longitude": -128.7
    },
    {
      "elevation": 6,
      "mindate": "1902-10-01",
      "maxdate": "1948-05-31",
      "latitude": 53.9833,
      "name": "KITIMAT MISSION, CA",
      "datacoverage": 0.3923,
      "id": "GHCND:CA001064290",
      "elevationUnit": "METERS",
      "longitude": -128.65
    },
    {
      "elevation": 98,
      "mindate": "1954-01-01",
      "maxdate": "2022-11-16",
      "latitude": 54.05,
      "name": "KITIMAT TOWNSITE, CA",
      "datacoverage": 0.9933,
      "id": "GHCND:CA001064320",
      "elevationUnit": "METERS",
      "longitude": -128.6333
    },
    {
      "elevation": 17,
      "mindate": "1966-02-01",
      "maxdate": "2024-01-14",
      "latitude": 54.0167,
      "name": "KITIMAT 2, CA",
      "datacoverage": 0.9781,
      "id": "GHCND:CA001064321",
      "elevationUnit": "METERS",
      "longitude": -128.7
    },
    {
      "elevation": 137,
      "mindate": "1988-09-01",
      "maxdate": "2013-01-18",
      "latitude": 54.0667,
      "name": "KITIMAT 3, CA",
      "datacoverage": 0.9965,
      "id": "GHCND:CA001064322",
      "elevationUnit": "METERS",
      "longitude": -128.6333
    },
    {
      "elevation": 621,
      "mindate": "1968-01-01",
      "maxdate": "1969-10-27",
      "latitude": 55.4333,
      "name": "KITSAULT MINESITE, CA",
      "datacoverage": 0.9994,
      "id": "GHCND:CA001064329",
      "elevationUnit": "METERS",
      "longitude": -129.4667
    },
    {
      "elevation": 9,
      "mindate": "1962-07-01",
      "maxdate": "1966-11-30",
      "latitude": 51.1,
      "name": "KNIGHT INLET, CA",
      "datacoverage": 0.9052,
      "id": "GHCND:CA001064375",
      "elevationUnit": "METERS",
      "longitude": -125.5833
    },
    {
      "elevation": 76,
      "mindate": "1967-11-01",
      "maxdate": "1999-09-30",
      "latitude": 54.4,
      "name": "LAKELSE LAKE, CA",
      "datacoverage": 0.4726,
      "id": "GHCND:CA001064497",
      "elevationUnit": "METERS",
      "longitude": -128.5167
    },
    {
      "elevation": 6,
      "mindate": "1978-09-01",
      "maxdate": "1988-07-31",
      "latitude": 54.1167,
      "name": "LAWYER ISLAND",
      "datacoverage": 0.9991,
      "id": "GHCND:CA001064591",
      "elevationUnit": "METERS",
      "longitude": -130.35
    },
    {
      "elevation": 23,
      "mindate": "1991-01-01",
      "maxdate": "2024-04-28",
      "latitude": 54.3,
      "name": "LUCY ISLAND LIGHTSTATION",
      "datacoverage": 0.9473,
      "id": "GHCND:CA001064728",
      "elevationUnit": "METERS",
      "longitude": -130.6167
    },
    {
      "elevation": 26,
      "mindate": "1954-02-01",
      "maxdate": "2024-04-28",
      "latitude": 52.2667,
      "name": "MCINNES ISLAND",
      "datacoverage": 0.9269,
      "id": "GHCND:CA001065010",
      "elevationUnit": "METERS",
      "longitude": -128.7167
    },
    {
      "elevation": 3,
      "mindate": "1915-01-01",
      "maxdate": "1959-03-31",
      "latitude": 55,
      "name": "MILL BAY, CA",
      "datacoverage": 1,
      "id": "GHCND:CA001065130",
      "elevationUnit": "METERS",
      "longitude": -129.75
    },
    {
      "elevation": 3,
      "mindate": "1974-09-01",
      "maxdate": "1985-08-31",
      "latitude": 50.6167,
      "name": "MINSTREL ISLAND, CA",
      "datacoverage": 0.9924,
      "id": "GHCND:CA001065170",
      "elevationUnit": "METERS",
      "longitude": -126.3167
    },
    {
      "elevation": 6,
      "mindate": "1900-02-01",
      "maxdate": "1929-08-31",
      "latitude": 54.9333,
      "name": "NAAS HARBOUR, CA",
      "datacoverage": 0.9889,
      "id": "GHCND:CA001065275",
      "elevationUnit": "METERS",
      "longitude": -129.9333
    },
    {
      "elevation": 2,
      "mindate": "1931-11-01",
      "maxdate": "1985-05-31",
      "latitude": 51.8667,
      "name": "NAMU, CA",
      "datacoverage": 0.5922,
      "id": "GHCND:CA001065310",
      "elevationUnit": "METERS",
      "longitude": -127.8667
    },
    {
      "elevation": 5,
      "mindate": "1924-01-01",
      "maxdate": "1986-11-30",
      "latitude": 52.35,
      "name": "OCEAN FALLS, CA",
      "datacoverage": 1,
      "id": "GHCND:CA001065670",
      "elevationUnit": "METERS",
      "longitude": -127.6833
    },
    {
      "elevation": 122,
      "mindate": "1977-06-01",
      "maxdate": "1982-06-30",
      "latitude": 54.7667,
      "name": "PACIFIC, CA",
      "datacoverage": 1,
      "id": "GHCND:CA001065945",
      "elevationUnit": "METERS",
      "longitude": -128.2667
    },
    {
      "elevation": 7,
      "mindate": "1977-11-01",
      "maxdate": "1989-03-31",
      "latitude": 52.0667,
      "name": "POINTER ISLAND",
      "datacoverage": 1,
      "id": "GHCND:CA001066202",
      "elevationUnit": "METERS",
      "longitude": -127.95
    },
    {
      "elevation": 8,
      "mindate": "1886-06-01",
      "maxdate": "1910-06-30",
      "latitude": 54.5667,
      "name": "PORT SIMPSON",
      "datacoverage": 0.9829,
      "id": "GHCND:CA001066336",
      "elevationUnit": "METERS",
      "longitude": -130.4333
    },
    {
      "elevation": 410,
      "mindate": "1926-01-01",
      "maxdate": "1996-09-30",
      "latitude": 56.05,
      "name": "PREMIER, CA",
      "datacoverage": 0.4582,
      "id": "GHCND:CA001066420",
      "elevationUnit": "METERS",
      "longitude": -130.0167
    },
    {
      "elevation": 52,
      "mindate": "1908-08-01",
      "maxdate": "1962-12-31",
      "latitude": 54.2833,
      "name": "PRINCE RUPERT, CA",
      "datacoverage": 0.9939,
      "id": "GHCND:CA001066480",
      "elevationUnit": "METERS",
      "longitude": -130.3833
    },
    {
      "elevation": 35,
      "mindate": "1962-05-01",
      "maxdate": "2006-03-31",
      "latitude": 54.3,
      "name": "PRINCE RUPERT A, CA",
      "datacoverage": 1,
      "id": "GHCND:CA001066481",
      "elevationUnit": "METERS",
      "longitude": -130.45
    },
    {
      "elevation": 35,
      "mindate": "2010-06-01",
      "maxdate": "2024-04-28",
      "latitude": 54.2833,
      "name": "PRINCE RUPERT, CA",
      "datacoverage": 0.9998,
      "id": "GHCND:CA001066482",
      "elevationUnit": "METERS",
      "longitude": -130.45
    }
  ]
}
