{
  "metadata": {
    "resultset": {
      "offset": 153600,
      "count": 154115,
      "limit": 100
    }
  },
  "results": [
    {
      "elevation": 103.9,
      "mindate": "2005-05-10",
      "maxdate": "2025-03-08",
      "latitude": 36.38,
      "name": "UNION CITY EVERETT STEWART AIRPORT, TN US",
      "datacoverage": 1,
      "id": "WBAN:63820",
      "elevationUnit": "METERS",
      "longitude": -88.98528
    },
    {
      "elevation": 396.2,
      "mindate": "2005-01-01",
      "maxdate": "2025-03-08",
      "latitude": 36.22278,
      "name": "WILKES CO AIRPORT, NC US",
      "datacoverage": 1,
      "id": "WBAN:63821",
      "elevationUnit": "METERS",
      "longitude": -81.09833
    },
    {
      "elevation": 83.5,
      "mindate": "2005-01-01",
      "maxdate": "2025-03-08",
      "latitude": 32.1925,
      "name": "VIDALIA MUNICIPAL AIRPORT, GA US",
      "datacoverage": 1,
      "id": "WBAN:63822",
      "elevationUnit": "METERS",
      "longitude": -82.37194
    },
    {
      "elevation": 24.7,
      "mindate": "2005-01-02",
      "maxdate": "2025-03-08",
      "latitude": 30.21861,
      "name": "JACKSONVILLE CECIL FIELD AIRPORT, FL US",
      "datacoverage": 1,
      "id": "WBAN:63823",
      "elevationUnit": "METERS",
      "longitude": -81.87639
    },
    {
      "elevation": 185.6,
      "mindate": "2005-01-01",
      "maxdate": "2025-03-08",
      "latitude": 35.41667,
      "name": "STANLY CO AIRPORT, NC US",
      "datacoverage": 1,
      "id": "WBAN:63824",
      "elevationUnit": "METERS",
      "longitude": -80.15056
    },
    {
      "elevation": 275.8,
      "mindate": "2005-01-01",
      "maxdate": "2025-03-08",
      "latitude": 39.9,
      "name": "COLUMBUS BOLTON FIELD, OH US",
      "datacoverage": 1,
      "id": "WBAN:63825",
      "elevationUnit": "METERS",
      "longitude": -83.13333
    },
    {
      "elevation": 96.6,
      "mindate": "2002-07-13",
      "maxdate": "2025-03-08",
      "latitude": 33.355,
      "name": "BLACKVILLE 3 W, SC US",
      "datacoverage": 1,
      "id": "WBAN:63826",
      "elevationUnit": "METERS",
      "longitude": -81.3279
    },
    {
      "elevation": 808.6,
      "mindate": "2005-01-01",
      "maxdate": "2013-04-30",
      "latitude": 37.067,
      "name": "TAZEWELL CO AIRPORT, VA US",
      "datacoverage": 1,
      "id": "WBAN:63827",
      "elevationUnit": "METERS",
      "longitude": -81.8
    },
    {
      "elevation": 53.6,
      "mindate": "2002-08-27",
      "maxdate": "2025-03-08",
      "latitude": 31.3127,
      "name": "NEWTON 8 W, GA US",
      "datacoverage": 1,
      "id": "WBAN:63828",
      "elevationUnit": "METERS",
      "longitude": -84.4706
    },
    {
      "elevation": 47.5,
      "mindate": "2002-08-27",
      "maxdate": "2025-03-08",
      "latitude": 31.1923,
      "name": "NEWTON 11 SW, GA US",
      "datacoverage": 1,
      "id": "WBAN:63829",
      "elevationUnit": "METERS",
      "longitude": -84.4465
    },
    {
      "elevation": 114,
      "mindate": "2002-11-03",
      "maxdate": "2025-03-08",
      "latitude": 32.3378,
      "name": "NEWTON 5 ENE, MS US",
      "datacoverage": 1,
      "id": "WBAN:63831",
      "elevationUnit": "METERS",
      "longitude": -89.0703
    },
    {
      "elevation": 498.3,
      "mindate": "2005-01-01",
      "maxdate": "2025-03-08",
      "latitude": 39.00028,
      "name": "UPSHUR CO REGIONAL AIRPORT BUCKHANNON, WV US",
      "datacoverage": 1,
      "id": "WBAN:63832",
      "elevationUnit": "METERS",
      "longitude": -80.27389
    },
    {
      "elevation": 209.1,
      "mindate": "2005-01-01",
      "maxdate": "2025-03-08",
      "latitude": 32.91472,
      "name": "ALEXANDER CITY THOMAS C RUSSELL FIELD AIRPORT, AL US",
      "datacoverage": 1,
      "id": "WBAN:63833",
      "elevationUnit": "METERS",
      "longitude": -85.96278
    },
    {
      "elevation": 183.8,
      "mindate": "2005-01-01",
      "maxdate": "2025-03-07",
      "latitude": 34.095,
      "name": "ELBERT CO AIRPORT PATZ FIELD, GA US",
      "datacoverage": 0.94,
      "id": "WBAN:63834",
      "elevationUnit": "METERS",
      "longitude": -82.81583
    },
    {
      "elevation": 65.2,
      "mindate": "2006-01-01",
      "maxdate": "2025-03-08",
      "latitude": 31.39694,
      "name": "EARLY CO AIRPORT BLAKELY, GA US",
      "datacoverage": 1,
      "id": "WBAN:63835",
      "elevationUnit": "METERS",
      "longitude": -84.89528
    },
    {
      "elevation": 151.8,
      "mindate": "2005-01-01",
      "maxdate": "2025-01-28",
      "latitude": 33.52972,
      "name": "THOMSON MCDUFFIE CO AIRPORT, GA US",
      "datacoverage": 1,
      "id": "WBAN:63836",
      "elevationUnit": "METERS",
      "longitude": -82.51639
    },
    {
      "elevation": 7.3,
      "mindate": "2006-01-01",
      "maxdate": "2025-03-08",
      "latitude": 32.21667,
      "name": "HILTON HEAD ISLAND AIRPORT, SC US",
      "datacoverage": 1,
      "id": "WBAN:63837",
      "elevationUnit": "METERS",
      "longitude": -80.7
    },
    {
      "elevation": 271.6,
      "mindate": "2001-11-20",
      "maxdate": "2025-03-08",
      "latitude": 38.0945,
      "name": "VERSAILLES 3 NNW, KY US",
      "datacoverage": 1,
      "id": "WBAN:63838",
      "elevationUnit": "METERS",
      "longitude": -84.7465
    },
    {
      "elevation": 293.5,
      "mindate": "2005-01-01",
      "maxdate": "2025-03-07",
      "latitude": 34.26889,
      "name": "CULLMAN FOLSOM FIELD AIRPORT, AL US",
      "datacoverage": 1,
      "id": "WBAN:63839",
      "elevationUnit": "METERS",
      "longitude": -86.85833
    },
    {
      "elevation": 118.3,
      "mindate": "2005-01-01",
      "maxdate": "2024-08-01",
      "latitude": 38.08944,
      "name": "CARMI MUNICIPAL AIRPORT, IL US",
      "datacoverage": 1,
      "id": "WBAN:63840",
      "elevationUnit": "METERS",
      "longitude": -88.12306
    },
    {
      "elevation": 140.8,
      "mindate": "2005-01-01",
      "maxdate": "2025-03-03",
      "latitude": 39.01611,
      "name": "ROBINSON MUNICIPAL AIRPORT, IL US",
      "datacoverage": 1,
      "id": "WBAN:63841",
      "elevationUnit": "METERS",
      "longitude": -87.64972
    },
    {
      "elevation": 78.3,
      "mindate": "2005-01-01",
      "maxdate": "2025-03-08",
      "latitude": 31.47667,
      "name": "DOUGLAS MUNICIPAL AIRPORT, GA US",
      "datacoverage": 1,
      "id": "WBAN:63842",
      "elevationUnit": "METERS",
      "longitude": -82.86056
    },
    {
      "elevation": 258.2,
      "mindate": "2005-01-01",
      "maxdate": "2025-03-08",
      "latitude": 35.25556,
      "name": "SHELBY MUNICIPAL AIRPORT, NC US",
      "datacoverage": 1,
      "id": "WBAN:63843",
      "elevationUnit": "METERS",
      "longitude": -81.60111
    },
    {
      "elevation": 615.7,
      "mindate": "2005-01-01",
      "maxdate": "2025-03-08",
      "latitude": 35.2225,
      "name": "MACON CO AIRPORT, NC US",
      "datacoverage": 1,
      "id": "WBAN:63844",
      "elevationUnit": "METERS",
      "longitude": -83.41917
    },
    {
      "elevation": 57.3,
      "mindate": "2005-01-01",
      "maxdate": "2025-03-08",
      "latitude": 32.64556,
      "name": "SYLVANIA PLANTATION AIRPARK, GA US",
      "datacoverage": 1,
      "id": "WBAN:63846",
      "elevationUnit": "METERS",
      "longitude": -81.59639
    },
    {
      "elevation": 267.3,
      "mindate": "2005-01-01",
      "maxdate": "2025-03-08",
      "latitude": 34.47389,
      "name": "FORT PAYNE ISBELL FIELD, AL US",
      "datacoverage": 1,
      "id": "WBAN:63847",
      "elevationUnit": "METERS",
      "longitude": -85.72139
    },
    {
      "elevation": 371.6,
      "mindate": "2005-01-01",
      "maxdate": "2011-10-03",
      "latitude": 34.31056,
      "name": "CANTON CHEROKEE CO AIRPORT, GA US",
      "datacoverage": 1,
      "id": "WBAN:63848",
      "elevationUnit": "METERS",
      "longitude": -84.42389
    },
    {
      "elevation": 240.8,
      "mindate": "2004-05-19",
      "maxdate": "2025-03-08",
      "latitude": 37.2504,
      "name": "BOWLING GREEN 21 NNE, KY US",
      "datacoverage": 1,
      "id": "WBAN:63849",
      "elevationUnit": "METERS",
      "longitude": -86.2325
    },
    {
      "elevation": 225.9,
      "mindate": "2004-04-30",
      "maxdate": "2025-03-08",
      "latitude": 33.7837,
      "name": "WATKINSVILLE 5 SSE, GA US",
      "datacoverage": 1,
      "id": "WBAN:63850",
      "elevationUnit": "METERS",
      "longitude": -83.3896
    },
    {
      "elevation": 117,
      "mindate": "2005-01-01",
      "maxdate": "2025-03-08",
      "latitude": 37.18583,
      "name": "METROPOLIS MUNICIPAL AIRPORT, IL US",
      "datacoverage": 1,
      "id": "WBAN:63851",
      "elevationUnit": "METERS",
      "longitude": -88.75056
    },
    {
      "elevation": 7,
      "mindate": "2005-01-01",
      "maxdate": "2025-03-08",
      "latitude": 30.36778,
      "name": "BAY ST LOUIS STENNIS INTERNATIONAL AIRPORT, MS US",
      "datacoverage": 0.55,
      "id": "WBAN:63852",
      "elevationUnit": "METERS",
      "longitude": -89.45472
    },
    {
      "elevation": 161.2,
      "mindate": "2005-01-01",
      "maxdate": "2025-03-08",
      "latitude": 38.60667,
      "name": "MOUNT CARMEL MUNICIPAL AIRPORT, IL US",
      "datacoverage": 1,
      "id": "WBAN:63853",
      "elevationUnit": "METERS",
      "longitude": -87.72667
    },
    {
      "elevation": 583.1,
      "mindate": "2004-12-03",
      "maxdate": "2025-03-08",
      "latitude": 36.0138,
      "name": "CROSSVILLE 7 NW, TN US",
      "datacoverage": 1,
      "id": "WBAN:63855",
      "elevationUnit": "METERS",
      "longitude": -85.1345
    },
    {
      "elevation": 7.6,
      "mindate": "2004-12-15",
      "maxdate": "2025-03-08",
      "latitude": 30.8078,
      "name": "BRUNSWICK 23 S, GA US",
      "datacoverage": 1,
      "id": "WBAN:63856",
      "elevationUnit": "METERS",
      "longitude": -81.4596
    },
    {
      "elevation": 351.1,
      "mindate": "2005-04-14",
      "maxdate": "2025-03-08",
      "latitude": 34.2851,
      "name": "GADSDEN 19 N, AL US",
      "datacoverage": 1,
      "id": "WBAN:63857",
      "elevationUnit": "METERS",
      "longitude": -85.9621
    },
    {
      "elevation": 58.8,
      "mindate": "2005-05-26",
      "maxdate": "2025-03-08",
      "latitude": 32.4567,
      "name": "SELMA 13 WNW, AL US",
      "datacoverage": 1,
      "id": "WBAN:63858",
      "elevationUnit": "METERS",
      "longitude": -87.2422
    },
    {
      "elevation": 387.1,
      "mindate": "2005-04-19",
      "maxdate": "2025-03-08",
      "latitude": 35.82139,
      "name": "MORGANTON LENOIR FOOTHILLS REGIONAL AIRPORT, NC US",
      "datacoverage": 1,
      "id": "WBAN:63859",
      "elevationUnit": "METERS",
      "longitude": -81.61056
    },
    {
      "elevation": 310.9,
      "mindate": "2006-05-04",
      "maxdate": "2025-03-08",
      "latitude": 34.5653,
      "name": "VALLEY HEAD 1 SSW, AL US",
      "datacoverage": 1,
      "id": "WBAN:63862",
      "elevationUnit": "METERS",
      "longitude": -85.6171
    },
    {
      "elevation": 189,
      "mindate": "2006-05-04",
      "maxdate": "2013-12-16",
      "latitude": 34.3337,
      "name": "GUNTERSVILLE 2 SW, AL US",
      "datacoverage": 1,
      "id": "WBAN:63866",
      "elevationUnit": "METERS",
      "longitude": -86.3156
    },
    {
      "elevation": 243.8,
      "mindate": "2006-05-04",
      "maxdate": "2025-03-08",
      "latitude": 34.1954,
      "name": "CULLMAN 3 ENE, AL US",
      "datacoverage": 1,
      "id": "WBAN:63867",
      "elevationUnit": "METERS",
      "longitude": -86.7963
    },
    {
      "elevation": 175.3,
      "mindate": "2006-05-04",
      "maxdate": "2025-03-08",
      "latitude": 34.6602,
      "name": "COURTLAND 2 WSW, AL US",
      "datacoverage": 1,
      "id": "WBAN:63868",
      "elevationUnit": "METERS",
      "longitude": -87.3462
    },
    {
      "elevation": 29,
      "mindate": "2006-07-13",
      "maxdate": "2025-03-08",
      "latitude": 30.5485,
      "name": "FAIRHOPE 3 NE, AL US",
      "datacoverage": 1,
      "id": "WBAN:63869",
      "elevationUnit": "METERS",
      "longitude": -87.8757
    },
    {
      "elevation": 91,
      "mindate": "2006-05-11",
      "maxdate": "2025-03-08",
      "latitude": 31.04474,
      "name": "FLORALA MUNICIPAL AIRPORT, AL US",
      "datacoverage": 1,
      "id": "WBAN:63870",
      "elevationUnit": "METERS",
      "longitude": -86.31193
    },
    {
      "elevation": 31.2,
      "mindate": "2006-09-01",
      "maxdate": "2025-03-08",
      "latitude": 30.84315,
      "name": "BONIFAY TRI CO AIRPORT, FL US",
      "datacoverage": 1,
      "id": "WBAN:63871",
      "elevationUnit": "METERS",
      "longitude": -85.60431
    },
    {
      "elevation": 86.8,
      "mindate": "2006-09-01",
      "maxdate": "2025-03-08",
      "latitude": 31.95163,
      "name": "EUFAULA WEEDON FIELD AIRPORT, AL US",
      "datacoverage": 1,
      "id": "WBAN:63872",
      "elevationUnit": "METERS",
      "longitude": -85.13122
    },
    {
      "elevation": 96.6,
      "mindate": "2006-09-01",
      "maxdate": "2025-03-08",
      "latitude": 31.35,
      "name": "OZARK FORT RUCKER, AL US",
      "datacoverage": 1,
      "id": "WBAN:63873",
      "elevationUnit": "METERS",
      "longitude": -85.66667
    },
    {
      "elevation": 134.8,
      "mindate": "2006-09-01",
      "maxdate": "2025-03-08",
      "latitude": 31.84675,
      "name": "GREENVILLE MAC CRENSHAW MEMORIAL AIRPORT, AL US",
      "datacoverage": 1,
      "id": "WBAN:63874",
      "elevationUnit": "METERS",
      "longitude": -86.6141
    },
    {
      "elevation": 351.7,
      "mindate": "2006-01-01",
      "maxdate": "2025-03-08",
      "latitude": 36.61056,
      "name": "MIDDLESBORO BELL CO AIRPORT, KY US",
      "datacoverage": 1,
      "id": "WBAN:63875",
      "elevationUnit": "METERS",
      "longitude": -83.7375
    },
    {
      "elevation": 196,
      "mindate": "2006-10-12",
      "maxdate": "2022-12-28",
      "latitude": 38.91472,
      "name": "POINT PLAESANT MASON CO AIRPORT, WV US",
      "datacoverage": 1,
      "id": "WBAN:63876",
      "elevationUnit": "METERS",
      "longitude": -82.09861
    },
    {
      "elevation": 206.3,
      "mindate": "2006-01-01",
      "maxdate": "2025-03-07",
      "latitude": 33.59778,
      "name": "GREENSBORO GREENE CO REGIONAL AIRPORT, GA US",
      "datacoverage": 1,
      "id": "WBAN:63877",
      "elevationUnit": "METERS",
      "longitude": -83.13889
    },
    {
      "elevation": 210.3,
      "mindate": "2006-01-01",
      "maxdate": "2025-03-08",
      "latitude": 39.1625,
      "name": "LITCHFIELD MUNICIPAL AIRPORT, IL US",
      "datacoverage": 1,
      "id": "WBAN:63878",
      "elevationUnit": "METERS",
      "longitude": -89.67472
    },
    {
      "elevation": 388.6,
      "mindate": "2006-01-01",
      "maxdate": "2025-03-08",
      "latitude": 38.68694,
      "name": "SUTTON BRAXTON CO AIRPORT, WV US",
      "datacoverage": 0.68,
      "id": "WBAN:63879",
      "elevationUnit": "METERS",
      "longitude": -80.65167
    },
    {
      "elevation": 314.6,
      "mindate": "2006-04-03",
      "maxdate": "2025-03-08",
      "latitude": 34.22917,
      "name": "ALBERTVILLE MUNICIPAL AIRPORT, AL US",
      "datacoverage": 1,
      "id": "WBAN:63880",
      "elevationUnit": "METERS",
      "longitude": -86.25583
    },
    {
      "elevation": 94.2,
      "mindate": "2006-01-01",
      "maxdate": "2025-03-08",
      "latitude": 32.56444,
      "name": "DUBLIN MUNICIPAL AIRPORT, GA US",
      "datacoverage": 1,
      "id": "WBAN:63881",
      "elevationUnit": "METERS",
      "longitude": -82.98528
    },
    {
      "elevation": 293.5,
      "mindate": "2006-05-01",
      "maxdate": "2025-03-08",
      "latitude": 36.85528,
      "name": "MONTICELLO WAYNE CO AIRPORT, KY US",
      "datacoverage": 1,
      "id": "WBAN:63882",
      "elevationUnit": "METERS",
      "longitude": -84.85611
    },
    {
      "elevation": 208.8,
      "mindate": "2006-01-03",
      "maxdate": "2025-03-07",
      "latitude": 34.67861,
      "name": "REDSTONE ARSENAL ARMY AIRFIELD, AL US",
      "datacoverage": 0.79,
      "id": "WBAN:63883",
      "elevationUnit": "METERS",
      "longitude": -86.68472
    },
    {
      "elevation": 543.5,
      "mindate": "2006-01-01",
      "maxdate": "2025-03-08",
      "latitude": 37.60056,
      "name": "PINEVILLE KEE FIELD AIRPORT, WV US",
      "datacoverage": 1,
      "id": "WBAN:63884",
      "elevationUnit": "METERS",
      "longitude": -81.55917
    },
    {
      "elevation": 4.9,
      "mindate": "2006-05-01",
      "maxdate": "2025-03-08",
      "latitude": 30.29056,
      "name": "GULF SHORES JACK EDWARDS AIRPORT, AL US",
      "datacoverage": 1,
      "id": "WBAN:63885",
      "elevationUnit": "METERS",
      "longitude": -87.67167
    },
    {
      "elevation": 117,
      "mindate": "2006-01-01",
      "maxdate": "2025-03-08",
      "latitude": 33.15417,
      "name": "MILLEDGEVILLE BALDWIN CO AIRPORT, GA US",
      "datacoverage": 1,
      "id": "WBAN:63886",
      "elevationUnit": "METERS",
      "longitude": -83.24056
    },
    {
      "elevation": 198.1,
      "mindate": "2006-10-24",
      "maxdate": "2025-03-08",
      "latitude": 39.53111,
      "name": "MIDDLETOWN HOOK FIELD MUNICIPAL AIRPORT, OH US",
      "datacoverage": 1,
      "id": "WBAN:63887",
      "elevationUnit": "METERS",
      "longitude": -84.39528
    },
    {
      "elevation": 320.3,
      "mindate": "2006-01-03",
      "maxdate": "2025-03-08",
      "latitude": 39.84028,
      "name": "SPRINGFIELD BECKLEY MUNICIPAL AIRPORT, OH US",
      "datacoverage": 1,
      "id": "WBAN:63888",
      "elevationUnit": "METERS",
      "longitude": -83.84
    },
    {
      "elevation": 291.1,
      "mindate": "2006-01-01",
      "maxdate": "2025-03-08",
      "latitude": 34.75833,
      "name": "GREENVILLE DONALDSON CENTER AIRPORT, SC US",
      "datacoverage": 1,
      "id": "WBAN:63889",
      "elevationUnit": "METERS",
      "longitude": -82.37639
    },
    {
      "elevation": 27,
      "mindate": "2007-06-01",
      "maxdate": "2025-03-08",
      "latitude": 30.35016,
      "name": "JACKSONVILLE WHITEHOUSE NAVAL OUTLYING FIELD, FL US",
      "datacoverage": 1,
      "id": "WBAN:63890",
      "elevationUnit": "METERS",
      "longitude": -81.876247
    },
    {
      "elevation": 178,
      "mindate": "2007-03-14",
      "maxdate": "2025-03-08",
      "latitude": 32.8516,
      "name": "CLANTON 2 NE, AL US",
      "datacoverage": 1,
      "id": "WBAN:63891",
      "elevationUnit": "METERS",
      "longitude": -86.6115
    },
    {
      "elevation": 32.6,
      "mindate": "2007-03-16",
      "maxdate": "2025-03-08",
      "latitude": 32.8369,
      "name": "GAINESVILLE 2 NE, AL US",
      "datacoverage": 1,
      "id": "WBAN:63892",
      "elevationUnit": "METERS",
      "longitude": -88.1374
    },
    {
      "elevation": 85.3,
      "mindate": "2007-03-15",
      "maxdate": "2025-03-08",
      "latitude": 32.7169,
      "name": "GREENSBORO 2 WNW, AL US",
      "datacoverage": 1,
      "id": "WBAN:63893",
      "elevationUnit": "METERS",
      "longitude": -87.6226
    },
    {
      "elevation": 161.5,
      "mindate": "2007-04-25",
      "maxdate": "2025-03-08",
      "latitude": 34.7728,
      "name": "MUSCLE SHOALS 2 N, AL US",
      "datacoverage": 1,
      "id": "WBAN:63894",
      "elevationUnit": "METERS",
      "longitude": -87.6399
    },
    {
      "elevation": 219.5,
      "mindate": "2006-08-16",
      "maxdate": "2025-03-08",
      "latitude": 34.4535,
      "name": "RUSSELLVILLE 4 SSE, AL US",
      "datacoverage": 1,
      "id": "WBAN:63895",
      "elevationUnit": "METERS",
      "longitude": -87.7104
    },
    {
      "elevation": 193.9,
      "mindate": "2006-08-16",
      "maxdate": "2025-03-08",
      "latitude": 34.6941,
      "name": "SCOTTSBORO 2 NE, AL US",
      "datacoverage": 1,
      "id": "WBAN:63896",
      "elevationUnit": "METERS",
      "longitude": -85.9998
    },
    {
      "elevation": 47.9,
      "mindate": "2007-03-15",
      "maxdate": "2025-03-08",
      "latitude": 32.3349,
      "name": "SELMA 6 SSE, AL US",
      "datacoverage": 1,
      "id": "WBAN:63897",
      "elevationUnit": "METERS",
      "longitude": -86.9787
    },
    {
      "elevation": 231.6,
      "mindate": "2007-10-03",
      "maxdate": "2025-03-08",
      "latitude": 38.8882,
      "name": "BEDFORD 5 WNW, IN US",
      "datacoverage": 1,
      "id": "WBAN:63898",
      "elevationUnit": "METERS",
      "longitude": -86.5707
    },
    {
      "elevation": 51.8,
      "mindate": "2008-01-17",
      "maxdate": "2025-03-08",
      "latitude": 31.1449,
      "name": "BREWTON 3 NNE, AL US",
      "datacoverage": 1,
      "id": "WBAN:63899",
      "elevationUnit": "METERS",
      "longitude": -87.0518
    },
    {
      "elevation": 436.8,
      "mindate": "2005-05-24",
      "maxdate": "2025-02-27",
      "latitude": 34.69861,
      "name": "QUARTZ MOUNTAIN REGIONAL AIRPORT, OK US",
      "datacoverage": 1,
      "id": "WBAN:63901",
      "elevationUnit": "METERS",
      "longitude": -99.33806
    },
    {
      "elevation": 114,
      "mindate": "2005-03-03",
      "maxdate": "2013-05-02",
      "latitude": 31.1136,
      "name": "FORT POLK SELF STRIP, LA US",
      "datacoverage": 1,
      "id": "WBAN:63903",
      "elevationUnit": "METERS",
      "longitude": -92.9656
    },
    {
      "elevation": 182.9,
      "mindate": "2019-11-01",
      "maxdate": "2025-03-08",
      "latitude": 30.57263,
      "name": "TAYLOR MUNICIPAL AIRPORT, TX US",
      "datacoverage": 1,
      "id": "WBAN:63904",
      "elevationUnit": "METERS",
      "longitude": -97.44319
    },
    {
      "elevation": 380.1,
      "mindate": "2005-01-01",
      "maxdate": "2025-03-08",
      "latitude": 40.77694,
      "name": "BUTLER CO AIRPORT, PA US",
      "datacoverage": 1,
      "id": "WBAN:64705",
      "elevationUnit": "METERS",
      "longitude": -79.94972
    },
    {
      "elevation": 428.2,
      "mindate": "2005-01-01",
      "maxdate": "2025-03-08",
      "latitude": 40.63333,
      "name": "INDIANA J STEWART, PA US",
      "datacoverage": 1,
      "id": "WBAN:64706",
      "elevationUnit": "METERS",
      "longitude": -79.1
    },
    {
      "elevation": 221.3,
      "mindate": "2005-01-01",
      "maxdate": "2025-03-08",
      "latitude": 41.48333,
      "name": "OXFORD WATERBURY, CT US",
      "datacoverage": 1,
      "id": "WBAN:64707",
      "elevationUnit": "METERS",
      "longitude": -73.13333
    },
    {
      "elevation": 2.4,
      "mindate": "2005-01-01",
      "maxdate": "2025-03-08",
      "latitude": 42.07194,
      "name": "PROVINCETOWN MUNICIPAL AIRPORT, MA US",
      "datacoverage": 1,
      "id": "WBAN:64708",
      "elevationUnit": "METERS",
      "longitude": -70.22111
    },
    {
      "elevation": 74.4,
      "mindate": "2005-01-01",
      "maxdate": "2025-03-08",
      "latitude": 43.39361,
      "name": "SANFORD REGIONAL AIRPORT, ME US",
      "datacoverage": 1,
      "id": "WBAN:64709",
      "elevationUnit": "METERS",
      "longitude": -70.70778
    },
    {
      "elevation": 134.4,
      "mindate": "2005-01-01",
      "maxdate": "2025-03-08",
      "latitude": 41.92056,
      "name": "NORTH CENTRAL STATE AIRPORT, RI US",
      "datacoverage": 1,
      "id": "WBAN:64710",
      "elevationUnit": "METERS",
      "longitude": -71.49111
    },
    {
      "elevation": 92,
      "mindate": "2005-01-01",
      "maxdate": "2025-03-08",
      "latitude": 40.1,
      "name": "WINGS FIELD, PA US",
      "datacoverage": 1,
      "id": "WBAN:64752",
      "elevationUnit": "METERS",
      "longitude": -75.26667
    },
    {
      "elevation": 160.3,
      "mindate": "2005-01-01",
      "maxdate": "2025-03-08",
      "latitude": 40.43528,
      "name": "QUAKERTOWN AIRPORT, PA US",
      "datacoverage": 1,
      "id": "WBAN:64753",
      "elevationUnit": "METERS",
      "longitude": -75.38194
    },
    {
      "elevation": 125.9,
      "mindate": "2004-11-01",
      "maxdate": "2025-03-08",
      "latitude": 41.7857,
      "name": "MILLBROOK 3 W, NY US",
      "datacoverage": 1,
      "id": "WBAN:64756",
      "elevationUnit": "METERS",
      "longitude": -73.7422
    },
    {
      "elevation": 374.3,
      "mindate": "2004-10-27",
      "maxdate": "2025-03-08",
      "latitude": 42.4401,
      "name": "ITHACA 13 E, NY US",
      "datacoverage": 1,
      "id": "WBAN:64758",
      "elevationUnit": "METERS",
      "longitude": -76.2462
    },
    {
      "elevation": 17.1,
      "mindate": "2005-08-30",
      "maxdate": "2025-03-07",
      "latitude": 40.95956,
      "name": "EAST HAMPTON AIRPORT, NY US",
      "datacoverage": 1,
      "id": "WBAN:64761",
      "elevationUnit": "METERS",
      "longitude": -72.25183
    },
    {
      "elevation": 153.9,
      "mindate": "2006-10-12",
      "maxdate": "2025-03-08",
      "latitude": 43.77917,
      "name": "PLYMOUTH MUNICIPAL AIRPORT, NH US",
      "datacoverage": 1,
      "id": "WBAN:64773",
      "elevationUnit": "METERS",
      "longitude": -71.75361
    },
    {
      "elevation": 3.4,
      "mindate": "2005-12-19",
      "maxdate": "2025-03-08",
      "latitude": 42.09833,
      "name": "MARSHFIELD MUNICIPAL AIRPORT, MA US",
      "datacoverage": 1,
      "id": "WBAN:64774",
      "elevationUnit": "METERS",
      "longitude": -70.67222
    },
    {
      "elevation": 144.7,
      "mindate": "2007-01-02",
      "maxdate": "2025-03-08",
      "latitude": 43.22417,
      "name": "ROME GRIFFISS AIRFIELD, NY US",
      "datacoverage": 1,
      "id": "WBAN:64775",
      "elevationUnit": "METERS",
      "longitude": -75.39563
    },
    {
      "elevation": 50.4,
      "mindate": "2007-06-18",
      "maxdate": "2025-03-07",
      "latitude": 44.63923,
      "name": "PLATTSBURGH INTERNATIONAL AIRPORT, NY US",
      "datacoverage": 1,
      "id": "WBAN:64776",
      "elevationUnit": "METERS",
      "longitude": -73.46312
    },
    {
      "elevation": 4.3,
      "mindate": "1949-02-01",
      "maxdate": "2025-03-07",
      "latitude": -7.3,
      "name": "DIEGO GARCIA NAF, IO",
      "datacoverage": 0.7,
      "id": "WBAN:70701",
      "elevationUnit": "METERS",
      "longitude": 72.4
    },
    {
      "elevation": 45.7,
      "mindate": "2009-05-21",
      "maxdate": "2025-03-08",
      "latitude": 33.2125,
      "name": "NORTHPORT 2 S, AL US",
      "datacoverage": 1,
      "id": "WBAN:73801",
      "elevationUnit": "METERS",
      "longitude": -87.5914
    },
    {
      "elevation": 187.1,
      "mindate": "2008-12-02",
      "maxdate": "2025-03-08",
      "latitude": 31.9155,
      "name": "HIGHLAND HOME 2 S, AL US",
      "datacoverage": 1,
      "id": "WBAN:73802",
      "elevationUnit": "METERS",
      "longitude": -86.3115
    },
    {
      "elevation": 160,
      "mindate": "2008-12-03",
      "maxdate": "2025-03-08",
      "latitude": 33.5721,
      "name": "TALLADEGA 10 NNE, AL US",
      "datacoverage": 1,
      "id": "WBAN:73803",
      "elevationUnit": "METERS",
      "longitude": -86.0573
    },
    {
      "elevation": 17.1,
      "mindate": "2010-05-23",
      "maxdate": "2025-03-08",
      "latitude": 30.34869,
      "name": "NORTHWEST FLORIDA BEACHES INTERNATIONAL AIRPORT, FL US",
      "datacoverage": 1,
      "id": "WBAN:73805",
      "elevationUnit": "METERS",
      "longitude": -85.78835
    },
    {
      "elevation": 2.1,
      "mindate": "1943-07-20",
      "maxdate": "2025-03-07",
      "latitude": -8.516667,
      "name": "FUNAFUTI NF",
      "datacoverage": 0.33,
      "id": "WBAN:80705",
      "elevationUnit": "METERS",
      "longitude": 179.216667
    },
    {
      "elevation": 24.1,
      "mindate": "1956-03-09",
      "maxdate": "2025-03-07",
      "latitude": -77.88333,
      "name": "MCMURDO SOUND NAF",
      "datacoverage": 0.39,
      "id": "WBAN:87601",
      "elevationUnit": "METERS",
      "longitude": 166.73333
    },
    {
      "mindate": "1957-01-09",
      "maxdate": "2025-03-07",
      "latitude": -90,
      "name": "AMUNDSEN SCOTT, AY",
      "datacoverage": 0.31,
      "id": "WBAN:90001",
      "longitude": 0
    },
    {
      "elevation": 12.5,
      "mindate": "1996-07-02",
      "maxdate": "2004-12-31",
      "latitude": 28.18778,
      "name": "TAMPA BAY EXEC AIRPORT, FL US",
      "datacoverage": 0.54,
      "id": "WBAN:92802",
      "elevationUnit": "METERS",
      "longitude": -82.62583
    },
    {
      "elevation": 4.6,
      "mindate": "2005-01-01",
      "maxdate": "2025-03-08",
      "latitude": 26.24636,
      "name": "POMPANO BEACH AIRPARK, FL US",
      "datacoverage": 1,
      "id": "WBAN:92805",
      "elevationUnit": "METERS",
      "longitude": -80.11105
    }
  ]
}
