{
  "metadata": {
    "resultset": {
      "offset": 55500,
      "count": 154115,
      "limit": 100
    }
  },
  "results": [
    {
      "elevation": 80,
      "mindate": "1970-01-01",
      "maxdate": "2018-05-31",
      "latitude": 60.8875,
      "name": "IITTI KAUSALA, FI",
      "datacoverage": 0.8641,
      "id": "GHCND:FIE00143131",
      "elevationUnit": "METERS",
      "longitude": 26.3567
    },
    {
      "elevation": 90,
      "mindate": "1970-01-01",
      "maxdate": "2025-01-31",
      "latitude": 61.2508,
      "name": "KOUVOLA VOIKOSKI, FI",
      "datacoverage": 0.8804,
      "id": "GHCND:FIE00143136",
      "elevationUnit": "METERS",
      "longitude": 26.7819
    },
    {
      "elevation": 50,
      "mindate": "1965-01-01",
      "maxdate": "2008-12-31",
      "latitude": 60.85,
      "name": "VALKEALA KOUVOLANKYLA, FI",
      "datacoverage": 0.9451,
      "id": "GHCND:FIE00143141",
      "elevationUnit": "METERS",
      "longitude": 26.7831
    },
    {
      "elevation": 73,
      "mindate": "1993-06-01",
      "maxdate": "1997-06-04",
      "latitude": 61,
      "name": "VALKEALA URO, FI",
      "datacoverage": 1,
      "id": "GHCND:FIE00143145",
      "elevationUnit": "METERS",
      "longitude": 26.7831
    },
    {
      "elevation": 22,
      "mindate": "1965-01-01",
      "maxdate": "2008-07-31",
      "latitude": 60.5331,
      "name": "VIROLAHTI RAVIJOKI, FI",
      "datacoverage": 0.9962,
      "id": "GHCND:FIE00143156",
      "elevationUnit": "METERS",
      "longitude": 27.55
    },
    {
      "elevation": 25,
      "mindate": "1965-08-01",
      "maxdate": "1993-01-01",
      "latitude": 60.5831,
      "name": "VIROLAHTI RAVIJARVI, FI",
      "datacoverage": 0.9817,
      "id": "GHCND:FIE00143161",
      "elevationUnit": "METERS",
      "longitude": 27.4831
    },
    {
      "elevation": 12,
      "mindate": "1966-01-01",
      "maxdate": "2005-05-31",
      "latitude": 60.55,
      "name": "HAMINA POITSILA, FI",
      "datacoverage": 0.9978,
      "id": "GHCND:FIE00143166",
      "elevationUnit": "METERS",
      "longitude": 27.15
    },
    {
      "elevation": 20,
      "mindate": "1965-01-01",
      "maxdate": "2008-12-31",
      "latitude": 60.6331,
      "name": "VIROLAHTI NOPALA, FI",
      "datacoverage": 0.9962,
      "id": "GHCND:FIE00143171",
      "elevationUnit": "METERS",
      "longitude": 27.45
    },
    {
      "elevation": 35,
      "mindate": "1969-01-01",
      "maxdate": "2008-12-31",
      "latitude": 60.65,
      "name": "HAMINA ONKAMAA, FI",
      "datacoverage": 0.975,
      "id": "GHCND:FIE00143176",
      "elevationUnit": "METERS",
      "longitude": 27.4167
    },
    {
      "elevation": 40,
      "mindate": "1965-01-01",
      "maxdate": "2008-04-30",
      "latitude": 60.7167,
      "name": "MIEHIKKALA HAUHIA, FI",
      "datacoverage": 0.9559,
      "id": "GHCND:FIE00143181",
      "elevationUnit": "METERS",
      "longitude": 27.7
    },
    {
      "elevation": 15,
      "mindate": "1965-01-01",
      "maxdate": "2008-07-31",
      "latitude": 60.75,
      "name": "ANJALANKOSKI SIPPOLA HIRVELA, FI",
      "datacoverage": 1,
      "id": "GHCND:FIE00143186",
      "elevationUnit": "METERS",
      "longitude": 27.0831
    },
    {
      "elevation": 100,
      "mindate": "1965-01-01",
      "maxdate": "2007-07-31",
      "latitude": 61,
      "name": "LUUMAKI SAAREKS, FI",
      "datacoverage": 0.9981,
      "id": "GHCND:FIE00143191",
      "elevationUnit": "METERS",
      "longitude": 27.2167
    },
    {
      "elevation": 81,
      "mindate": "1966-01-01",
      "maxdate": "1993-01-01",
      "latitude": 61.2,
      "name": "SAVITAIPALE PELTOINLAHTI, FI",
      "datacoverage": 0.9876,
      "id": "GHCND:FIE00143196",
      "elevationUnit": "METERS",
      "longitude": 27.6831
    },
    {
      "elevation": 100,
      "mindate": "1965-01-01",
      "maxdate": "2008-07-31",
      "latitude": 61.2831,
      "name": "MANTYHARJU HALMENIEMI, FI",
      "datacoverage": 0.9924,
      "id": "GHCND:FIE00143201",
      "elevationUnit": "METERS",
      "longitude": 27.2167
    },
    {
      "elevation": 100,
      "mindate": "1965-01-01",
      "maxdate": "1995-05-31",
      "latitude": 61.35,
      "name": "SUOMENNIEMI PUNKANKYLA, FI",
      "datacoverage": 1,
      "id": "GHCND:FIE00143206",
      "elevationUnit": "METERS",
      "longitude": 27.4831
    },
    {
      "elevation": 5,
      "mindate": "1977-01-01",
      "maxdate": "2025-01-31",
      "latitude": 60.5269,
      "name": "VIROLAHTI KOIVUNIEMI, FI",
      "datacoverage": 1,
      "id": "GHCND:FIE00143211",
      "elevationUnit": "METERS",
      "longitude": 27.6756
    },
    {
      "elevation": 60,
      "mindate": "1993-06-01",
      "maxdate": "2000-10-23",
      "latitude": 60.7667,
      "name": "YLAMAA YLIJARVI, FI",
      "datacoverage": 0.9996,
      "id": "GHCND:FIE00143220",
      "elevationUnit": "METERS",
      "longitude": 27.9331
    },
    {
      "elevation": 106,
      "mindate": "1959-01-01",
      "maxdate": "2025-03-06",
      "latitude": 61.0439,
      "name": "LAPPEENRANTA LENTOASEMA, FI",
      "datacoverage": 0.9884,
      "id": "GHCND:FIE00143231",
      "elevationUnit": "METERS",
      "longitude": 28.1542
    },
    {
      "elevation": 95,
      "mindate": "1964-09-01",
      "maxdate": "1998-02-03",
      "latitude": 61.3667,
      "name": "RUOKOLAHTI KOTANIEMI, FI",
      "datacoverage": 1,
      "id": "GHCND:FIE00143236",
      "elevationUnit": "METERS",
      "longitude": 28.6667
    },
    {
      "elevation": 80,
      "mindate": "1965-01-01",
      "maxdate": "1973-09-30",
      "latitude": 61.1331,
      "name": "JOUTSENO HONKALAHTI, FI",
      "datacoverage": 1,
      "id": "GHCND:FIE00143241",
      "elevationUnit": "METERS",
      "longitude": 28.4831
    },
    {
      "elevation": 58,
      "mindate": "1966-01-01",
      "maxdate": "1990-12-31",
      "latitude": 61.1667,
      "name": "IMATRA SIITOLA, FI",
      "datacoverage": 1,
      "id": "GHCND:FIE00143246",
      "elevationUnit": "METERS",
      "longitude": 28.7831
    },
    {
      "elevation": 70,
      "mindate": "1966-01-01",
      "maxdate": "1973-12-31",
      "latitude": 61.3667,
      "name": "RUOKOLAHTI KOTANIEMI LATOSUO, FI",
      "datacoverage": 1,
      "id": "GHCND:FIE00143251",
      "elevationUnit": "METERS",
      "longitude": 28.7
    },
    {
      "elevation": 100,
      "mindate": "1967-09-01",
      "maxdate": "2008-12-31",
      "latitude": 61.3831,
      "name": "RUOKOLAHTI KOTALAHTI SIPINEN, FI",
      "datacoverage": 0.9738,
      "id": "GHCND:FIE00143256",
      "elevationUnit": "METERS",
      "longitude": 28.6667
    },
    {
      "elevation": 110,
      "mindate": "1965-08-01",
      "maxdate": "1995-09-30",
      "latitude": 61.4167,
      "name": "RUOKOLAHTI VALKJARVI, FI",
      "datacoverage": 1,
      "id": "GHCND:FIE00143261",
      "elevationUnit": "METERS",
      "longitude": 28.65
    },
    {
      "elevation": 86,
      "mindate": "1993-06-01",
      "maxdate": "2011-09-14",
      "latitude": 61.3044,
      "name": "TAIPALSAARI KYLANIEMI, FI",
      "datacoverage": 1,
      "id": "GHCND:FIE00143265",
      "elevationUnit": "METERS",
      "longitude": 28.1819
    },
    {
      "elevation": 46,
      "mindate": "1993-06-01",
      "maxdate": "2025-01-31",
      "latitude": 61.0392,
      "name": "LAPPEENRANTA KONNUNSUO, FI",
      "datacoverage": 0.9964,
      "id": "GHCND:FIE00143270",
      "elevationUnit": "METERS",
      "longitude": 28.5656
    },
    {
      "elevation": 103,
      "mindate": "1995-09-01",
      "maxdate": "2024-08-26",
      "latitude": 61.0569,
      "name": "LAPPEENRANTA LEPOLA, FI",
      "datacoverage": 0.9993,
      "id": "GHCND:FIE00143276",
      "elevationUnit": "METERS",
      "longitude": 28.2117
    },
    {
      "elevation": 95,
      "mindate": "1997-12-01",
      "maxdate": "2025-01-31",
      "latitude": 61.3681,
      "name": "RUOKOLAHTI KOTANIEMI SIITONEN, FI",
      "datacoverage": 1,
      "id": "GHCND:FIE00143281",
      "elevationUnit": "METERS",
      "longitude": 28.6831
    },
    {
      "elevation": 77,
      "mindate": "2009-11-01",
      "maxdate": "2025-01-31",
      "latitude": 61.1978,
      "name": "LAPPEENRANTA HIEKKAPAKKA, FI",
      "datacoverage": 1,
      "id": "GHCND:FIE00143295",
      "elevationUnit": "METERS",
      "longitude": 28.4756
    },
    {
      "elevation": 75,
      "mindate": "1959-01-01",
      "maxdate": "2016-05-31",
      "latitude": 61.4225,
      "name": "RAUTJARVI SIMPELE KANGASKOSKI, FI",
      "datacoverage": 0.9549,
      "id": "GHCND:FIE00143301",
      "elevationUnit": "METERS",
      "longitude": 29.3944
    },
    {
      "elevation": 74,
      "mindate": "1993-06-01",
      "maxdate": "2025-01-31",
      "latitude": 61.4442,
      "name": "PARIKKALA KOITSANLAHTI, FI",
      "datacoverage": 0.9776,
      "id": "GHCND:FIE00143306",
      "elevationUnit": "METERS",
      "longitude": 29.4639
    },
    {
      "elevation": 4,
      "mindate": "1959-01-01",
      "maxdate": "1974-07-31",
      "latitude": 61.5831,
      "name": "MANTYLUOTO PORI",
      "datacoverage": 0.9948,
      "id": "GHCND:FIE00143311",
      "elevationUnit": "METERS",
      "longitude": 21.4831
    },
    {
      "elevation": 5,
      "mindate": "1959-01-01",
      "maxdate": "2025-01-31",
      "latitude": 62.3339,
      "name": "KASKINEN SALGRUND, FI",
      "datacoverage": 0.3331,
      "id": "GHCND:FIE00143316",
      "elevationUnit": "METERS",
      "longitude": 21.1939
    },
    {
      "elevation": 39,
      "mindate": "1967-01-01",
      "maxdate": "2025-01-31",
      "latitude": 61.8481,
      "name": "MERIKARVIA TUORILA ALAKYLA, FI",
      "datacoverage": 0.9856,
      "id": "GHCND:FIE00143321",
      "elevationUnit": "METERS",
      "longitude": 21.6542
    },
    {
      "elevation": 54,
      "mindate": "1968-01-01",
      "maxdate": "2025-01-31",
      "latitude": 62.1328,
      "name": "ISOJOKI KARJENKOSKI, FI",
      "datacoverage": 0.9985,
      "id": "GHCND:FIE00143326",
      "elevationUnit": "METERS",
      "longitude": 21.6769
    },
    {
      "elevation": 70,
      "mindate": "1965-01-01",
      "maxdate": "2003-12-31",
      "latitude": 62.1831,
      "name": "ISOJOKI VANHAKYLA, FI",
      "datacoverage": 0.9958,
      "id": "GHCND:FIE00143331",
      "elevationUnit": "METERS",
      "longitude": 21.8
    },
    {
      "elevation": 5,
      "mindate": "1964-01-01",
      "maxdate": "1990-04-30",
      "latitude": 62.2667,
      "name": "KRISTIINANKAUPUNKI KESKUSTA, FI",
      "datacoverage": 0.9994,
      "id": "GHCND:FIE00143336",
      "elevationUnit": "METERS",
      "longitude": 21.4
    },
    {
      "elevation": 60,
      "mindate": "1965-01-01",
      "maxdate": "2025-01-31",
      "latitude": 62.4917,
      "name": "TEUVA KAUPPILANKYLA, FI",
      "datacoverage": 0.982,
      "id": "GHCND:FIE00143341",
      "elevationUnit": "METERS",
      "longitude": 21.7628
    },
    {
      "elevation": 1,
      "mindate": "1974-01-01",
      "maxdate": "2013-01-01",
      "latitude": 62.2575,
      "name": "KRISTIINANKAUPUNKI KARHUSAARI",
      "datacoverage": 0.7974,
      "id": "GHCND:FIE00143346",
      "elevationUnit": "METERS",
      "longitude": 21.3208
    },
    {
      "elevation": 100,
      "mindate": "1993-12-01",
      "maxdate": "2007-12-31",
      "latitude": 62.3206,
      "name": "KARIJOKI KANKALO, FI",
      "datacoverage": 1,
      "id": "GHCND:FIE00143361",
      "elevationUnit": "METERS",
      "longitude": 21.8483
    },
    {
      "elevation": 3,
      "mindate": "1996-08-01",
      "maxdate": "2025-01-31",
      "latitude": 61.6303,
      "name": "PORI TAHKOLUOTO",
      "datacoverage": 1,
      "id": "GHCND:FIE00143365",
      "elevationUnit": "METERS",
      "longitude": 21.3792
    },
    {
      "elevation": 0,
      "mindate": "1997-09-01",
      "maxdate": "2025-01-31",
      "latitude": 62.2031,
      "name": "KRISTIINANKAUPUNKI MAJAKKA",
      "datacoverage": 0.9731,
      "id": "GHCND:FIE00143370",
      "elevationUnit": "METERS",
      "longitude": 21.1731
    },
    {
      "elevation": 124,
      "mindate": "1959-01-01",
      "maxdate": "2025-03-06",
      "latitude": 61.8381,
      "name": "KANKAANPAA NIINISALO PUOLUSTUS, FI",
      "datacoverage": 1,
      "id": "GHCND:FIE00143381",
      "elevationUnit": "METERS",
      "longitude": 22.4669
    },
    {
      "elevation": 92,
      "mindate": "1959-01-01",
      "maxdate": "1993-12-31",
      "latitude": 61.5167,
      "name": "MOUHIJARVI SELKEE, FI",
      "datacoverage": 1,
      "id": "GHCND:FIE00143386",
      "elevationUnit": "METERS",
      "longitude": 22.9831
    },
    {
      "elevation": 160,
      "mindate": "1966-03-01",
      "maxdate": "2025-01-31",
      "latitude": 62.1831,
      "name": "KARVIA ALKKIA, FI",
      "datacoverage": 0.9836,
      "id": "GHCND:FIE00143391",
      "elevationUnit": "METERS",
      "longitude": 22.8031
    },
    {
      "elevation": 69,
      "mindate": "1965-01-01",
      "maxdate": "2017-04-05",
      "latitude": 61.6142,
      "name": "LAVIA RIIHO, FI",
      "datacoverage": 0.9757,
      "id": "GHCND:FIE00143396",
      "elevationUnit": "METERS",
      "longitude": 22.5442
    },
    {
      "elevation": 105,
      "mindate": "1966-01-01",
      "maxdate": "1995-10-31",
      "latitude": 61.7,
      "name": "IKAALINEN KURKELA, FI",
      "datacoverage": 0.9945,
      "id": "GHCND:FIE00143401",
      "elevationUnit": "METERS",
      "longitude": 22.7831
    },
    {
      "elevation": 85,
      "mindate": "1966-04-01",
      "maxdate": "2004-05-31",
      "latitude": 61.7,
      "name": "POMARKKU KK, FI",
      "datacoverage": 1,
      "id": "GHCND:FIE00143406",
      "elevationUnit": "METERS",
      "longitude": 22.0167
    },
    {
      "elevation": 125,
      "mindate": "1967-09-01",
      "maxdate": "1988-04-30",
      "latitude": 61.7167,
      "name": "IKAALINEN VARPEE, FI",
      "datacoverage": 0.9993,
      "id": "GHCND:FIE00143411",
      "elevationUnit": "METERS",
      "longitude": 22.8
    },
    {
      "elevation": 124,
      "mindate": "1966-01-01",
      "maxdate": "2021-09-30",
      "latitude": 61.7389,
      "name": "IKAALINEN VEHUVARPEE, FI",
      "datacoverage": 0.9821,
      "id": "GHCND:FIE00143416",
      "elevationUnit": "METERS",
      "longitude": 22.8264
    },
    {
      "elevation": 115,
      "mindate": "1966-01-01",
      "maxdate": "2008-12-31",
      "latitude": 61.7331,
      "name": "JAMIJARVI PIRTTIJARVI, FI",
      "datacoverage": 1,
      "id": "GHCND:FIE00143421",
      "elevationUnit": "METERS",
      "longitude": 22.7167
    },
    {
      "elevation": 85,
      "mindate": "1963-01-01",
      "maxdate": "1993-05-31",
      "latitude": 61.9167,
      "name": "HONKAJOKI ANTILA, FI",
      "datacoverage": 0.9946,
      "id": "GHCND:FIE00143426",
      "elevationUnit": "METERS",
      "longitude": 22.2331
    },
    {
      "elevation": 108,
      "mindate": "1965-01-01",
      "maxdate": "1978-06-30",
      "latitude": 62.0831,
      "name": "HONKAJOKI LAUHALA, FI",
      "datacoverage": 0.988,
      "id": "GHCND:FIE00143431",
      "elevationUnit": "METERS",
      "longitude": 22.25
    },
    {
      "elevation": 136,
      "mindate": "1965-01-01",
      "maxdate": "2008-07-31",
      "latitude": 62.1317,
      "name": "KARVIA KK, FI",
      "datacoverage": 0.9828,
      "id": "GHCND:FIE00143436",
      "elevationUnit": "METERS",
      "longitude": 22.5644
    },
    {
      "elevation": 166,
      "mindate": "1965-01-01",
      "maxdate": "2008-07-31",
      "latitude": 62.2831,
      "name": "KAUHAJOKI NUMMIJARVI, FI",
      "datacoverage": 0.9981,
      "id": "GHCND:FIE00143441",
      "elevationUnit": "METERS",
      "longitude": 22.4
    },
    {
      "elevation": 140,
      "mindate": "1966-04-01",
      "maxdate": "2008-07-31",
      "latitude": 62.3167,
      "name": "JALASJARVI KOSKUE, FI",
      "datacoverage": 1,
      "id": "GHCND:FIE00143446",
      "elevationUnit": "METERS",
      "longitude": 22.8667
    },
    {
      "elevation": 97,
      "mindate": "1965-01-01",
      "maxdate": "2017-12-31",
      "latitude": 62.4153,
      "name": "KAUHAJOKI KAUPUNKI, FI",
      "datacoverage": 0.9805,
      "id": "GHCND:FIE00143451",
      "elevationUnit": "METERS",
      "longitude": 22.1931
    },
    {
      "elevation": 100,
      "mindate": "1970-01-01",
      "maxdate": "2025-01-30",
      "latitude": 62.4728,
      "name": "JALASJARVI HIRVIJARVI, FI",
      "datacoverage": 0.8804,
      "id": "GHCND:FIE00143456",
      "elevationUnit": "METERS",
      "longitude": 22.9133
    },
    {
      "elevation": 115,
      "mindate": "1969-01-01",
      "maxdate": "1996-06-30",
      "latitude": 62.1167,
      "name": "ISOJOKI SARVILUOMA, FI",
      "datacoverage": 1,
      "id": "GHCND:FIE00143461",
      "elevationUnit": "METERS",
      "longitude": 22.05
    },
    {
      "elevation": 150,
      "mindate": "1970-01-01",
      "maxdate": "1986-12-31",
      "latitude": 62.15,
      "name": "KAUHAJOKI MUURAHAINEN 1, FI",
      "datacoverage": 1,
      "id": "GHCND:FIE00143466",
      "elevationUnit": "METERS",
      "longitude": 22.2331
    },
    {
      "elevation": 93,
      "mindate": "1993-06-01",
      "maxdate": "2025-01-31",
      "latitude": 62.4131,
      "name": "KAUHAJOKI KUJA KOKKO, FI",
      "datacoverage": 1,
      "id": "GHCND:FIE00143471",
      "elevationUnit": "METERS",
      "longitude": 22.1867
    },
    {
      "elevation": 125,
      "mindate": "1989-03-01",
      "maxdate": "2008-12-31",
      "latitude": 62.15,
      "name": "KAUHAJOKI MUURAHAINEN, FI",
      "datacoverage": 1,
      "id": "GHCND:FIE00143476",
      "elevationUnit": "METERS",
      "longitude": 22.2667
    },
    {
      "elevation": 170,
      "mindate": "1959-01-01",
      "maxdate": "2007-12-31",
      "latitude": 61.9489,
      "name": "KURU LANSI AURE, FI",
      "datacoverage": 1,
      "id": "GHCND:FIE00143486",
      "elevationUnit": "METERS",
      "longitude": 23.3767
    },
    {
      "elevation": 171,
      "mindate": "1959-01-01",
      "maxdate": "1993-01-31",
      "latitude": 62.2,
      "name": "KIHNIO AITONEVA, FI",
      "datacoverage": 1,
      "id": "GHCND:FIE00143491",
      "elevationUnit": "METERS",
      "longitude": 23.3167
    },
    {
      "elevation": 155,
      "mindate": "1965-01-01",
      "maxdate": "2014-12-31",
      "latitude": 61.6089,
      "name": "YLOJARVI METSAKYLA, FI",
      "datacoverage": 0.9984,
      "id": "GHCND:FIE00143496",
      "elevationUnit": "METERS",
      "longitude": 23.5075
    },
    {
      "elevation": 105,
      "mindate": "1965-01-01",
      "maxdate": "2002-07-31",
      "latitude": 61.6831,
      "name": "YLOJARVI TAIVALPOHJA, FI",
      "datacoverage": 0.8883,
      "id": "GHCND:FIE00143501",
      "elevationUnit": "METERS",
      "longitude": 23.6331
    },
    {
      "elevation": 92,
      "mindate": "1966-01-01",
      "maxdate": "1980-08-31",
      "latitude": 61.7667,
      "name": "IKAALINEN KESKUSTA, FI",
      "datacoverage": 0.9319,
      "id": "GHCND:FIE00143506",
      "elevationUnit": "METERS",
      "longitude": 23.0667
    },
    {
      "elevation": 118,
      "mindate": "1965-01-01",
      "maxdate": "2014-12-31",
      "latitude": 61.9208,
      "name": "IKAALINEN VAHOJARVI, FI",
      "datacoverage": 0.9967,
      "id": "GHCND:FIE00143511",
      "elevationUnit": "METERS",
      "longitude": 23.0956
    },
    {
      "elevation": 142,
      "mindate": "1965-01-01",
      "maxdate": "1997-10-31",
      "latitude": 62.1167,
      "name": "PARKANO LAMMINKOSKI, FI",
      "datacoverage": 0.9696,
      "id": "GHCND:FIE00143516",
      "elevationUnit": "METERS",
      "longitude": 23.0167
    },
    {
      "elevation": 207,
      "mindate": "1965-01-01",
      "maxdate": "1994-12-31",
      "latitude": 62.0667,
      "name": "KURU RIUTTASKYLA, FI",
      "datacoverage": 1,
      "id": "GHCND:FIE00143521",
      "elevationUnit": "METERS",
      "longitude": 23.65
    },
    {
      "elevation": 113,
      "mindate": "1965-01-01",
      "maxdate": "1998-09-09",
      "latitude": 62.155,
      "name": "VIRRAT VASKIVESI, FI",
      "datacoverage": 0.9994,
      "id": "GHCND:FIE00143526",
      "elevationUnit": "METERS",
      "longitude": 23.6578
    },
    {
      "elevation": 150,
      "mindate": "1965-01-01",
      "maxdate": "1993-01-01",
      "latitude": 62.1831,
      "name": "KIHNIO KANKARI, FI",
      "datacoverage": 0.9999,
      "id": "GHCND:FIE00143531",
      "elevationUnit": "METERS",
      "longitude": 23.0831
    },
    {
      "elevation": 128,
      "mindate": "1966-01-01",
      "maxdate": "2007-05-31",
      "latitude": 62.2167,
      "name": "VIRRAT JAAHDYSPOHJA, FI",
      "datacoverage": 0.9759,
      "id": "GHCND:FIE00143536",
      "elevationUnit": "METERS",
      "longitude": 23.8331
    },
    {
      "elevation": 108,
      "mindate": "1965-01-01",
      "maxdate": "1972-12-31",
      "latitude": 62.4,
      "name": "VIRRAT KILLINKOSKI, FI",
      "datacoverage": 0.8751,
      "id": "GHCND:FIE00143541",
      "elevationUnit": "METERS",
      "longitude": 23.9
    },
    {
      "elevation": 120,
      "mindate": "1966-01-01",
      "maxdate": "2025-01-31",
      "latitude": 62.4492,
      "name": "ALAVUS SULKAVANKYLA, FI",
      "datacoverage": 0.9999,
      "id": "GHCND:FIE00143546",
      "elevationUnit": "METERS",
      "longitude": 23.5581
    },
    {
      "elevation": 130,
      "mindate": "1963-01-01",
      "maxdate": "2005-10-31",
      "latitude": 62.4831,
      "name": "ALAVUS KATTELUS, FI",
      "datacoverage": 0.9994,
      "id": "GHCND:FIE00143551",
      "elevationUnit": "METERS",
      "longitude": 23.7667
    },
    {
      "elevation": 99,
      "mindate": "1965-01-01",
      "maxdate": "1970-11-30",
      "latitude": 61.5,
      "name": "TAMPERE KPKI, FI",
      "datacoverage": 0.8032,
      "id": "GHCND:FIE00143556",
      "elevationUnit": "METERS",
      "longitude": 23.7167
    },
    {
      "elevation": 142,
      "mindate": "1979-01-01",
      "maxdate": "2008-07-31",
      "latitude": 61.8,
      "name": "YLOJARVI VILJAKKALA, FI",
      "datacoverage": 1,
      "id": "GHCND:FIE00143561",
      "elevationUnit": "METERS",
      "longitude": 23.5
    },
    {
      "elevation": 71,
      "mindate": "1993-06-01",
      "maxdate": "2000-09-14",
      "latitude": 61.6167,
      "name": "HAMEENKYRO KYROSPOHJA, FI",
      "datacoverage": 0.9998,
      "id": "GHCND:FIE00143565",
      "elevationUnit": "METERS",
      "longitude": 23.1667
    },
    {
      "elevation": 138,
      "mindate": "1993-06-01",
      "maxdate": "2025-01-31",
      "latitude": 62.3275,
      "name": "VIRRAT AIJANNEVA, FI",
      "datacoverage": 1,
      "id": "GHCND:FIE00143570",
      "elevationUnit": "METERS",
      "longitude": 23.5456
    },
    {
      "elevation": 96,
      "mindate": "1993-06-01",
      "maxdate": "2025-01-30",
      "latitude": 61.5175,
      "name": "TAMPERE SIILINKARI, FI",
      "datacoverage": 0.9671,
      "id": "GHCND:FIE00143575",
      "elevationUnit": "METERS",
      "longitude": 23.7569
    },
    {
      "elevation": 145,
      "mindate": "1964-04-01",
      "maxdate": "2025-01-31",
      "latitude": 61.8564,
      "name": "JAMSA HALLI LENTOKENTTA, FI",
      "datacoverage": 0.9984,
      "id": "GHCND:FIE00143586",
      "elevationUnit": "METERS",
      "longitude": 24.7892
    },
    {
      "elevation": 98,
      "mindate": "1965-05-01",
      "maxdate": "1988-12-31",
      "latitude": 61.55,
      "name": "KANGASALA KOYRA, FI",
      "datacoverage": 0.9993,
      "id": "GHCND:FIE00143591",
      "elevationUnit": "METERS",
      "longitude": 24.2331
    },
    {
      "elevation": 153,
      "mindate": "1959-01-01",
      "maxdate": "2025-01-31",
      "latitude": 61.8456,
      "name": "JUUPAJOKI HYYTIALA, FI",
      "datacoverage": 1,
      "id": "GHCND:FIE00143596",
      "elevationUnit": "METERS",
      "longitude": 24.2906
    },
    {
      "elevation": 106,
      "mindate": "1970-01-01",
      "maxdate": "1973-12-31",
      "latitude": 62.0331,
      "name": "MANTTA KPKI, FI",
      "datacoverage": 0.9583,
      "id": "GHCND:FIE00143601",
      "elevationUnit": "METERS",
      "longitude": 24.6331
    },
    {
      "elevation": 120,
      "mindate": "1965-01-01",
      "maxdate": "1998-12-31",
      "latitude": 61.5,
      "name": "KUHMALAHTI VEHKAJARVI, FI",
      "datacoverage": 1,
      "id": "GHCND:FIE00143606",
      "elevationUnit": "METERS",
      "longitude": 24.8167
    },
    {
      "elevation": 89,
      "mindate": "1961-01-01",
      "maxdate": "2001-01-31",
      "latitude": 61.55,
      "name": "ORIVESI UIHERLA, FI",
      "datacoverage": 0.9958,
      "id": "GHCND:FIE00143611",
      "elevationUnit": "METERS",
      "longitude": 24.5331
    },
    {
      "elevation": 110,
      "mindate": "1965-09-01",
      "maxdate": "2008-12-31",
      "latitude": 61.6331,
      "name": "ORIVESI YLISKYLA, FI",
      "datacoverage": 0.998,
      "id": "GHCND:FIE00143616",
      "elevationUnit": "METERS",
      "longitude": 24.3
    },
    {
      "elevation": 100,
      "mindate": "1968-01-01",
      "maxdate": "2006-10-31",
      "latitude": 61.6667,
      "name": "ORIVESI KESKUSTA, FI",
      "datacoverage": 0.8004,
      "id": "GHCND:FIE00143621",
      "elevationUnit": "METERS",
      "longitude": 24.35
    },
    {
      "elevation": 118,
      "mindate": "1965-01-01",
      "maxdate": "1995-12-31",
      "latitude": 61.7831,
      "name": "JUUPAJOKI HOYDE, FI",
      "datacoverage": 0.9947,
      "id": "GHCND:FIE00143626",
      "elevationUnit": "METERS",
      "longitude": 24.55
    },
    {
      "elevation": 106,
      "mindate": "1965-01-01",
      "maxdate": "2006-07-31",
      "latitude": 61.8167,
      "name": "JUUPAJOKI SAHRAJARVI, FI",
      "datacoverage": 0.9994,
      "id": "GHCND:FIE00143631",
      "elevationUnit": "METERS",
      "longitude": 24.5
    },
    {
      "elevation": 112,
      "mindate": "1965-01-01",
      "maxdate": "1985-11-30",
      "latitude": 61.9167,
      "name": "RUOVESI PEKKALA, FI",
      "datacoverage": 1,
      "id": "GHCND:FIE00143636",
      "elevationUnit": "METERS",
      "longitude": 24.0667
    },
    {
      "elevation": 115,
      "mindate": "1965-01-01",
      "maxdate": "2007-12-31",
      "latitude": 62.0167,
      "name": "VILPPULA KK, FI",
      "datacoverage": 0.9419,
      "id": "GHCND:FIE00143641",
      "elevationUnit": "METERS",
      "longitude": 24.5167
    },
    {
      "elevation": 140,
      "mindate": "1965-01-01",
      "maxdate": "1995-04-30",
      "latitude": 62.0167,
      "name": "MANTTA RAJA AHO, FI",
      "datacoverage": 1,
      "id": "GHCND:FIE00143646",
      "elevationUnit": "METERS",
      "longitude": 24.7167
    },
    {
      "elevation": 115,
      "mindate": "1966-04-01",
      "maxdate": "1993-03-01",
      "latitude": 62.15,
      "name": "VILPPULA POHJASLAHTI, FI",
      "datacoverage": 1,
      "id": "GHCND:FIE00143651",
      "elevationUnit": "METERS",
      "longitude": 24.05
    },
    {
      "elevation": 120,
      "mindate": "1965-01-01",
      "maxdate": "1999-10-31",
      "latitude": 62.2167,
      "name": "KEURUU RIIHO, FI",
      "datacoverage": 0.9068,
      "id": "GHCND:FIE00143656",
      "elevationUnit": "METERS",
      "longitude": 24.4167
    },
    {
      "elevation": 110,
      "mindate": "1965-01-01",
      "maxdate": "1993-01-01",
      "latitude": 62.2667,
      "name": "KEURUU SUOLAHTI, FI",
      "datacoverage": 1,
      "id": "GHCND:FIE00143661",
      "elevationUnit": "METERS",
      "longitude": 24.7167
    },
    {
      "elevation": 145,
      "mindate": "1966-04-01",
      "maxdate": "1982-09-30",
      "latitude": 62.3167,
      "name": "KEURUU PIHLAJAVESI LAPIN KOULU, FI",
      "datacoverage": 1,
      "id": "GHCND:FIE00143666",
      "elevationUnit": "METERS",
      "longitude": 24.1331
    },
    {
      "elevation": 180,
      "mindate": "1965-01-01",
      "maxdate": "2007-12-31",
      "latitude": 62.3331,
      "name": "KEURUU PIHLAJAVESI, FI",
      "datacoverage": 1,
      "id": "GHCND:FIE00143671",
      "elevationUnit": "METERS",
      "longitude": 24.3
    },
    {
      "elevation": 103,
      "mindate": "1970-01-01",
      "maxdate": "2005-10-31",
      "latitude": 61.4969,
      "name": "KUHMALAHTI PUNTARI, FI",
      "datacoverage": 0.7954,
      "id": "GHCND:FIE00143676",
      "elevationUnit": "METERS",
      "longitude": 24.6214
    }
  ]
}
