{
  "metadata": {
    "resultset": {
      "offset": 54000,
      "count": 154115,
      "limit": 100
    }
  },
  "results": [
    {
      "elevation": 122.8,
      "mindate": "2014-08-01",
      "maxdate": "2018-10-14",
      "latitude": 44.5859439,
      "name": "ELGIN 7.1 WSW CANWARN, CA",
      "datacoverage": 1,
      "id": "GHCND:CA1ON000077",
      "elevationUnit": "METERS",
      "longitude": -76.3047695
    },
    {
      "elevation": 340.5,
      "mindate": "2014-08-01",
      "maxdate": "2015-12-29",
      "latitude": 43.655925,
      "name": "WALTON 2.8 SSW MVCA, CA",
      "datacoverage": 0.9925,
      "id": "GHCND:CA1ON000079",
      "elevationUnit": "METERS",
      "longitude": -81.310024
    },
    {
      "elevation": 366.1,
      "mindate": "2014-07-01",
      "maxdate": "2022-04-25",
      "latitude": 43.678308,
      "name": "WALTON 1.1 ESE CANWARN, CA",
      "datacoverage": 0.7051,
      "id": "GHCND:CA1ON000080",
      "elevationUnit": "METERS",
      "longitude": -81.287065
    },
    {
      "elevation": 181.1,
      "mindate": "2014-07-01",
      "maxdate": "2014-11-18",
      "latitude": 43.004764,
      "name": "WELLAND 2.0 NW, CA",
      "datacoverage": 0.9947,
      "id": "GHCND:CA1ON000082",
      "elevationUnit": "METERS",
      "longitude": -79.265689
    },
    {
      "elevation": 123.1,
      "mindate": "2014-04-01",
      "maxdate": "2014-11-16",
      "latitude": 45.2553291,
      "name": "STITTSVILLE 1.8 WSW, CA",
      "datacoverage": 0.998,
      "id": "GHCND:CA1ON000083",
      "elevationUnit": "METERS",
      "longitude": -75.9357834
    },
    {
      "elevation": 243.2,
      "mindate": "2014-08-01",
      "maxdate": "2020-03-22",
      "latitude": 43.9917145,
      "name": "SCHOMBERG 1.2 S, CA",
      "datacoverage": 0.9996,
      "id": "GHCND:CA1ON000084",
      "elevationUnit": "METERS",
      "longitude": -79.6777802
    },
    {
      "elevation": 321.9,
      "mindate": "2014-07-01",
      "maxdate": "2023-09-18",
      "latitude": 43.4969101,
      "name": "GUELPH 5.1 S CANWARN, CA",
      "datacoverage": 0.9993,
      "id": "GHCND:CA1ON000086",
      "elevationUnit": "METERS",
      "longitude": -80.2438583
    },
    {
      "elevation": 354.2,
      "mindate": "2007-08-27",
      "maxdate": "2024-08-16",
      "latitude": 48.3538513,
      "name": "O CONNOR 3.7 WSW LRCA, CA",
      "datacoverage": 0.6875,
      "id": "GHCND:CA1ON000087",
      "elevationUnit": "METERS",
      "longitude": -89.7461319
    },
    {
      "elevation": 352.3,
      "mindate": "2014-08-06",
      "maxdate": "2016-06-21",
      "latitude": 48.4902191,
      "name": "THUNDER BAY 14.1 NW LRCA, CA",
      "datacoverage": 0.1808,
      "id": "GHCND:CA1ON000088",
      "elevationUnit": "METERS",
      "longitude": -89.385788
    },
    {
      "elevation": 188.4,
      "mindate": "2014-07-01",
      "maxdate": "2015-06-28",
      "latitude": 43.5628586,
      "name": "MISSISSAUGA 6.7 WSW, CA",
      "datacoverage": 0.9173,
      "id": "GHCND:CA1ON000089",
      "elevationUnit": "METERS",
      "longitude": -79.7346878
    },
    {
      "elevation": 302.4,
      "mindate": "2015-01-01",
      "maxdate": "2018-09-20",
      "latitude": 47.4021111,
      "name": "COBALT 0.4 NE CANWARN, CA",
      "datacoverage": 1,
      "id": "GHCND:CA1ON000090",
      "elevationUnit": "METERS",
      "longitude": -79.6764984
    },
    {
      "elevation": 70.1,
      "mindate": "2014-07-01",
      "maxdate": "2025-03-07",
      "latitude": 45.42318,
      "name": "DUNROBIN 1.9 W MVCA, CA",
      "datacoverage": 0.9987,
      "id": "GHCND:CA1ON000092",
      "elevationUnit": "METERS",
      "longitude": -76.045259
    },
    {
      "elevation": 185.9,
      "mindate": "2015-04-07",
      "maxdate": "2017-09-20",
      "latitude": 42.4193115,
      "name": "CHATHAM 12.6 E, CA",
      "datacoverage": 0.9898,
      "id": "GHCND:CA1ON000093",
      "elevationUnit": "METERS",
      "longitude": -82.0386963
    },
    {
      "elevation": 275.2,
      "mindate": "2014-08-01",
      "maxdate": "2016-06-05",
      "latitude": 43.420111,
      "name": "HENSALL 2.0 SSE MVCA, CA",
      "datacoverage": 0.875,
      "id": "GHCND:CA1ON000094",
      "elevationUnit": "METERS",
      "longitude": -81.495641
    },
    {
      "elevation": 256.9,
      "mindate": "2014-08-01",
      "maxdate": "2025-03-07",
      "latitude": 44.060725,
      "name": "NEWMARKET 1.3 ENE AAFC, CA",
      "datacoverage": 0.9996,
      "id": "GHCND:CA1ON000096",
      "elevationUnit": "METERS",
      "longitude": -79.44305
    },
    {
      "elevation": 730,
      "mindate": "2014-08-01",
      "maxdate": "2024-11-28",
      "latitude": 48.376396,
      "name": "KAKABEKA FALLS 4.7 ESE, CA",
      "datacoverage": 0.7497,
      "id": "GHCND:CA1ON000097",
      "elevationUnit": "METERS",
      "longitude": -89.558171
    },
    {
      "elevation": 275.5,
      "mindate": "2015-04-01",
      "maxdate": "2020-11-16",
      "latitude": 43.3593407,
      "name": "EXETER 2.8 E ABCA, CA",
      "datacoverage": 0.9961,
      "id": "GHCND:CA1ON000098",
      "elevationUnit": "METERS",
      "longitude": -81.4465179
    },
    {
      "elevation": 241.1,
      "mindate": "2014-09-01",
      "maxdate": "2024-12-16",
      "latitude": 48.1976509,
      "name": "JARVIS RIVER 3.7 NE LRCA, CA",
      "datacoverage": 0.643,
      "id": "GHCND:CA1ON000099",
      "elevationUnit": "METERS",
      "longitude": -89.4237518
    },
    {
      "elevation": 184.1,
      "mindate": "2014-08-20",
      "maxdate": "2023-01-02",
      "latitude": 42.271091,
      "name": "WINDSOR 3.0 SE, CA",
      "datacoverage": 0.998,
      "id": "GHCND:CA1ON000101",
      "elevationUnit": "METERS",
      "longitude": -83.031084
    },
    {
      "elevation": 177.1,
      "mindate": "2014-08-01",
      "maxdate": "2015-11-20",
      "latitude": 42.246916,
      "name": "LA SALLE 1.8 NE, CA",
      "datacoverage": 1,
      "id": "GHCND:CA1ON000102",
      "elevationUnit": "METERS",
      "longitude": -83.080431
    },
    {
      "elevation": 206.3,
      "mindate": "2014-09-01",
      "maxdate": "2025-03-07",
      "latitude": 43.142459,
      "name": "CALEDONIA 12.4 NW, CA",
      "datacoverage": 1,
      "id": "GHCND:CA1ON000103",
      "elevationUnit": "METERS",
      "longitude": -80.069568
    },
    {
      "elevation": 193.2,
      "mindate": "2014-09-01",
      "maxdate": "2017-11-18",
      "latitude": 42.342178,
      "name": "CHARING CROSS 2.5 ENE, CA",
      "datacoverage": 0.9989,
      "id": "GHCND:CA1ON000106",
      "elevationUnit": "METERS",
      "longitude": -82.070893
    },
    {
      "elevation": 378.6,
      "mindate": "2014-10-01",
      "maxdate": "2024-11-28",
      "latitude": 43.987327,
      "name": "MILDMAY 5.9 SSE, CA",
      "datacoverage": 0.9998,
      "id": "GHCND:CA1ON000109",
      "elevationUnit": "METERS",
      "longitude": -81.103258
    },
    {
      "elevation": 300.2,
      "mindate": "2014-09-01",
      "maxdate": "2018-08-29",
      "latitude": 44.112287,
      "name": "WALKERTON 3.8 WSW, CA",
      "datacoverage": 0.801,
      "id": "GHCND:CA1ON000110",
      "elevationUnit": "METERS",
      "longitude": -81.195691
    },
    {
      "elevation": 98.5,
      "mindate": "2014-09-01",
      "maxdate": "2017-04-28",
      "latitude": 43.3445702,
      "name": "BURLINGTON 2.9 SSE, CA",
      "datacoverage": 0.8952,
      "id": "GHCND:CA1ON000115",
      "elevationUnit": "METERS",
      "longitude": -79.8059311
    },
    {
      "elevation": 338.3,
      "mindate": "2014-10-01",
      "maxdate": "2024-11-29",
      "latitude": 44.1652527,
      "name": "DURHAM 1.4 S, CA",
      "datacoverage": 0.9998,
      "id": "GHCND:CA1ON000118",
      "elevationUnit": "METERS",
      "longitude": -80.8206406
    },
    {
      "elevation": 80.2,
      "mindate": "2014-09-01",
      "maxdate": "2025-02-26",
      "latitude": 44.1384659,
      "name": "BELLEVILLE 5.2 SW QUINTE CONSERVATION, CA",
      "datacoverage": 1,
      "id": "GHCND:CA1ON000119",
      "elevationUnit": "METERS",
      "longitude": -77.4299774
    },
    {
      "elevation": 59.1,
      "mindate": "2014-09-01",
      "maxdate": "2021-01-03",
      "latitude": 45.462429,
      "name": "DUNROBIN 5.8 NE MIVCA, CA",
      "datacoverage": 1,
      "id": "GHCND:CA1ON000120",
      "elevationUnit": "METERS",
      "longitude": -75.9711685
    },
    {
      "elevation": 242,
      "mindate": "2014-10-04",
      "maxdate": "2016-12-27",
      "latitude": 49.6882782,
      "name": "HEARST 1.2 W, CA",
      "datacoverage": 0.4963,
      "id": "GHCND:CA1ON000121",
      "elevationUnit": "METERS",
      "longitude": -83.6775665
    },
    {
      "elevation": 397.5,
      "mindate": "2014-01-30",
      "maxdate": "2024-08-09",
      "latitude": 43.6901703,
      "name": "ELORA 0.8 NE CANWARN, CA",
      "datacoverage": 0.2596,
      "id": "GHCND:CA1ON000125",
      "elevationUnit": "METERS",
      "longitude": -80.420639
    },
    {
      "elevation": 84.4,
      "mindate": "2015-11-18",
      "maxdate": "2017-01-08",
      "latitude": 43.9149704,
      "name": "MILFORD 8.0 WSW CANWARN, CA",
      "datacoverage": 0.7823,
      "id": "GHCND:CA1ON000129",
      "elevationUnit": "METERS",
      "longitude": -77.1877213
    },
    {
      "elevation": 271.6,
      "mindate": "2013-12-01",
      "maxdate": "2022-06-29",
      "latitude": 44.4113503,
      "name": "BARRIE 3.6 N CANWARN, CA",
      "datacoverage": 0.643,
      "id": "GHCND:CA1ON000130",
      "elevationUnit": "METERS",
      "longitude": -79.6981735
    },
    {
      "elevation": 177.1,
      "mindate": "2015-09-01",
      "maxdate": "2025-03-07",
      "latitude": 42.326561,
      "name": "TECUMSEH 0.7 NNW CANWARN, CA",
      "datacoverage": 1,
      "id": "GHCND:CA1ON000131",
      "elevationUnit": "METERS",
      "longitude": -82.8873291
    },
    {
      "elevation": 448.4,
      "mindate": "2014-10-01",
      "maxdate": "2020-11-01",
      "latitude": 43.873721,
      "name": "ORANGEVILLE 5.1 SSW CANWARN, CA",
      "datacoverage": 0.9998,
      "id": "GHCND:CA1ON000132",
      "elevationUnit": "METERS",
      "longitude": -80.134288
    },
    {
      "elevation": 72.5,
      "mindate": "2014-11-01",
      "maxdate": "2015-12-24",
      "latitude": 44.790977,
      "name": "CARDINAL 0.1 NNE CANWARN, CA",
      "datacoverage": 1,
      "id": "GHCND:CA1ON000133",
      "elevationUnit": "METERS",
      "longitude": -75.382153
    },
    {
      "elevation": 449.6,
      "mindate": "2014-11-01",
      "maxdate": "2025-03-05",
      "latitude": 44.041166,
      "name": "MOUNT FOREST 7.6 NNE, CA",
      "datacoverage": 1,
      "id": "GHCND:CA1ON000143",
      "elevationUnit": "METERS",
      "longitude": -80.68934
    },
    {
      "elevation": 429.5,
      "mindate": "2014-11-01",
      "maxdate": "2022-08-26",
      "latitude": 43.691116,
      "name": "DRAYTON 7.0 S, CA",
      "datacoverage": 1,
      "id": "GHCND:CA1ON000144",
      "elevationUnit": "METERS",
      "longitude": -80.653523
    },
    {
      "elevation": 362.7,
      "mindate": "2015-06-01",
      "maxdate": "2024-11-11",
      "latitude": 43.594337,
      "name": "MONKTON 3.9 E, CA",
      "datacoverage": 0.998,
      "id": "GHCND:CA1ON000145",
      "elevationUnit": "METERS",
      "longitude": -81.033028
    },
    {
      "elevation": 340.5,
      "mindate": "2014-11-01",
      "maxdate": "2025-03-07",
      "latitude": 43.742101,
      "name": "BRUSSELS 0.4 ESE MVCA, CA",
      "datacoverage": 1,
      "id": "GHCND:CA1ON000149",
      "elevationUnit": "METERS",
      "longitude": -81.246272
    },
    {
      "elevation": 326.4,
      "mindate": "2014-11-01",
      "maxdate": "2015-04-02",
      "latitude": 43.894168,
      "name": "WINGHAM 8.6 W MVCA, CA",
      "datacoverage": 1,
      "id": "GHCND:CA1ON000152",
      "elevationUnit": "METERS",
      "longitude": -81.416115
    },
    {
      "elevation": 221.3,
      "mindate": "2015-08-01",
      "maxdate": "2025-03-07",
      "latitude": 44.522393,
      "name": "PHELPSTON 0.8 NE, CA",
      "datacoverage": 0.9993,
      "id": "GHCND:CA1ON000153",
      "elevationUnit": "METERS",
      "longitude": -79.83916
    },
    {
      "elevation": 200.3,
      "mindate": "2014-11-01",
      "maxdate": "2016-02-04",
      "latitude": 43.1548691,
      "name": "PARKHILL 2.0 SW, CA",
      "datacoverage": 1,
      "id": "GHCND:CA1ON000155",
      "elevationUnit": "METERS",
      "longitude": -81.7021332
    },
    {
      "elevation": 293.5,
      "mindate": "2014-11-01",
      "maxdate": "2021-07-08",
      "latitude": 43.044909,
      "name": "INGERSOLL 4.4 W, CA",
      "datacoverage": 0.942,
      "id": "GHCND:CA1ON000156",
      "elevationUnit": "METERS",
      "longitude": -80.934553
    },
    {
      "elevation": 402.9,
      "mindate": "2014-11-01",
      "maxdate": "2017-12-05",
      "latitude": 44.232056,
      "name": "PRICEVILLE 7.0 WNW, CA",
      "datacoverage": 0.942,
      "id": "GHCND:CA1ON000158",
      "elevationUnit": "METERS",
      "longitude": -80.706057
    },
    {
      "elevation": 225.2,
      "mindate": "2015-01-01",
      "maxdate": "2025-03-04",
      "latitude": 42.659012,
      "name": "DUTTON 1.9 ESE, CA",
      "datacoverage": 1,
      "id": "GHCND:CA1ON000159",
      "elevationUnit": "METERS",
      "longitude": -81.479795
    },
    {
      "elevation": 251.2,
      "mindate": "2014-11-01",
      "maxdate": "2018-11-26",
      "latitude": 43.007215,
      "name": "STRATHROY 6.1 NNE, CA",
      "datacoverage": 1,
      "id": "GHCND:CA1ON000160",
      "elevationUnit": "METERS",
      "longitude": -81.584872
    },
    {
      "elevation": 203,
      "mindate": "2014-11-01",
      "maxdate": "2019-10-14",
      "latitude": 44.18145,
      "name": "KINCARDINE 1.7 NE, CA",
      "datacoverage": 1,
      "id": "GHCND:CA1ON000161",
      "elevationUnit": "METERS",
      "longitude": -81.6223
    },
    {
      "elevation": 341.4,
      "mindate": "2014-11-01",
      "maxdate": "2016-09-12",
      "latitude": 43.80281,
      "name": "BLUEVALE 8.0 SE MVCA, CA",
      "datacoverage": 1,
      "id": "GHCND:CA1ON000164",
      "elevationUnit": "METERS",
      "longitude": -81.183755
    },
    {
      "elevation": 272.8,
      "mindate": "2014-11-01",
      "maxdate": "2024-12-30",
      "latitude": 42.862327,
      "name": "SPRINGFIELD 5.1 NE, CA",
      "datacoverage": 1,
      "id": "GHCND:CA1ON000166",
      "elevationUnit": "METERS",
      "longitude": -80.894912
    },
    {
      "elevation": 195.1,
      "mindate": "2014-11-01",
      "maxdate": "2024-08-25",
      "latitude": 42.836824,
      "name": "BRIGDEN 2.8 NNE, CA",
      "datacoverage": 1,
      "id": "GHCND:CA1ON000167",
      "elevationUnit": "METERS",
      "longitude": -82.273006
    },
    {
      "elevation": 299.9,
      "mindate": "2015-06-01",
      "maxdate": "2016-12-13",
      "latitude": 43.7710915,
      "name": "LONDESBOROUGH 9.1 NNW, CA",
      "datacoverage": 0.9956,
      "id": "GHCND:CA1ON000169",
      "elevationUnit": "METERS",
      "longitude": -81.5315399
    },
    {
      "elevation": 222.5,
      "mindate": "2014-11-01",
      "maxdate": "2018-11-30",
      "latitude": 48.453508,
      "name": "THUNDER BAY 5.2 NNE, CA",
      "datacoverage": 1,
      "id": "GHCND:CA1ON000170",
      "elevationUnit": "METERS",
      "longitude": -89.223948
    },
    {
      "elevation": 183.2,
      "mindate": "1998-06-17",
      "maxdate": "2025-03-07",
      "latitude": 42.5970383,
      "name": "DRESDEN 0.8 NNE, CA",
      "datacoverage": 1,
      "id": "GHCND:CA1ON000173",
      "elevationUnit": "METERS",
      "longitude": -82.1781235
    },
    {
      "elevation": 183.2,
      "mindate": "2014-12-01",
      "maxdate": "2025-03-06",
      "latitude": 42.2929688,
      "name": "BLENHEIM 4.9 SSE, CA",
      "datacoverage": 1,
      "id": "GHCND:CA1ON000174",
      "elevationUnit": "METERS",
      "longitude": -81.9733963
    },
    {
      "elevation": 205.1,
      "mindate": "2015-02-01",
      "maxdate": "2025-03-06",
      "latitude": 43.6465506,
      "name": "GODERICH 10.2 S MVCA, CA",
      "datacoverage": 1,
      "id": "GHCND:CA1ON000178",
      "elevationUnit": "METERS",
      "longitude": -81.707349
    },
    {
      "elevation": 331.3,
      "mindate": "2014-12-01",
      "maxdate": "2020-08-03",
      "latitude": 43.651309,
      "name": "WALTON 5.8 WSW MVCA, CA",
      "datacoverage": 0.8125,
      "id": "GHCND:CA1ON000179",
      "elevationUnit": "METERS",
      "longitude": -81.360664
    },
    {
      "elevation": 340.5,
      "mindate": "2014-12-01",
      "maxdate": "2016-09-18",
      "latitude": 43.4538689,
      "name": "KITCHENER 1.9 W, CA",
      "datacoverage": 1,
      "id": "GHCND:CA1ON000182",
      "elevationUnit": "METERS",
      "longitude": -80.5119019
    },
    {
      "elevation": 282.5,
      "mindate": "2015-04-01",
      "maxdate": "2017-06-05",
      "latitude": 48.4552193,
      "name": "THUNDER BAY 6.1 NNW LRCA, CA",
      "datacoverage": 0.998,
      "id": "GHCND:CA1ON000183",
      "elevationUnit": "METERS",
      "longitude": -89.2826233
    },
    {
      "elevation": 196.3,
      "mindate": "2015-01-01",
      "maxdate": "2017-06-05",
      "latitude": 48.380629,
      "name": "THUNDER BAY 4.8 SW LRCA, CA",
      "datacoverage": 0.9113,
      "id": "GHCND:CA1ON000184",
      "elevationUnit": "METERS",
      "longitude": -89.289822
    },
    {
      "elevation": 304.8,
      "mindate": "2014-12-01",
      "maxdate": "2017-09-30",
      "latitude": 43.5374718,
      "name": "SEAFORTH 1.9 S MVCA, CA",
      "datacoverage": 1,
      "id": "GHCND:CA1ON000185",
      "elevationUnit": "METERS",
      "longitude": -81.3963699
    },
    {
      "elevation": 335.3,
      "mindate": "2014-12-01",
      "maxdate": "2018-01-27",
      "latitude": 43.450198,
      "name": "KITCHENER 4.1 E UOFW, CA",
      "datacoverage": 1,
      "id": "GHCND:CA1ON000186",
      "elevationUnit": "METERS",
      "longitude": -80.437344
    },
    {
      "elevation": 328.6,
      "mindate": "1998-06-17",
      "maxdate": "2025-03-07",
      "latitude": 43.4702492,
      "name": "WATERLOO 1.9 E UOFW, CA",
      "datacoverage": 1,
      "id": "GHCND:CA1ON000187",
      "elevationUnit": "METERS",
      "longitude": -80.50634
    },
    {
      "elevation": 410.6,
      "mindate": "2015-04-01",
      "maxdate": "2025-03-06",
      "latitude": 43.680699,
      "name": "ELORA 4.6 E, CA",
      "datacoverage": 1,
      "id": "GHCND:CA1ON000189",
      "elevationUnit": "METERS",
      "longitude": -80.37018
    },
    {
      "elevation": 223.1,
      "mindate": "2014-12-01",
      "maxdate": "2025-03-07",
      "latitude": 42.8409767,
      "name": "STRATHROY 14.9 SSW, CA",
      "datacoverage": 1,
      "id": "GHCND:CA1ON000192",
      "elevationUnit": "METERS",
      "longitude": -81.7084427
    },
    {
      "elevation": 364.8,
      "mindate": "2015-03-25",
      "maxdate": "2022-08-21",
      "latitude": 43.668586,
      "name": "ATWOOD 0.2 WSW MVCA, CA",
      "datacoverage": 0.0765,
      "id": "GHCND:CA1ON000195",
      "elevationUnit": "METERS",
      "longitude": -81.02144
    },
    {
      "elevation": 163.1,
      "mindate": "2013-03-23",
      "maxdate": "2019-09-12",
      "latitude": 44.44183,
      "name": "TWEED 4.3 SSW, CA",
      "datacoverage": 0.92,
      "id": "GHCND:CA1ON000197",
      "elevationUnit": "METERS",
      "longitude": -77.334256
    },
    {
      "elevation": 190.2,
      "mindate": "2015-04-01",
      "maxdate": "2022-06-07",
      "latitude": 42.1999397,
      "name": "TILBURY 13.4 ESE, CA",
      "datacoverage": 0.7485,
      "id": "GHCND:CA1ON000198",
      "elevationUnit": "METERS",
      "longitude": -82.292778
    },
    {
      "elevation": 312.1,
      "mindate": "2014-05-01",
      "maxdate": "2025-03-07",
      "latitude": 43.430842,
      "name": "MORRISTON 2.0 S, CA",
      "datacoverage": 0.805,
      "id": "GHCND:CA1ON000199",
      "elevationUnit": "METERS",
      "longitude": -80.114786
    },
    {
      "elevation": 364.8,
      "mindate": "2015-04-01",
      "maxdate": "2015-12-09",
      "latitude": 48.766536,
      "name": "MINE CENTRE 0.1 SSE MNRF, CA",
      "datacoverage": 0.9961,
      "id": "GHCND:CA1ON000200",
      "elevationUnit": "METERS",
      "longitude": -92.616463
    },
    {
      "elevation": 89.9,
      "mindate": "2015-03-01",
      "maxdate": "2017-05-06",
      "latitude": 43.8307915,
      "name": "AJAX 4.0 SE, CA",
      "datacoverage": 0.92,
      "id": "GHCND:CA1ON000202",
      "elevationUnit": "METERS",
      "longitude": -79.0047226
    },
    {
      "elevation": 271.9,
      "mindate": "2015-04-01",
      "maxdate": "2025-03-07",
      "latitude": 43.973509,
      "name": "LUCKNOW 1.5 NNE MVCA, CA",
      "datacoverage": 0.998,
      "id": "GHCND:CA1ON000203",
      "elevationUnit": "METERS",
      "longitude": -81.507645
    },
    {
      "elevation": 96.9,
      "mindate": "2015-04-01",
      "maxdate": "2023-05-21",
      "latitude": 45.3916667,
      "name": "PAKENHAM 7.8 NNW, CA",
      "datacoverage": 0.998,
      "id": "GHCND:CA1ON000208",
      "elevationUnit": "METERS",
      "longitude": -76.34111
    },
    {
      "elevation": 217,
      "mindate": "2015-04-01",
      "maxdate": "2024-09-23",
      "latitude": 44.3166389,
      "name": "PETERBOROUGH 1.9 NNE MNRF, CA",
      "datacoverage": 0.998,
      "id": "GHCND:CA1ON000209",
      "elevationUnit": "METERS",
      "longitude": -78.3230362
    },
    {
      "elevation": 255.1,
      "mindate": "2015-04-01",
      "maxdate": "2025-03-07",
      "latitude": 42.8911858,
      "name": "BROWNSVILLE 3.3 N, CA",
      "datacoverage": 0.998,
      "id": "GHCND:CA1ON000210",
      "elevationUnit": "METERS",
      "longitude": -80.8472824
    },
    {
      "elevation": 335.3,
      "mindate": "2015-04-01",
      "maxdate": "2021-10-13",
      "latitude": 48.5335166,
      "name": "KAMINISTIQUIA 7.2E LRCA, CA",
      "datacoverage": 0.998,
      "id": "GHCND:CA1ON000211",
      "elevationUnit": "METERS",
      "longitude": -89.4898083
    },
    {
      "elevation": 135,
      "mindate": "2015-06-01",
      "maxdate": "2018-08-28",
      "latitude": 44.956565,
      "name": "PERTH 9.5 NE, CA",
      "datacoverage": 0.1908,
      "id": "GHCND:CA1ON000212",
      "elevationUnit": "METERS",
      "longitude": -76.15908
    },
    {
      "elevation": 90.2,
      "mindate": "2015-05-01",
      "maxdate": "2025-03-06",
      "latitude": 43.51887,
      "name": "MISSISSAUGA 8.1 SSE, CA",
      "datacoverage": 0.9965,
      "id": "GHCND:CA1ON000213",
      "elevationUnit": "METERS",
      "longitude": -79.61568
    },
    {
      "elevation": 90.8,
      "mindate": "2015-04-01",
      "maxdate": "2022-06-08",
      "latitude": 43.918558,
      "name": "MILFORD 2.7 SE, CA",
      "datacoverage": 0.998,
      "id": "GHCND:CA1ON000214",
      "elevationUnit": "METERS",
      "longitude": -77.064769
    },
    {
      "elevation": 93,
      "mindate": "2015-05-01",
      "maxdate": "2020-12-25",
      "latitude": 44.0346069,
      "name": "PICTON 3.2 N, CA",
      "datacoverage": 0.9965,
      "id": "GHCND:CA1ON000215",
      "elevationUnit": "METERS",
      "longitude": -77.1408081
    },
    {
      "elevation": 183.8,
      "mindate": "2015-05-01",
      "maxdate": "2025-03-07",
      "latitude": 42.1735306,
      "name": "WHEATLEY 9.3 NNE, CA",
      "datacoverage": 0.9965,
      "id": "GHCND:CA1ON000216",
      "elevationUnit": "METERS",
      "longitude": -82.426178
    },
    {
      "elevation": 146.9,
      "mindate": "2015-05-01",
      "maxdate": "2018-11-07",
      "latitude": 43.40382,
      "name": "BURLINGTON 3.9 NNE CANWARN, CA",
      "datacoverage": 0.9965,
      "id": "GHCND:CA1ON000218",
      "elevationUnit": "METERS",
      "longitude": -79.7999268
    },
    {
      "elevation": 131.1,
      "mindate": "2015-06-01",
      "maxdate": "2025-03-07",
      "latitude": 46.0959282,
      "name": "DEEP RIVER 1.5 SE MNRF, CA",
      "datacoverage": 0.9998,
      "id": "GHCND:CA1ON000220",
      "elevationUnit": "METERS",
      "longitude": -77.4785309
    },
    {
      "elevation": 199.3,
      "mindate": "2015-06-01",
      "maxdate": "2015-11-19",
      "latitude": 48.3924637,
      "name": "THUNDER BAY 3.3 WSW, CA",
      "datacoverage": 0.998,
      "id": "GHCND:CA1ON000223",
      "elevationUnit": "METERS",
      "longitude": -89.2773514
    },
    {
      "elevation": 316.7,
      "mindate": "2015-06-01",
      "maxdate": "2025-03-07",
      "latitude": 50.2126923,
      "name": "NAKINA 3.8 N MNRF, CA",
      "datacoverage": 0.8982,
      "id": "GHCND:CA1ON000224",
      "elevationUnit": "METERS",
      "longitude": -86.7009964
    },
    {
      "elevation": 78.6,
      "mindate": "1998-06-17",
      "maxdate": "2025-02-18",
      "latitude": 45.2282982,
      "name": "GREEN VALLEY 3.3 S, CA",
      "datacoverage": 0.9992,
      "id": "GHCND:CA1ON000225",
      "elevationUnit": "METERS",
      "longitude": -74.5964966
    },
    {
      "elevation": 345.3,
      "mindate": "2015-06-01",
      "maxdate": "2025-03-07",
      "latitude": 43.4663887,
      "name": "MITCHELL 1.1 ESE, CA",
      "datacoverage": 0.8712,
      "id": "GHCND:CA1ON000226",
      "elevationUnit": "METERS",
      "longitude": -81.1861572
    },
    {
      "elevation": 213.1,
      "mindate": "2015-06-01",
      "maxdate": "2023-12-29",
      "latitude": 42.424758,
      "name": "RIDGETOWN 4.5 ESE, CA",
      "datacoverage": 0.998,
      "id": "GHCND:CA1ON000228",
      "elevationUnit": "METERS",
      "longitude": -81.833459
    },
    {
      "elevation": 262.1,
      "mindate": "2015-07-01",
      "maxdate": "2019-11-06",
      "latitude": 43.9954414,
      "name": "AURORA 0.4 SW MNRF, CA",
      "datacoverage": 0.9947,
      "id": "GHCND:CA1ON000229",
      "elevationUnit": "METERS",
      "longitude": -79.4733887
    },
    {
      "elevation": 200.6,
      "mindate": "2015-06-01",
      "maxdate": "2025-01-11",
      "latitude": 42.3947105,
      "name": "MORPETH 0.5 ENE, CA",
      "datacoverage": 0.998,
      "id": "GHCND:CA1ON000230",
      "elevationUnit": "METERS",
      "longitude": -81.8404312
    },
    {
      "elevation": 90.8,
      "mindate": "2015-06-01",
      "maxdate": "2025-03-06",
      "latitude": 43.93499,
      "name": "MILFORD 0.1 NNE QUINTE CONSERVATION, CA",
      "datacoverage": 0.998,
      "id": "GHCND:CA1ON000232",
      "elevationUnit": "METERS",
      "longitude": -77.09098
    },
    {
      "elevation": 96.6,
      "mindate": "2015-06-01",
      "maxdate": "2015-12-27",
      "latitude": 43.990323,
      "name": "PICTON 9.4 E, CA",
      "datacoverage": 0.9956,
      "id": "GHCND:CA1ON000233",
      "elevationUnit": "METERS",
      "longitude": -77.027667
    },
    {
      "elevation": 152.7,
      "mindate": "2015-06-01",
      "maxdate": "2024-05-07",
      "latitude": 44.5422173,
      "name": "GODFREY 17.3 E QUINTE CONSERVATION, CA",
      "datacoverage": 0.9956,
      "id": "GHCND:CA1ON000235",
      "elevationUnit": "METERS",
      "longitude": -76.7708511
    },
    {
      "elevation": 89.6,
      "mindate": "2015-06-01",
      "maxdate": "2015-11-20",
      "latitude": 44.1784515,
      "name": "BELLEVILLE 2.8 ENE QUINTE CONSERVATION, CA",
      "datacoverage": 0.998,
      "id": "GHCND:CA1ON000236",
      "elevationUnit": "METERS",
      "longitude": -77.3493118
    },
    {
      "elevation": 121,
      "mindate": "2015-06-01",
      "maxdate": "2025-03-07",
      "latitude": 43.8234787,
      "name": "PICKERING 2.3 WSW, CA",
      "datacoverage": 0.998,
      "id": "GHCND:CA1ON000238",
      "elevationUnit": "METERS",
      "longitude": -79.135498
    },
    {
      "elevation": 268.2,
      "mindate": "2015-08-01",
      "maxdate": "2021-06-12",
      "latitude": 44.9156837,
      "name": "PLEVNA 5.9 SSW MIVCA, CA",
      "datacoverage": 0.998,
      "id": "GHCND:CA1ON000242",
      "elevationUnit": "METERS",
      "longitude": -77.0143509
    },
    {
      "elevation": 301.1,
      "mindate": "1998-06-17",
      "maxdate": "2024-11-09",
      "latitude": 44.9799347,
      "name": "PLEVNA 7.0 WNW MIVCA, CA",
      "datacoverage": 0.3953,
      "id": "GHCND:CA1ON000244",
      "elevationUnit": "METERS",
      "longitude": -77.0686951
    },
    {
      "elevation": 240.8,
      "mindate": "2015-08-01",
      "maxdate": "2025-03-07",
      "latitude": 44.5056447,
      "name": "PHELPSTON 3.1 ESE, CA",
      "datacoverage": 0.998,
      "id": "GHCND:CA1ON000245",
      "elevationUnit": "METERS",
      "longitude": -79.8103521
    },
    {
      "elevation": 253.9,
      "mindate": "2015-11-28",
      "maxdate": "2025-03-06",
      "latitude": 44.3063684,
      "name": "PETERBOROUGH 3.3 W MNRF, CA",
      "datacoverage": 0.998,
      "id": "GHCND:CA1ON000247",
      "elevationUnit": "METERS",
      "longitude": -78.3744366
    },
    {
      "elevation": 189.6,
      "mindate": "2015-09-01",
      "maxdate": "2023-01-03",
      "latitude": 42.24941,
      "name": "WINDSOR 6.5 SE, CA",
      "datacoverage": 1,
      "id": "GHCND:CA1ON000248",
      "elevationUnit": "METERS",
      "longitude": -82.99996
    },
    {
      "elevation": 178.3,
      "mindate": "2015-09-01",
      "maxdate": "2025-03-07",
      "latitude": 41.998534,
      "name": "HARROW 8.1 ESE, CA",
      "datacoverage": 0.8785,
      "id": "GHCND:CA1ON000260",
      "elevationUnit": "METERS",
      "longitude": -82.834087
    }
  ]
}
