{
  "metadata": {
    "resultset": {
      "offset": 95300,
      "count": 154115,
      "limit": 100
    }
  },
  "results": [
    {
      "elevation": 11.9,
      "mindate": "2023-06-16",
      "maxdate": "2025-02-28",
      "latitude": 38.899924,
      "name": "UPPER MARLBORO 7.0 NE, MD US",
      "datacoverage": 0.7858,
      "id": "GHCND:US1MDPG0101",
      "elevationUnit": "METERS",
      "longitude": -76.678062
    },
    {
      "elevation": 17.1,
      "mindate": "2006-07-01",
      "maxdate": "2009-06-28",
      "latitude": 39.141863,
      "name": "CHURCH HILL 0.3 WSW, MD US",
      "datacoverage": 0.8054,
      "id": "GHCND:US1MDQA0001",
      "elevationUnit": "METERS",
      "longitude": -75.984816
    },
    {
      "elevation": 4.6,
      "mindate": "2010-02-01",
      "maxdate": "2025-03-07",
      "latitude": 38.9522,
      "name": "QUEENSTOWN 2.6 S, US",
      "datacoverage": 1,
      "id": "GHCND:US1MDQA0006",
      "elevationUnit": "METERS",
      "longitude": -76.1618
    },
    {
      "elevation": 6.7,
      "mindate": "2012-07-01",
      "maxdate": "2018-05-20",
      "latitude": 39.03657,
      "name": "STEVENSVILLE 3.0 N, MD US",
      "datacoverage": 0.9998,
      "id": "GHCND:US1MDQA0008",
      "elevationUnit": "METERS",
      "longitude": -76.302248
    },
    {
      "elevation": 7,
      "mindate": "2014-07-01",
      "maxdate": "2020-09-12",
      "latitude": 39.2420614400266,
      "name": "MILLINGTON 3.6 WSW, MD US",
      "datacoverage": 0.9987,
      "id": "GHCND:US1MDQA0010",
      "elevationUnit": "METERS",
      "longitude": -75.9059703483753
    },
    {
      "elevation": 11.6,
      "mindate": "2017-02-25",
      "maxdate": "2018-10-13",
      "latitude": 39.00277778,
      "name": "QUEEN ANNE 5.9 NNE, MD US",
      "datacoverage": 0.8732,
      "id": "GHCND:US1MDQA0012",
      "elevationUnit": "METERS",
      "longitude": -75.93027778
    },
    {
      "elevation": 17.1,
      "mindate": "2018-12-02",
      "maxdate": "2021-09-09",
      "latitude": 39.2413,
      "name": "MILLINGTON 1.3 SSE, MD US",
      "datacoverage": 0.1876,
      "id": "GHCND:US1MDQA0014",
      "elevationUnit": "METERS",
      "longitude": -75.833
    },
    {
      "elevation": 24.1,
      "mindate": "2005-10-01",
      "maxdate": "2025-03-07",
      "latitude": 38.120792,
      "name": "RIDGE 1.0 N, MD US",
      "datacoverage": 1,
      "id": "GHCND:US1MDSM0001",
      "elevationUnit": "METERS",
      "longitude": -76.365055
    },
    {
      "elevation": 48.2,
      "mindate": "1998-06-01",
      "maxdate": "2010-04-28",
      "latitude": 38.36198,
      "name": "HOLLYWOOD 1.5 NW, MD US",
      "datacoverage": 0.7971,
      "id": "GHCND:US1MDSM0002",
      "elevationUnit": "METERS",
      "longitude": -76.5871
    },
    {
      "elevation": 32.9,
      "mindate": "2005-10-01",
      "maxdate": "2025-03-07",
      "latitude": 38.305538,
      "name": "LEONARDTOWN 0.6 NE, MD US",
      "datacoverage": 1,
      "id": "GHCND:US1MDSM0003",
      "elevationUnit": "METERS",
      "longitude": -76.633659
    },
    {
      "elevation": 11.9,
      "mindate": "2007-03-01",
      "maxdate": "2008-03-26",
      "latitude": 38.309,
      "name": "LEONARDTOWN 1.5 NW, MD US",
      "datacoverage": 1,
      "id": "GHCND:US1MDSM0007",
      "elevationUnit": "METERS",
      "longitude": -76.6585
    },
    {
      "elevation": 22.9,
      "mindate": "2008-06-01",
      "maxdate": "2020-06-26",
      "latitude": 38.219722,
      "name": "PARK HALL 0.2 SW, MD US",
      "datacoverage": 1,
      "id": "GHCND:US1MDSM0008",
      "elevationUnit": "METERS",
      "longitude": -76.441667
    },
    {
      "elevation": 36,
      "mindate": "2008-06-01",
      "maxdate": "2013-08-05",
      "latitude": 38.2994,
      "name": "CALIFORNIA 0.2 N, MD US",
      "datacoverage": 1,
      "id": "GHCND:US1MDSM0009",
      "elevationUnit": "METERS",
      "longitude": -76.49702
    },
    {
      "elevation": 23.8,
      "mindate": "2009-05-01",
      "maxdate": "2010-02-11",
      "latitude": 38.286698,
      "name": "LEONARDTOWN 2.9 ESE, MD US",
      "datacoverage": 1,
      "id": "GHCND:US1MDSM0011",
      "elevationUnit": "METERS",
      "longitude": -76.591137
    },
    {
      "elevation": 1.5,
      "mindate": "2010-03-01",
      "maxdate": "2013-03-14",
      "latitude": 38.16496,
      "name": "TALL TIMBERS 0.3 SSE, MD US",
      "datacoverage": 0.9453,
      "id": "GHCND:US1MDSM0012",
      "elevationUnit": "METERS",
      "longitude": -76.54424
    },
    {
      "elevation": 0.9,
      "mindate": "2010-07-01",
      "maxdate": "2015-03-14",
      "latitude": 38.3498,
      "name": "HOLLYWOOD 3.5 E, MD US",
      "datacoverage": 1,
      "id": "GHCND:US1MDSM0013",
      "elevationUnit": "METERS",
      "longitude": -76.5059
    },
    {
      "elevation": 32.6,
      "mindate": "2014-05-01",
      "maxdate": "2015-11-12",
      "latitude": 38.2802,
      "name": "GREAT MILLS 3.1 NNE, MD US",
      "datacoverage": 0.9988,
      "id": "GHCND:US1MDSM0016",
      "elevationUnit": "METERS",
      "longitude": -76.4868
    },
    {
      "elevation": 36.6,
      "mindate": "2019-03-27",
      "maxdate": "2025-03-07",
      "latitude": 38.4852826,
      "name": "MECHANICSVILLE 3.8 N, MD US",
      "datacoverage": 1,
      "id": "GHCND:US1MDSM0018",
      "elevationUnit": "METERS",
      "longitude": -76.7339102
    },
    {
      "elevation": 12.2,
      "mindate": "2020-07-22",
      "maxdate": "2025-03-06",
      "latitude": 38.176147,
      "name": "LEXINGTON PARK 6.1 SSE, MD US",
      "datacoverage": 1,
      "id": "GHCND:US1MDSM0019",
      "elevationUnit": "METERS",
      "longitude": -76.411559
    },
    {
      "elevation": 39.6,
      "mindate": "2020-12-27",
      "maxdate": "2024-08-30",
      "latitude": 38.3533635,
      "name": "MECHANICSVILLE 7.0 SE, MD US",
      "datacoverage": 1,
      "id": "GHCND:US1MDSM0021",
      "elevationUnit": "METERS",
      "longitude": -76.6445842
    },
    {
      "elevation": 23.2,
      "mindate": "2017-09-19",
      "maxdate": "2025-03-06",
      "latitude": 38.2065318,
      "name": "GREAT MILLS 4.0 S, MD US",
      "datacoverage": 0.9412,
      "id": "GHCND:US1MDSM0022",
      "elevationUnit": "METERS",
      "longitude": -76.4760829
    },
    {
      "elevation": 4.9,
      "mindate": "2007-06-01",
      "maxdate": "2025-01-19",
      "latitude": 38.174503,
      "name": "PRINCESS ANNE 2.1 SSW, MD US",
      "datacoverage": 0.9998,
      "id": "GHCND:US1MDSS0001",
      "elevationUnit": "METERS",
      "longitude": -75.706631
    },
    {
      "elevation": 2.1,
      "mindate": "2012-09-01",
      "maxdate": "2020-02-11",
      "latitude": 38.178304,
      "name": "PRINCESS ANNE 4.4 WSW, MD US",
      "datacoverage": 1,
      "id": "GHCND:US1MDSS0004",
      "elevationUnit": "METERS",
      "longitude": -75.768868
    },
    {
      "elevation": 1.2,
      "mindate": "2013-05-01",
      "maxdate": "2017-09-08",
      "latitude": 38.139329,
      "name": "WESTOVER 2.6 WNW, MD US",
      "datacoverage": 0.9995,
      "id": "GHCND:US1MDSS0006",
      "elevationUnit": "METERS",
      "longitude": -75.749129
    },
    {
      "elevation": 4,
      "mindate": "2014-11-01",
      "maxdate": "2016-04-07",
      "latitude": 38.101483,
      "name": "POCOMOKE CITY 2.5 NNE, MD US",
      "datacoverage": 0.6476,
      "id": "GHCND:US1MDSS0010",
      "elevationUnit": "METERS",
      "longitude": -75.548506
    },
    {
      "elevation": 4.6,
      "mindate": "2014-11-01",
      "maxdate": "2015-05-11",
      "latitude": 38.1972,
      "name": "PRINCESS ANNE 0.5 SSW, MD US",
      "datacoverage": 1,
      "id": "GHCND:US1MDSS0011",
      "elevationUnit": "METERS",
      "longitude": -75.69918
    },
    {
      "elevation": 1.5,
      "mindate": "2015-01-01",
      "maxdate": "2025-03-06",
      "latitude": 38.152892,
      "name": "DEAL ISLAND 0.5 SSW, MD US",
      "datacoverage": 1,
      "id": "GHCND:US1MDSS0012",
      "elevationUnit": "METERS",
      "longitude": -75.953055
    },
    {
      "elevation": 3.7,
      "mindate": "2014-12-01",
      "maxdate": "2024-11-27",
      "latitude": 38.189229,
      "name": "PRINCESS ANNE 1.9 WSW, MD US",
      "datacoverage": 1,
      "id": "GHCND:US1MDSS0013",
      "elevationUnit": "METERS",
      "longitude": -75.725682
    },
    {
      "elevation": 1.5,
      "mindate": "2018-11-01",
      "maxdate": "2024-03-29",
      "latitude": 38.01509,
      "name": "MARION STATION 1.7 S, MD US",
      "datacoverage": 0.1431,
      "id": "GHCND:US1MDSS0016",
      "elevationUnit": "METERS",
      "longitude": -75.76952
    },
    {
      "elevation": 1.2,
      "mindate": "2020-01-16",
      "maxdate": "2025-03-07",
      "latitude": 37.981037,
      "name": "CRISFIELD 0.9 ENE, MD US",
      "datacoverage": 0.9845,
      "id": "GHCND:US1MDSS0018",
      "elevationUnit": "METERS",
      "longitude": -75.842706
    },
    {
      "elevation": 1.2,
      "mindate": "2019-03-02",
      "maxdate": "2020-07-28",
      "latitude": 38.016331,
      "name": "CRISFIELD 3.6 NE, MD US",
      "datacoverage": 0.998,
      "id": "GHCND:US1MDSS0019",
      "elevationUnit": "METERS",
      "longitude": -75.816784
    },
    {
      "elevation": 0.9,
      "mindate": "2007-07-01",
      "maxdate": "2017-01-13",
      "latitude": 38.763319,
      "name": "EASTON 1.1 SW, MD US",
      "datacoverage": 0.9997,
      "id": "GHCND:US1MDTB0001",
      "elevationUnit": "METERS",
      "longitude": -76.085265
    },
    {
      "elevation": 14.9,
      "mindate": "2007-07-01",
      "maxdate": "2009-11-13",
      "latitude": 38.877091,
      "name": "CORDOVA 0.1 NNW, MD US",
      "datacoverage": 0.9985,
      "id": "GHCND:US1MDTB0002",
      "elevationUnit": "METERS",
      "longitude": -75.996789
    },
    {
      "elevation": 15.8,
      "mindate": "2007-07-01",
      "maxdate": "2008-06-15",
      "latitude": 38.883746,
      "name": "CORDOVA 0.8 NE, MD US",
      "datacoverage": 1,
      "id": "GHCND:US1MDTB0003",
      "elevationUnit": "METERS",
      "longitude": -75.986019
    },
    {
      "elevation": 2.7,
      "mindate": "2007-08-01",
      "maxdate": "2024-02-19",
      "latitude": 38.782,
      "name": "ST. MICHAELS 0.7 SE, MD US",
      "datacoverage": 0.9998,
      "id": "GHCND:US1MDTB0004",
      "elevationUnit": "METERS",
      "longitude": -76.2115
    },
    {
      "elevation": 17.1,
      "mindate": "2007-07-01",
      "maxdate": "2025-01-04",
      "latitude": 38.748,
      "name": "EASTON 2.4 SE, MD US",
      "datacoverage": 0.9997,
      "id": "GHCND:US1MDTB0005",
      "elevationUnit": "METERS",
      "longitude": -76.041
    },
    {
      "elevation": 18,
      "mindate": "2007-08-01",
      "maxdate": "2012-05-12",
      "latitude": 38.815074,
      "name": "EASTON 2.9 NNE, MD US",
      "datacoverage": 0.9996,
      "id": "GHCND:US1MDTB0006",
      "elevationUnit": "METERS",
      "longitude": -76.059008
    },
    {
      "mindate": "2007-07-01",
      "maxdate": "2024-12-17",
      "latitude": 38.7065,
      "name": "BELLEVUE 0.3 NNE, MD US",
      "datacoverage": 0.9997,
      "id": "GHCND:US1MDTB0007",
      "longitude": -76.1814
    },
    {
      "elevation": 4,
      "mindate": "2007-08-01",
      "maxdate": "2019-02-01",
      "latitude": 38.758007,
      "name": "EASTON 1.2 SSW, MD US",
      "datacoverage": 0.9998,
      "id": "GHCND:US1MDTB0008",
      "elevationUnit": "METERS",
      "longitude": -76.079045
    },
    {
      "elevation": 11.9,
      "mindate": "2007-08-01",
      "maxdate": "2019-06-10",
      "latitude": 38.6982,
      "name": "TRAPPE 3.5 NE, MD US",
      "datacoverage": 0.9998,
      "id": "GHCND:US1MDTB0009",
      "elevationUnit": "METERS",
      "longitude": -76.0161
    },
    {
      "elevation": 10.1,
      "mindate": "2010-12-01",
      "maxdate": "2019-09-08",
      "latitude": 38.784512,
      "name": "EASTON 0.7 NNW, MD US",
      "datacoverage": 1,
      "id": "GHCND:US1MDTB0011",
      "elevationUnit": "METERS",
      "longitude": -76.073938
    },
    {
      "elevation": 21,
      "mindate": "2013-03-01",
      "maxdate": "2015-11-24",
      "latitude": 38.7737,
      "name": "EASTON 1.4 E, MD US",
      "datacoverage": 0.7269,
      "id": "GHCND:US1MDTB0013",
      "elevationUnit": "METERS",
      "longitude": -76.0439
    },
    {
      "elevation": 2.1,
      "mindate": "2015-06-03",
      "maxdate": "2018-11-06",
      "latitude": 38.6792269349098,
      "name": "OXFORD 0.7 S, MD US",
      "datacoverage": 0.1053,
      "id": "GHCND:US1MDTB0015",
      "elevationUnit": "METERS",
      "longitude": -76.1713839322329
    },
    {
      "elevation": 15.8,
      "mindate": "2017-05-24",
      "maxdate": "2025-02-16",
      "latitude": 38.769277,
      "name": "EASTON 0.8 ESE, MD US",
      "datacoverage": 0.3213,
      "id": "GHCND:US1MDTB0016",
      "elevationUnit": "METERS",
      "longitude": -76.057388
    },
    {
      "elevation": 13.1,
      "mindate": "2019-01-29",
      "maxdate": "2020-10-21",
      "latitude": 38.752842,
      "name": "EASTON 1.7 SSE, MD US",
      "datacoverage": 0.8871,
      "id": "GHCND:US1MDTB0018",
      "elevationUnit": "METERS",
      "longitude": -76.056094
    },
    {
      "elevation": 6.1,
      "mindate": "2020-06-27",
      "maxdate": "2021-06-15",
      "latitude": 38.80583333,
      "name": "EASTON 2.3 NNW, MD US",
      "datacoverage": 0.9925,
      "id": "GHCND:US1MDTB0020",
      "elevationUnit": "METERS",
      "longitude": -76.08194444
    },
    {
      "elevation": 2.7,
      "mindate": "2021-08-01",
      "maxdate": "2024-09-22",
      "latitude": 38.6478,
      "name": "TRAPPE 4.8 W, MD US",
      "datacoverage": 0.9989,
      "id": "GHCND:US1MDTB0023",
      "elevationUnit": "METERS",
      "longitude": -76.1454
    },
    {
      "elevation": 11,
      "mindate": "2022-04-01",
      "maxdate": "2023-08-26",
      "latitude": 38.786408827334,
      "name": "EASTON 0.8 NNW, MD US",
      "datacoverage": 1,
      "id": "GHCND:US1MDTB0026",
      "elevationUnit": "METERS",
      "longitude": -76.0730389543387
    },
    {
      "elevation": 2.7,
      "mindate": "2023-07-05",
      "maxdate": "2024-04-25",
      "latitude": 38.7857,
      "name": "ST. MICHAELS 0.9 WSW, MD US",
      "datacoverage": 0.5507,
      "id": "GHCND:US1MDTB0027",
      "elevationUnit": "METERS",
      "longitude": -76.2376
    },
    {
      "elevation": 13.1,
      "mindate": "2024-02-23",
      "maxdate": "2025-03-07",
      "latitude": 38.761791,
      "name": "EASTON 0.9 SSE, MD US",
      "datacoverage": 1,
      "id": "GHCND:US1MDTB0028",
      "elevationUnit": "METERS",
      "longitude": -76.066446
    },
    {
      "elevation": 2.1,
      "mindate": "2006-10-01",
      "maxdate": "2014-12-12",
      "latitude": 38.32556,
      "name": "VIENNA 11.3 SSW, MD US",
      "datacoverage": 0.9695,
      "id": "GHCND:US1MDWC0001",
      "elevationUnit": "METERS",
      "longitude": -75.87315
    },
    {
      "elevation": 11.9,
      "mindate": "2007-07-01",
      "maxdate": "2017-08-02",
      "latitude": 38.3599,
      "name": "SALISBURY 2.5 WSW, MD US",
      "datacoverage": 0.9997,
      "id": "GHCND:US1MDWC0002",
      "elevationUnit": "METERS",
      "longitude": -75.6333
    },
    {
      "elevation": 10.1,
      "mindate": "2007-06-01",
      "maxdate": "2009-09-11",
      "latitude": 38.346335,
      "name": "SALISBURY 1.9 SSE, MD US",
      "datacoverage": 0.4639,
      "id": "GHCND:US1MDWC0003",
      "elevationUnit": "METERS",
      "longitude": -75.576612
    },
    {
      "elevation": 14.9,
      "mindate": "2007-06-01",
      "maxdate": "2025-03-06",
      "latitude": 38.454336,
      "name": "DELMAR 0.2 NE, MD US",
      "datacoverage": 0.9998,
      "id": "GHCND:US1MDWC0004",
      "elevationUnit": "METERS",
      "longitude": -75.572959
    },
    {
      "elevation": 11,
      "mindate": "2007-06-01",
      "maxdate": "2014-01-21",
      "latitude": 38.324417,
      "name": "SALISBURY 3.7 SSE, MD US",
      "datacoverage": 0.9992,
      "id": "GHCND:US1MDWC0005",
      "elevationUnit": "METERS",
      "longitude": -75.557806
    },
    {
      "elevation": 14.9,
      "mindate": "2007-08-01",
      "maxdate": "2012-11-13",
      "latitude": 38.323019,
      "name": "SALISBURY 3.7 SSE, MD US",
      "datacoverage": 0.9995,
      "id": "GHCND:US1MDWC0010",
      "elevationUnit": "METERS",
      "longitude": -75.560774
    },
    {
      "elevation": 14.9,
      "mindate": "2007-12-01",
      "maxdate": "2011-11-30",
      "latitude": 38.300349,
      "name": "SALISBURY 5.9 SSE, MD US",
      "datacoverage": 0.9819,
      "id": "GHCND:US1MDWC0012",
      "elevationUnit": "METERS",
      "longitude": -75.528336
    },
    {
      "elevation": 5.2,
      "mindate": "2012-07-01",
      "maxdate": "2017-09-13",
      "latitude": 38.3896,
      "name": "SALISBURY 1.2 N, MD US",
      "datacoverage": 0.9268,
      "id": "GHCND:US1MDWC0013",
      "elevationUnit": "METERS",
      "longitude": -75.589865
    },
    {
      "elevation": 10.7,
      "mindate": "2015-01-01",
      "maxdate": "2025-03-06",
      "latitude": 38.34472194314,
      "name": "SALISBURY 2.1 SSE, MD US",
      "datacoverage": 1,
      "id": "GHCND:US1MDWC0016",
      "elevationUnit": "METERS",
      "longitude": -75.5730327218771
    },
    {
      "elevation": 7.6,
      "mindate": "2014-12-01",
      "maxdate": "2017-10-11",
      "latitude": 38.3200492858887,
      "name": "SALISBURY 5.5 SW, MD US",
      "datacoverage": 1,
      "id": "GHCND:US1MDWC0017",
      "elevationUnit": "METERS",
      "longitude": -75.665153503418
    },
    {
      "elevation": 2.4,
      "mindate": "2014-12-01",
      "maxdate": "2016-01-14",
      "latitude": 38.247025,
      "name": "NANTICOKE 1.8 S, MD US",
      "datacoverage": 0.998,
      "id": "GHCND:US1MDWC0018",
      "elevationUnit": "METERS",
      "longitude": -75.902687
    },
    {
      "elevation": 14.6,
      "mindate": "2015-01-01",
      "maxdate": "2021-02-12",
      "latitude": 38.392094,
      "name": "PITTSVILLE 0.2 ESE, MD US",
      "datacoverage": 0.8677,
      "id": "GHCND:US1MDWC0020",
      "elevationUnit": "METERS",
      "longitude": -75.410747
    },
    {
      "elevation": 7.3,
      "mindate": "2017-08-08",
      "maxdate": "2023-12-13",
      "latitude": 38.329743,
      "name": "FRUITLAND 1.8 ENE, MD US",
      "datacoverage": 0.9993,
      "id": "GHCND:US1MDWC0022",
      "elevationUnit": "METERS",
      "longitude": -75.594784
    },
    {
      "mindate": "2019-08-02",
      "maxdate": "2022-01-03",
      "latitude": 38.32435,
      "name": "SALISBURY 3.4 SSE, MD US",
      "datacoverage": 0.3431,
      "id": "GHCND:US1MDWC0025",
      "longitude": -75.57286
    },
    {
      "elevation": 15.2,
      "mindate": "2021-07-01",
      "maxdate": "2025-03-07",
      "latitude": 38.45163,
      "name": "DELMAR 0.3 ESE, MD US",
      "datacoverage": 0.9991,
      "id": "GHCND:US1MDWC0026",
      "elevationUnit": "METERS",
      "longitude": -75.56937
    },
    {
      "elevation": 6.1,
      "mindate": "2022-06-27",
      "maxdate": "2025-03-06",
      "latitude": 38.4211,
      "name": "HEBRON 3.6 W, MD US",
      "datacoverage": 0.7683,
      "id": "GHCND:US1MDWC0027",
      "elevationUnit": "METERS",
      "longitude": -75.753739
    },
    {
      "elevation": 175,
      "mindate": "2005-12-01",
      "maxdate": "2025-03-07",
      "latitude": 39.608945,
      "name": "WILLIAMSPORT 2.8 ENE, MD US",
      "datacoverage": 0.8226,
      "id": "GHCND:US1MDWH0001",
      "elevationUnit": "METERS",
      "longitude": -77.769369
    },
    {
      "elevation": 154.8,
      "mindate": "2006-01-01",
      "maxdate": "2025-02-01",
      "latitude": 39.5822,
      "name": "FUNKSTOWN 2.3 SW, MD US",
      "datacoverage": 0.8925,
      "id": "GHCND:US1MDWH0002",
      "elevationUnit": "METERS",
      "longitude": -77.7342
    },
    {
      "elevation": 160,
      "mindate": "2006-03-01",
      "maxdate": "2025-03-07",
      "latitude": 39.642307,
      "name": "HAGERSTOWN 1.0 ENE, MD US",
      "datacoverage": 0.9993,
      "id": "GHCND:US1MDWH0003",
      "elevationUnit": "METERS",
      "longitude": -77.701839
    },
    {
      "elevation": 166.1,
      "mindate": "2007-06-01",
      "maxdate": "2014-01-20",
      "latitude": 39.58069,
      "name": "WILLIAMSPORT 2.1 ESE, MD US",
      "datacoverage": 0.9992,
      "id": "GHCND:US1MDWH0005",
      "elevationUnit": "METERS",
      "longitude": -77.78413
    },
    {
      "elevation": 222.2,
      "mindate": "2008-03-01",
      "maxdate": "2017-01-03",
      "latitude": 39.697759,
      "name": "SMITHSBURG 3.1 NNE, MD US",
      "datacoverage": 0.9895,
      "id": "GHCND:US1MDWH0007",
      "elevationUnit": "METERS",
      "longitude": -77.550861
    },
    {
      "elevation": 128.6,
      "mindate": "2013-03-01",
      "maxdate": "2014-10-23",
      "latitude": 39.639916,
      "name": "WILLIAMSPORT 3.4 NNW, MD US",
      "datacoverage": 0.7485,
      "id": "GHCND:US1MDWH0008",
      "elevationUnit": "METERS",
      "longitude": -77.849722
    },
    {
      "elevation": 185.9,
      "mindate": "2016-06-01",
      "maxdate": "2022-11-30",
      "latitude": 39.5200958251953,
      "name": "BOONSBORO 0.8 NNE, MD US",
      "datacoverage": 0.3051,
      "id": "GHCND:US1MDWH0010",
      "elevationUnit": "METERS",
      "longitude": -77.6490783691406
    },
    {
      "elevation": 168.9,
      "mindate": "2016-05-16",
      "maxdate": "2025-02-17",
      "latitude": 39.699745,
      "name": "HANCOCK 0.8 ESE, MD US",
      "datacoverage": 0.7663,
      "id": "GHCND:US1MDWH0011",
      "elevationUnit": "METERS",
      "longitude": -78.160063
    },
    {
      "elevation": 188.1,
      "mindate": "2016-05-18",
      "maxdate": "2019-10-27",
      "latitude": 39.661232,
      "name": "CLEAR SPRING 3.2 W, MD US",
      "datacoverage": 0.0914,
      "id": "GHCND:US1MDWH0012",
      "elevationUnit": "METERS",
      "longitude": -77.991313
    },
    {
      "elevation": 184.4,
      "mindate": "2018-11-26",
      "maxdate": "2025-03-07",
      "latitude": 39.6916,
      "name": "HAGERSTOWN 4.1 NNW, MD US",
      "datacoverage": 0.9825,
      "id": "GHCND:US1MDWH0019",
      "elevationUnit": "METERS",
      "longitude": -77.74997
    },
    {
      "elevation": 135.3,
      "mindate": "2018-11-27",
      "maxdate": "2023-03-06",
      "latitude": 39.462521,
      "name": "KEEDYSVILLE 2.0 SSE, MD US",
      "datacoverage": 0.9991,
      "id": "GHCND:US1MDWH0020",
      "elevationUnit": "METERS",
      "longitude": -77.680527
    },
    {
      "elevation": 145.4,
      "mindate": "2023-09-12",
      "maxdate": "2025-03-07",
      "latitude": 39.591221,
      "name": "HAGERSTOWN 3.2 S, MD US",
      "datacoverage": 0.8545,
      "id": "GHCND:US1MDWH0022",
      "elevationUnit": "METERS",
      "longitude": -77.71342
    },
    {
      "elevation": 10.1,
      "mindate": "2007-07-01",
      "maxdate": "2011-07-23",
      "latitude": 38.326458,
      "name": "BERLIN 0.2 ENE, MD US",
      "datacoverage": 0.9996,
      "id": "GHCND:US1MDWR0002",
      "elevationUnit": "METERS",
      "longitude": -75.214015
    },
    {
      "elevation": 0.9,
      "mindate": "2007-07-01",
      "maxdate": "2025-03-07",
      "latitude": 38.446644,
      "name": "BISHOPVILLE 3.1 E, MD US",
      "datacoverage": 1,
      "id": "GHCND:US1MDWR0004",
      "elevationUnit": "METERS",
      "longitude": -75.134006
    },
    {
      "elevation": 9.1,
      "mindate": "2007-09-01",
      "maxdate": "2011-01-17",
      "latitude": 38.3985,
      "name": "OCEAN PINES 1.8 NW, MD US",
      "datacoverage": 0.9996,
      "id": "GHCND:US1MDWR0005",
      "elevationUnit": "METERS",
      "longitude": -75.1762
    },
    {
      "elevation": 0.9,
      "mindate": "2011-05-01",
      "maxdate": "2013-04-01",
      "latitude": 38.3524839,
      "name": "OCEAN CITY 3.9 WSW, MD US",
      "datacoverage": 0.5968,
      "id": "GHCND:US1MDWR0007",
      "elevationUnit": "METERS",
      "longitude": -75.098872
    },
    {
      "elevation": 11.6,
      "mindate": "2013-04-01",
      "maxdate": "2020-11-24",
      "latitude": 38.318086,
      "name": "BERLIN 0.7 SW, MD US",
      "datacoverage": 0.9998,
      "id": "GHCND:US1MDWR0009",
      "elevationUnit": "METERS",
      "longitude": -75.227327
    },
    {
      "elevation": 3,
      "mindate": "2013-05-01",
      "maxdate": "2025-03-06",
      "latitude": 38.366148,
      "name": "OCEAN PINES 1.2 SSW, MD US",
      "datacoverage": 0.8566,
      "id": "GHCND:US1MDWR0010",
      "elevationUnit": "METERS",
      "longitude": -75.156222
    },
    {
      "elevation": 6.4,
      "mindate": "2014-11-01",
      "maxdate": "2025-03-07",
      "latitude": 38.166971,
      "name": "SNOW HILL 0.4 S, MD US",
      "datacoverage": 1,
      "id": "GHCND:US1MDWR0014",
      "elevationUnit": "METERS",
      "longitude": -75.392105
    },
    {
      "elevation": 1.5,
      "mindate": "2014-12-01",
      "maxdate": "2025-02-26",
      "latitude": 38.36596,
      "name": "OCEAN PINES 1.5 SE, MD US",
      "datacoverage": 1,
      "id": "GHCND:US1MDWR0017",
      "elevationUnit": "METERS",
      "longitude": -75.13414
    },
    {
      "elevation": 1.2,
      "mindate": "2015-05-01",
      "maxdate": "2022-01-29",
      "latitude": 38.2361,
      "name": "BERLIN 6.5 SSE, MD US",
      "datacoverage": 0.9965,
      "id": "GHCND:US1MDWR0019",
      "elevationUnit": "METERS",
      "longitude": -75.1817
    },
    {
      "elevation": 6.4,
      "mindate": "2014-04-01",
      "maxdate": "2016-10-24",
      "latitude": 38.2008643448353,
      "name": "SNOW HILL 2.4 NE, MD US",
      "datacoverage": 0.6675,
      "id": "GHCND:US1MDWR0020",
      "elevationUnit": "METERS",
      "longitude": -75.364995226264
    },
    {
      "elevation": 2.4,
      "mindate": "2015-09-01",
      "maxdate": "2022-03-29",
      "latitude": 38.3721504211426,
      "name": "OCEAN PINES 0.9 SSW, MD US",
      "datacoverage": 1,
      "id": "GHCND:US1MDWR0021",
      "elevationUnit": "METERS",
      "longitude": -75.1584930419922
    },
    {
      "elevation": 5.2,
      "mindate": "2015-10-01",
      "maxdate": "2022-03-08",
      "latitude": 38.397102355957,
      "name": "BERLIN 5.9 NNE, MD US",
      "datacoverage": 0.998,
      "id": "GHCND:US1MDWR0022",
      "elevationUnit": "METERS",
      "longitude": -75.1610412597656
    },
    {
      "elevation": 4,
      "mindate": "2018-12-13",
      "maxdate": "2019-09-09",
      "latitude": 38.17648,
      "name": "SNOW HILL 0.3 NE, MD US",
      "datacoverage": 1,
      "id": "GHCND:US1MDWR0026",
      "elevationUnit": "METERS",
      "longitude": -75.38794
    },
    {
      "elevation": 1.8,
      "mindate": "2019-06-28",
      "maxdate": "2025-03-07",
      "latitude": 38.44351,
      "name": "OCEAN CITY 4.6 NNW, MD US",
      "datacoverage": 0.9989,
      "id": "GHCND:US1MDWR0028",
      "elevationUnit": "METERS",
      "longitude": -75.06024
    },
    {
      "elevation": 2.1,
      "mindate": "2020-11-25",
      "maxdate": "2025-03-07",
      "latitude": 38.447102,
      "name": "OCEAN CITY 4.8 NNW, MD US",
      "datacoverage": 0.4642,
      "id": "GHCND:US1MDWR0030",
      "elevationUnit": "METERS",
      "longitude": -75.057883
    },
    {
      "elevation": 1.2,
      "mindate": "2022-03-08",
      "maxdate": "2025-03-07",
      "latitude": 38.2907,
      "name": "BERLIN 3.9 SE, MD US",
      "datacoverage": 1,
      "id": "GHCND:US1MDWR0031",
      "elevationUnit": "METERS",
      "longitude": -75.1617
    },
    {
      "elevation": 143.3,
      "mindate": "2009-07-01",
      "maxdate": "2014-05-02",
      "latitude": 44.193964,
      "name": "TURNER 4.3 SSW, ME US",
      "datacoverage": 0.9947,
      "id": "GHCND:US1MEAN0001",
      "elevationUnit": "METERS",
      "longitude": -70.26474
    },
    {
      "elevation": 75,
      "mindate": "2010-03-01",
      "maxdate": "2011-10-26",
      "latitude": 44.092411,
      "name": "AUBURN 1.7 WNW, ME US",
      "datacoverage": 0.8982,
      "id": "GHCND:US1MEAN0007",
      "elevationUnit": "METERS",
      "longitude": -70.281093
    },
    {
      "elevation": 46.6,
      "mindate": "2015-07-01",
      "maxdate": "2025-02-28",
      "latitude": 44.0068323,
      "name": "LISBON FALLS 0.1 SW, ME US",
      "datacoverage": 0.9991,
      "id": "GHCND:US1MEAN0011",
      "elevationUnit": "METERS",
      "longitude": -70.0595972
    },
    {
      "elevation": 73.2,
      "mindate": "2009-11-01",
      "maxdate": "2025-03-07",
      "latitude": 44.1160843,
      "name": "AUBURN 2.5 NNE, ME US",
      "datacoverage": 0.5136,
      "id": "GHCND:US1MEAN0012",
      "elevationUnit": "METERS",
      "longitude": -70.2271503
    },
    {
      "elevation": 72.5,
      "mindate": "2011-04-01",
      "maxdate": "2012-09-11",
      "latitude": 44.117904,
      "name": "AUBURN 2.7 NNE, ME US",
      "datacoverage": 0.6099,
      "id": "GHCND:US1MEAN0015",
      "elevationUnit": "METERS",
      "longitude": -70.222789
    },
    {
      "elevation": 96.3,
      "mindate": "2010-11-01",
      "maxdate": "2019-01-20",
      "latitude": 44.247669,
      "name": "GREENE 4.5 NNW, ME US",
      "datacoverage": 1,
      "id": "GHCND:US1MEAN0016",
      "elevationUnit": "METERS",
      "longitude": -70.179973
    }
  ]
}
