{
  "metadata": {
    "resultset": {
      "offset": 148200,
      "count": 154115,
      "limit": 100
    }
  },
  "results": [
    {
      "elevation": 1499.6,
      "mindate": "1991-09-30",
      "maxdate": "2025-03-06",
      "latitude": 47.68,
      "name": "BISSON CREEK, MT US",
      "datacoverage": 1,
      "id": "GHCND:USS0013B25S",
      "elevationUnit": "METERS",
      "longitude": -114
    },
    {
      "elevation": 2255.5,
      "mindate": "1994-09-01",
      "maxdate": "2025-03-06",
      "latitude": 47,
      "name": "STUART MOUNTAIN, MT US",
      "datacoverage": 1,
      "id": "GHCND:USS0013C01S",
      "elevationUnit": "METERS",
      "longitude": -113.93
    },
    {
      "elevation": 2209.8,
      "mindate": "1976-09-30",
      "maxdate": "2025-03-05",
      "latitude": 46.24,
      "name": "SKALKAHO SUMMIT, MT US",
      "datacoverage": 1,
      "id": "GHCND:USS0013C03S",
      "elevationUnit": "METERS",
      "longitude": -113.77
    },
    {
      "elevation": 2197.6,
      "mindate": "1965-09-30",
      "maxdate": "2025-03-06",
      "latitude": 46.41,
      "name": "BLACK PINE, MT US",
      "datacoverage": 1,
      "id": "GHCND:USS0013C13S",
      "elevationUnit": "METERS",
      "longitude": -113.43
    },
    {
      "elevation": 1905,
      "mindate": "1967-09-30",
      "maxdate": "2025-03-06",
      "latitude": 46.87,
      "name": "N FK ELK CREEK, MT US",
      "datacoverage": 1,
      "id": "GHCND:USS0013C31S",
      "elevationUnit": "METERS",
      "longitude": -113.28
    },
    {
      "elevation": 1706.9,
      "mindate": "1972-09-30",
      "maxdate": "2025-03-06",
      "latitude": 46.47,
      "name": "COMBINATION, MT US",
      "datacoverage": 1,
      "id": "GHCND:USS0013C33S",
      "elevationUnit": "METERS",
      "longitude": -113.39
    },
    {
      "elevation": 2194.6,
      "mindate": "1970-09-30",
      "maxdate": "2025-03-06",
      "latitude": 46.13,
      "name": "PETERSON MEADOWS, MT US",
      "datacoverage": 1,
      "id": "GHCND:USS0013C36S",
      "elevationUnit": "METERS",
      "longitude": -113.31
    },
    {
      "elevation": 1426.5,
      "mindate": "1970-09-30",
      "maxdate": "2025-03-06",
      "latitude": 46.88,
      "name": "LUBRECHT FLUME, MT US",
      "datacoverage": 1,
      "id": "GHCND:USS0013C38S",
      "elevationUnit": "METERS",
      "longitude": -113.32
    },
    {
      "elevation": 1761.7,
      "mindate": "1980-08-01",
      "maxdate": "2025-03-06",
      "latitude": 46.18,
      "name": "DALY CREEK, MT US",
      "datacoverage": 1,
      "id": "GHCND:USS0013C39S",
      "elevationUnit": "METERS",
      "longitude": -113.85
    },
    {
      "elevation": 2377.4,
      "mindate": "1977-09-30",
      "maxdate": "2025-03-06",
      "latitude": 46.27,
      "name": "WARM SPRINGS, MT US",
      "datacoverage": 1,
      "id": "GHCND:USS0013C43S",
      "elevationUnit": "METERS",
      "longitude": -113.16
    },
    {
      "elevation": 2514.6,
      "mindate": "1979-09-30",
      "maxdate": "2025-03-06",
      "latitude": 46.1,
      "name": "BARKER LAKES, MT US",
      "datacoverage": 1,
      "id": "GHCND:USS0013C44S",
      "elevationUnit": "METERS",
      "longitude": -113.13
    },
    {
      "elevation": 2316.5,
      "mindate": "1976-09-30",
      "maxdate": "2025-03-06",
      "latitude": 45.17,
      "name": "BLOODY DICK, MT US",
      "datacoverage": 1,
      "id": "GHCND:USS0013D10S",
      "elevationUnit": "METERS",
      "longitude": -113.5
    },
    {
      "elevation": 1889.8,
      "mindate": "1980-08-11",
      "maxdate": "2025-03-06",
      "latitude": 45.67,
      "name": "MOOSE CREEK, ID US",
      "datacoverage": 1,
      "id": "GHCND:USS0013D16S",
      "elevationUnit": "METERS",
      "longitude": -113.95
    },
    {
      "elevation": 2621.3,
      "mindate": "1980-08-01",
      "maxdate": "2025-03-06",
      "latitude": 45.17,
      "name": "DARKHORSE LAKE, MT US",
      "datacoverage": 1,
      "id": "GHCND:USS0013D19S",
      "elevationUnit": "METERS",
      "longitude": -113.58
    },
    {
      "elevation": 2420.1,
      "mindate": "1967-09-30",
      "maxdate": "2025-03-06",
      "latitude": 45.69,
      "name": "SADDLE MOUNTAIN, ID US",
      "datacoverage": 1,
      "id": "GHCND:USS0013D22S",
      "elevationUnit": "METERS",
      "longitude": -113.97
    },
    {
      "elevation": 1959.9,
      "mindate": "1975-09-30",
      "maxdate": "2025-03-06",
      "latitude": 45.88,
      "name": "CALVERT CREEK, MT US",
      "datacoverage": 1,
      "id": "GHCND:USS0013D26S",
      "elevationUnit": "METERS",
      "longitude": -113.33
    },
    {
      "elevation": 2267.7,
      "mindate": "1980-08-07",
      "maxdate": "2025-03-06",
      "latitude": 44.41,
      "name": "MOONSHINE, ID US",
      "datacoverage": 1,
      "id": "GHCND:USS0013E06S",
      "elevationUnit": "METERS",
      "longitude": -113.4
    },
    {
      "elevation": 2603,
      "mindate": "1995-09-01",
      "maxdate": "2025-03-06",
      "latitude": 44.85,
      "name": "SCHWARTZ LAKE, ID US",
      "datacoverage": 1,
      "id": "GHCND:USS0013E16S",
      "elevationUnit": "METERS",
      "longitude": -113.84
    },
    {
      "elevation": 2788.9,
      "mindate": "1980-08-06",
      "maxdate": "2025-03-06",
      "latitude": 44.44,
      "name": "MEADOW LAKE, ID US",
      "datacoverage": 1,
      "id": "GHCND:USS0013E18S",
      "elevationUnit": "METERS",
      "longitude": -113.32
    },
    {
      "elevation": 2468.9,
      "mindate": "1971-12-31",
      "maxdate": "2025-03-06",
      "latitude": 44.99,
      "name": "LEMHI RIDGE, MT US",
      "datacoverage": 0.9999,
      "id": "GHCND:USS0013E23S",
      "elevationUnit": "METERS",
      "longitude": -113.44
    },
    {
      "elevation": 2438.4,
      "mindate": "1980-08-11",
      "maxdate": "2025-03-06",
      "latitude": 44.02,
      "name": "HILTS CREEK, ID US",
      "datacoverage": 1,
      "id": "GHCND:USS0013E27S",
      "elevationUnit": "METERS",
      "longitude": -113.47
    },
    {
      "elevation": 2407.9,
      "mindate": "1980-08-05",
      "maxdate": "2025-03-06",
      "latitude": 43.74,
      "name": "BEAR CANYON, ID US",
      "datacoverage": 1,
      "id": "GHCND:USS0013F03S",
      "elevationUnit": "METERS",
      "longitude": -113.94
    },
    {
      "elevation": 1999.5,
      "mindate": "1980-08-06",
      "maxdate": "2025-03-06",
      "latitude": 43.61,
      "name": "GARFIELD RANGER STATION, ID US",
      "datacoverage": 1,
      "id": "GHCND:USS0013F04S",
      "elevationUnit": "METERS",
      "longitude": -113.93
    },
    {
      "elevation": 2328.7,
      "mindate": "1978-09-30",
      "maxdate": "2025-03-06",
      "latitude": 43.63,
      "name": "SWEDE PEAK, ID US",
      "datacoverage": 1,
      "id": "GHCND:USS0013F09S",
      "elevationUnit": "METERS",
      "longitude": -113.97
    },
    {
      "elevation": 2901.7,
      "mindate": "2001-09-01",
      "maxdate": "2025-03-06",
      "latitude": 43.73,
      "name": "SMILEY MOUNTAIN, ID US",
      "datacoverage": 1,
      "id": "GHCND:USS0013F13S",
      "elevationUnit": "METERS",
      "longitude": -113.83
    },
    {
      "elevation": 2432.3,
      "mindate": "1978-11-21",
      "maxdate": "2025-03-06",
      "latitude": 42.32,
      "name": "HOWELL CANYON, ID US",
      "datacoverage": 1,
      "id": "GHCND:USS0013G01S",
      "elevationUnit": "METERS",
      "longitude": -113.62
    },
    {
      "elevation": 2744.7,
      "mindate": "2010-08-01",
      "maxdate": "2025-03-06",
      "latitude": 41.92,
      "name": "GEORGE CREEK, UT US",
      "datacoverage": 1,
      "id": "GHCND:USS0013H05S",
      "elevationUnit": "METERS",
      "longitude": -113.41
    },
    {
      "elevation": 2438.4,
      "mindate": "1979-09-01",
      "maxdate": "2025-03-06",
      "latitude": 37.51,
      "name": "LONG FLAT, UT US",
      "datacoverage": 1,
      "id": "GHCND:USS0013M02S",
      "elevationUnit": "METERS",
      "longitude": -113.4
    },
    {
      "elevation": 1859.3,
      "mindate": "1985-09-30",
      "maxdate": "2025-03-06",
      "latitude": 37.49,
      "name": "LITTLE GRASSY, UT US",
      "datacoverage": 1,
      "id": "GHCND:USS0013M04S",
      "elevationUnit": "METERS",
      "longitude": -113.85
    },
    {
      "elevation": 2806,
      "mindate": "1978-09-30",
      "maxdate": "2025-03-06",
      "latitude": 37.53,
      "name": "KOLOB, UT US",
      "datacoverage": 1,
      "id": "GHCND:USS0013M05S",
      "elevationUnit": "METERS",
      "longitude": -113.05
    },
    {
      "elevation": 2061.4,
      "mindate": "2004-08-01",
      "maxdate": "2025-03-06",
      "latitude": 37.5,
      "name": "GUTZ PEAK, UT US",
      "datacoverage": 1,
      "id": "GHCND:USS0013M06S",
      "elevationUnit": "METERS",
      "longitude": -113.94
    },
    {
      "elevation": 2536.5,
      "mindate": "2004-08-01",
      "maxdate": "2025-03-06",
      "latitude": 37.4,
      "name": "GARDNER PEAK, UT US",
      "datacoverage": 1,
      "id": "GHCND:USS0013M07S",
      "elevationUnit": "METERS",
      "longitude": -113.46
    },
    {
      "elevation": 1310.6,
      "mindate": "1975-09-30",
      "maxdate": "2025-03-06",
      "latitude": 48.91,
      "name": "GRAVE CREEK, MT US",
      "datacoverage": 1,
      "id": "GHCND:USS0014A11S",
      "elevationUnit": "METERS",
      "longitude": -114.77
    },
    {
      "elevation": 1837.9,
      "mindate": "1975-09-30",
      "maxdate": "2025-03-06",
      "latitude": 48.91,
      "name": "STAHL PEAK, MT US",
      "datacoverage": 1,
      "id": "GHCND:USS0014A12S",
      "elevationUnit": "METERS",
      "longitude": -114.86
    },
    {
      "elevation": 1534.7,
      "mindate": "1976-09-30",
      "maxdate": "2025-03-06",
      "latitude": 48.31,
      "name": "HAND CREEK, MT US",
      "datacoverage": 1,
      "id": "GHCND:USS0014A14S",
      "elevationUnit": "METERS",
      "longitude": -114.84
    },
    {
      "elevation": 1722.1,
      "mindate": "2010-08-01",
      "maxdate": "2025-03-06",
      "latitude": 47.98,
      "name": "BLACKTAIL MOUNTAIN, MT US",
      "datacoverage": 1,
      "id": "GHCND:USS0014B04S",
      "elevationUnit": "METERS",
      "longitude": -114.35
    },
    {
      "elevation": 1874.5,
      "mindate": "1991-09-30",
      "maxdate": "2025-03-06",
      "latitude": 47.18,
      "name": "SLEEPING WOMAN, MT US",
      "datacoverage": 1,
      "id": "GHCND:USS0014B05S",
      "elevationUnit": "METERS",
      "longitude": -114.33
    },
    {
      "elevation": 1880.6,
      "mindate": "1983-02-01",
      "maxdate": "2025-03-06",
      "latitude": 46.47,
      "name": "SAVAGE PASS, ID US",
      "datacoverage": 0.9993,
      "id": "GHCND:USS0014C04S",
      "elevationUnit": "METERS",
      "longitude": -114.63
    },
    {
      "elevation": 1597.2,
      "mindate": "1983-02-01",
      "maxdate": "2025-03-06",
      "latitude": 46.63,
      "name": "LOLO PASS, ID US",
      "datacoverage": 1,
      "id": "GHCND:USS0014C05S",
      "elevationUnit": "METERS",
      "longitude": -114.58
    },
    {
      "elevation": 1950.7,
      "mindate": "1967-09-30",
      "maxdate": "2025-03-06",
      "latitude": 46.14,
      "name": "TWIN LAKES, MT US",
      "datacoverage": 1,
      "id": "GHCND:USS0014C12S",
      "elevationUnit": "METERS",
      "longitude": -114.51
    },
    {
      "elevation": 1706.9,
      "mindate": "1967-09-30",
      "maxdate": "2025-03-06",
      "latitude": 46.14,
      "name": "TWELVEMILE CREEK, MT US",
      "datacoverage": 1,
      "id": "GHCND:USS0014C13S",
      "elevationUnit": "METERS",
      "longitude": -114.45
    },
    {
      "elevation": 1722.1,
      "mindate": "1976-09-30",
      "maxdate": "2025-03-06",
      "latitude": 45.73,
      "name": "NEZ PERCE CAMP, MT US",
      "datacoverage": 1,
      "id": "GHCND:USS0014D02S",
      "elevationUnit": "METERS",
      "longitude": -114.48
    },
    {
      "elevation": 2682.2,
      "mindate": "1978-11-20",
      "maxdate": "2025-03-06",
      "latitude": 44.47,
      "name": "MILL CREEK SUMMIT, ID US",
      "datacoverage": 0.9993,
      "id": "GHCND:USS0014E01S",
      "elevationUnit": "METERS",
      "longitude": -114.49
    },
    {
      "elevation": 2316.5,
      "mindate": "1980-08-11",
      "maxdate": "2025-03-06",
      "latitude": 44.84,
      "name": "MORGAN CREEK, ID US",
      "datacoverage": 1,
      "id": "GHCND:USS0014E04S",
      "elevationUnit": "METERS",
      "longitude": -114.27
    },
    {
      "elevation": 2264.7,
      "mindate": "1980-08-11",
      "maxdate": "2025-03-06",
      "latitude": 43.86,
      "name": "STICKNEY MILL, ID US",
      "datacoverage": 1,
      "id": "GHCND:USS0014F02S",
      "elevationUnit": "METERS",
      "longitude": -114.21
    },
    {
      "elevation": 2407.9,
      "mindate": "1980-08-08",
      "maxdate": "2025-03-06",
      "latitude": 43.82,
      "name": "LOST WOOD DIVIDE, ID US",
      "datacoverage": 0.9981,
      "id": "GHCND:USS0014F03S",
      "elevationUnit": "METERS",
      "longitude": -114.26
    },
    {
      "elevation": 2731,
      "mindate": "1978-09-30",
      "maxdate": "2025-03-06",
      "latitude": 43.8,
      "name": "VIENNA MINE, ID US",
      "datacoverage": 0.9993,
      "id": "GHCND:USS0014F04S",
      "elevationUnit": "METERS",
      "longitude": -114.85
    },
    {
      "elevation": 2566.4,
      "mindate": "1980-08-06",
      "maxdate": "2025-03-06",
      "latitude": 43.6,
      "name": "DOLLARHIDE SUMMIT, ID US",
      "datacoverage": 1,
      "id": "GHCND:USS0014F08S",
      "elevationUnit": "METERS",
      "longitude": -114.67
    },
    {
      "elevation": 1749.6,
      "mindate": "1986-09-30",
      "maxdate": "2025-03-06",
      "latitude": 43.48,
      "name": "SOLDIER RANGER STATION, ID US",
      "datacoverage": 1,
      "id": "GHCND:USS0014F11S",
      "elevationUnit": "METERS",
      "longitude": -114.83
    },
    {
      "elevation": 2676.1,
      "mindate": "1978-10-11",
      "maxdate": "2025-03-06",
      "latitude": 43.87,
      "name": "GALENA SUMMIT, ID US",
      "datacoverage": 1,
      "id": "GHCND:USS0014F12S",
      "elevationUnit": "METERS",
      "longitude": -114.71
    },
    {
      "elevation": 2267.7,
      "mindate": "1980-08-11",
      "maxdate": "2025-03-06",
      "latitude": 43.71,
      "name": "HYNDMAN, ID US",
      "datacoverage": 1,
      "id": "GHCND:USS0014F16S",
      "elevationUnit": "METERS",
      "longitude": -114.16
    },
    {
      "elevation": 2276.9,
      "mindate": "1980-08-29",
      "maxdate": "2025-03-06",
      "latitude": 43.88,
      "name": "GALENA, ID US",
      "datacoverage": 1,
      "id": "GHCND:USS0014F17S",
      "elevationUnit": "METERS",
      "longitude": -114.67
    },
    {
      "elevation": 1962.9,
      "mindate": "1993-06-01",
      "maxdate": "2025-03-06",
      "latitude": 43.77,
      "name": "CHOCOLATE GULCH, ID US",
      "datacoverage": 1,
      "id": "GHCND:USS0014F19S",
      "elevationUnit": "METERS",
      "longitude": -114.42
    },
    {
      "elevation": 2286,
      "mindate": "1980-07-13",
      "maxdate": "2025-03-06",
      "latitude": 42.16,
      "name": "BOSTETTER RANGER STATION, ID US",
      "datacoverage": 1,
      "id": "GHCND:USS0014G01S",
      "elevationUnit": "METERS",
      "longitude": -114.19
    },
    {
      "elevation": 2097,
      "mindate": "1980-07-30",
      "maxdate": "2025-03-06",
      "latitude": 42.18,
      "name": "MAGIC MOUNTAIN, ID US",
      "datacoverage": 1,
      "id": "GHCND:USS0014G02S",
      "elevationUnit": "METERS",
      "longitude": -114.29
    },
    {
      "elevation": 2133.6,
      "mindate": "2012-01-01",
      "maxdate": "2025-03-06",
      "latitude": 41.57,
      "name": "JAKES CREEK, NV US",
      "datacoverage": 1,
      "id": "GHCND:USS0014H04S",
      "elevationUnit": "METERS",
      "longitude": -115.03
    },
    {
      "elevation": 2286,
      "mindate": "2011-07-01",
      "maxdate": "2025-03-06",
      "latitude": 39.46,
      "name": "BIRD CREEK, NV US",
      "datacoverage": 1,
      "id": "GHCND:USS0014K01S",
      "elevationUnit": "METERS",
      "longitude": -114.65
    },
    {
      "elevation": 2773.7,
      "mindate": "1980-07-01",
      "maxdate": "2025-03-06",
      "latitude": 39.32,
      "name": "BERRY CREEK, NV US",
      "datacoverage": 1,
      "id": "GHCND:USS0014K02S",
      "elevationUnit": "METERS",
      "longitude": -114.62
    },
    {
      "elevation": 2804.2,
      "mindate": "1980-07-01",
      "maxdate": "2025-03-06",
      "latitude": 39.13,
      "name": "WARD MOUNTAIN, NV US",
      "datacoverage": 1,
      "id": "GHCND:USS0014K05S",
      "elevationUnit": "METERS",
      "longitude": -114.96
    },
    {
      "elevation": 2438.4,
      "mindate": "2012-01-01",
      "maxdate": "2025-03-06",
      "latitude": 39.23,
      "name": "SILVER CREEK NV, NV US",
      "datacoverage": 1,
      "id": "GHCND:USS0014K07S",
      "elevationUnit": "METERS",
      "longitude": -114.24
    },
    {
      "elevation": 3225.7,
      "mindate": "2011-07-01",
      "maxdate": "2025-03-06",
      "latitude": 39.16,
      "name": "CAVE MOUNTAIN, NV US",
      "datacoverage": 1,
      "id": "GHCND:USS0014K08S",
      "elevationUnit": "METERS",
      "longitude": -114.61
    },
    {
      "elevation": 2804.2,
      "mindate": "2012-01-01",
      "maxdate": "2025-03-06",
      "latitude": 39.09,
      "name": "DEFIANCE MINES, NV US",
      "datacoverage": 1,
      "id": "GHCND:USS0014K09S",
      "elevationUnit": "METERS",
      "longitude": -114.9
    },
    {
      "elevation": 2360.4,
      "mindate": "2011-07-01",
      "maxdate": "2025-03-06",
      "latitude": 39.56,
      "name": "KALAMAZOO, NV US",
      "datacoverage": 1,
      "id": "GHCND:USS0014K10S",
      "elevationUnit": "METERS",
      "longitude": -114.63
    },
    {
      "elevation": 3084.6,
      "mindate": "2010-07-01",
      "maxdate": "2025-03-06",
      "latitude": 39.01,
      "name": "WHEELER PEAK, NV US",
      "datacoverage": 1,
      "id": "GHCND:USS0014L04S",
      "elevationUnit": "METERS",
      "longitude": -114.31
    },
    {
      "elevation": 1966,
      "mindate": "1968-09-30",
      "maxdate": "2025-03-06",
      "latitude": 48.97,
      "name": "HAWKINS LAKE, MT US",
      "datacoverage": 1,
      "id": "GHCND:USS0015A03S",
      "elevationUnit": "METERS",
      "longitude": -115.95
    },
    {
      "elevation": 1295.4,
      "mindate": "1968-09-30",
      "maxdate": "2025-03-06",
      "latitude": 48.98,
      "name": "GARVER CREEK, MT US",
      "datacoverage": 1,
      "id": "GHCND:USS0015A05S",
      "elevationUnit": "METERS",
      "longitude": -115.82
    },
    {
      "elevation": 1706.9,
      "mindate": "1968-09-30",
      "maxdate": "2025-03-06",
      "latitude": 48.57,
      "name": "BANFIELD MOUNTAIN, MT US",
      "datacoverage": 1,
      "id": "GHCND:USS0015A08S",
      "elevationUnit": "METERS",
      "longitude": -115.45
    },
    {
      "elevation": 1554.5,
      "mindate": "1968-09-30",
      "maxdate": "2025-03-06",
      "latitude": 48.13,
      "name": "POORMAN CREEK, MT US",
      "datacoverage": 1,
      "id": "GHCND:USS0015A12S",
      "elevationUnit": "METERS",
      "longitude": -115.62
    },
    {
      "elevation": 1566.7,
      "mindate": "1978-10-30",
      "maxdate": "2025-03-06",
      "latitude": 47.46,
      "name": "LOOKOUT, ID US",
      "datacoverage": 0.9813,
      "id": "GHCND:USS0015B02S",
      "elevationUnit": "METERS",
      "longitude": -115.71
    },
    {
      "elevation": 1688.6,
      "mindate": "1978-09-30",
      "maxdate": "2025-03-06",
      "latitude": 47.56,
      "name": "SUNSET, ID US",
      "datacoverage": 0.9828,
      "id": "GHCND:USS0015B09S",
      "elevationUnit": "METERS",
      "longitude": -115.82
    },
    {
      "elevation": 1862.3,
      "mindate": "1981-01-05",
      "maxdate": "2025-03-05",
      "latitude": 47.07,
      "name": "LOST LAKE, ID US",
      "datacoverage": 1,
      "id": "GHCND:USS0015B14S",
      "elevationUnit": "METERS",
      "longitude": -115.96
    },
    {
      "elevation": 1295.4,
      "mindate": "1978-12-01",
      "maxdate": "2025-03-06",
      "latitude": 47.53,
      "name": "HUMBOLDT GULCH, ID US",
      "datacoverage": 0.9981,
      "id": "GHCND:USS0015B21S",
      "elevationUnit": "METERS",
      "longitude": -115.78
    },
    {
      "elevation": 1392.9,
      "mindate": "1982-12-31",
      "maxdate": "2025-03-06",
      "latitude": 46.57,
      "name": "SHANGHI SUMMIT, ID US",
      "datacoverage": 0.9993,
      "id": "GHCND:USS0015C04S",
      "elevationUnit": "METERS",
      "longitude": -115.74
    },
    {
      "elevation": 938.8,
      "mindate": "2009-09-01",
      "maxdate": "2025-03-06",
      "latitude": 46.49,
      "name": "PIERCE RANGER STATION, ID US",
      "datacoverage": 1,
      "id": "GHCND:USS0015C05S",
      "elevationUnit": "METERS",
      "longitude": -115.8
    },
    {
      "elevation": 1770.9,
      "mindate": "1983-07-01",
      "maxdate": "2025-03-06",
      "latitude": 46.48,
      "name": "HEMLOCK BUTTE, ID US",
      "datacoverage": 0.9993,
      "id": "GHCND:USS0015C06S",
      "elevationUnit": "METERS",
      "longitude": -115.63
    },
    {
      "elevation": 1816.6,
      "mindate": "1984-08-01",
      "maxdate": "2025-03-05",
      "latitude": 46.56,
      "name": "CRATER MEADOWS, ID US",
      "datacoverage": 1,
      "id": "GHCND:USS0015C09S",
      "elevationUnit": "METERS",
      "longitude": -115.29
    },
    {
      "elevation": 1844,
      "mindate": "1966-09-30",
      "maxdate": "2025-03-06",
      "latitude": 46.98,
      "name": "HOODOO BASIN, MT US",
      "datacoverage": 1,
      "id": "GHCND:USS0015C10S",
      "elevationUnit": "METERS",
      "longitude": -115.03
    },
    {
      "elevation": 1914.1,
      "mindate": "1984-08-01",
      "maxdate": "2025-03-05",
      "latitude": 46.76,
      "name": "COOL CREEK, ID US",
      "datacoverage": 1,
      "id": "GHCND:USS0015C16S",
      "elevationUnit": "METERS",
      "longitude": -115.3
    },
    {
      "elevation": 1987.3,
      "mindate": "1980-07-31",
      "maxdate": "2025-03-06",
      "latitude": 45.19,
      "name": "SECESH SUMMIT, ID US",
      "datacoverage": 1,
      "id": "GHCND:USS0015D01S",
      "elevationUnit": "METERS",
      "longitude": -115.97
    },
    {
      "elevation": 1938.5,
      "mindate": "1980-08-28",
      "maxdate": "2025-03-06",
      "latitude": 45.7,
      "name": "MOUNTAIN MEADOWS, ID US",
      "datacoverage": 1,
      "id": "GHCND:USS0015D06S",
      "elevationUnit": "METERS",
      "longitude": -115.23
    },
    {
      "elevation": 2005.6,
      "mindate": "1980-07-13",
      "maxdate": "2025-03-06",
      "latitude": 44.63,
      "name": "BIG CREEK SUMMIT, ID US",
      "datacoverage": 1,
      "id": "GHCND:USS0015E02S",
      "elevationUnit": "METERS",
      "longitude": -115.79
    },
    {
      "elevation": 2090.9,
      "mindate": "1978-09-30",
      "maxdate": "2025-03-06",
      "latitude": 44.54,
      "name": "DEADWOOD SUMMIT, ID US",
      "datacoverage": 1,
      "id": "GHCND:USS0015E04S",
      "elevationUnit": "METERS",
      "longitude": -115.56
    },
    {
      "elevation": 1639.8,
      "mindate": "1978-09-30",
      "maxdate": "2025-03-06",
      "latitude": 44.29,
      "name": "COZY COVE, ID US",
      "datacoverage": 0.9993,
      "id": "GHCND:USS0015E08S",
      "elevationUnit": "METERS",
      "longitude": -115.66
    },
    {
      "elevation": 2154.9,
      "mindate": "1980-08-11",
      "maxdate": "2025-03-06",
      "latitude": 44.05,
      "name": "JACKSON PEAK, ID US",
      "datacoverage": 1,
      "id": "GHCND:USS0015E09S",
      "elevationUnit": "METERS",
      "longitude": -115.44
    },
    {
      "elevation": 2145.8,
      "mindate": "1980-08-11",
      "maxdate": "2025-03-06",
      "latitude": 44.3,
      "name": "BANNER SUMMIT, ID US",
      "datacoverage": 0.9993,
      "id": "GHCND:USS0015E11S",
      "elevationUnit": "METERS",
      "longitude": -115.23
    },
    {
      "elevation": 1859.3,
      "mindate": "1978-09-30",
      "maxdate": "2025-03-06",
      "latitude": 43.93,
      "name": "MORES CREEK SUMMIT, ID US",
      "datacoverage": 0.9942,
      "id": "GHCND:USS0015F01S",
      "elevationUnit": "METERS",
      "longitude": -115.67
    },
    {
      "elevation": 2310.4,
      "mindate": "1978-09-30",
      "maxdate": "2025-03-06",
      "latitude": 43.76,
      "name": "ATLANTA SUMMIT, ID US",
      "datacoverage": 0.9794,
      "id": "GHCND:USS0015F04S",
      "elevationUnit": "METERS",
      "longitude": -115.24
    },
    {
      "elevation": 2368.3,
      "mindate": "1979-03-01",
      "maxdate": "2025-03-06",
      "latitude": 43.63,
      "name": "TRINITY MOUNTAIN, ID US",
      "datacoverage": 1,
      "id": "GHCND:USS0015F05S",
      "elevationUnit": "METERS",
      "longitude": -115.44
    },
    {
      "elevation": 1463,
      "mindate": "1980-07-30",
      "maxdate": "2025-03-06",
      "latitude": 43.51,
      "name": "PRAIRIE, ID US",
      "datacoverage": 1,
      "id": "GHCND:USS0015F06S",
      "elevationUnit": "METERS",
      "longitude": -115.57
    },
    {
      "elevation": 1740.4,
      "mindate": "1992-05-01",
      "maxdate": "2025-03-06",
      "latitude": 43.27,
      "name": "CAMAS CREEK DIVIDE, ID US",
      "datacoverage": 0.9999,
      "id": "GHCND:USS0015F09S",
      "elevationUnit": "METERS",
      "longitude": -115.35
    },
    {
      "elevation": 1734.3,
      "mindate": "1978-09-30",
      "maxdate": "2025-03-06",
      "latitude": 43.95,
      "name": "GRAHAM GUARD STA., ID US",
      "datacoverage": 0.9982,
      "id": "GHCND:USS0015F14S",
      "elevationUnit": "METERS",
      "longitude": -115.27
    },
    {
      "elevation": 2170.2,
      "mindate": "1990-09-01",
      "maxdate": "2025-03-06",
      "latitude": 42.01,
      "name": "WILSON CREEK, ID US",
      "datacoverage": 1,
      "id": "GHCND:USS0015G02S",
      "elevationUnit": "METERS",
      "longitude": -115
    },
    {
      "elevation": 2450.6,
      "mindate": "1978-09-30",
      "maxdate": "2025-03-06",
      "latitude": 41.83,
      "name": "BEAR CREEK, NV US",
      "datacoverage": 1,
      "id": "GHCND:USS0015H01S",
      "elevationUnit": "METERS",
      "longitude": -115.45
    },
    {
      "elevation": 2164.1,
      "mindate": "1978-09-30",
      "maxdate": "2025-03-06",
      "latitude": 41.74,
      "name": "SEVENTYSIX CREEK, NV US",
      "datacoverage": 1,
      "id": "GHCND:USS0015H03S",
      "elevationUnit": "METERS",
      "longitude": -115.47
    },
    {
      "elevation": 2042.2,
      "mindate": "1978-09-30",
      "maxdate": "2025-03-06",
      "latitude": 41.76,
      "name": "BIG BEND, NV US",
      "datacoverage": 1,
      "id": "GHCND:USS0015H04S",
      "elevationUnit": "METERS",
      "longitude": -115.69
    },
    {
      "elevation": 1889.8,
      "mindate": "1980-05-01",
      "maxdate": "2025-03-06",
      "latitude": 41.23,
      "name": "TAYLOR CANYON, NV US",
      "datacoverage": 1,
      "id": "GHCND:USS0015H09S",
      "elevationUnit": "METERS",
      "longitude": -116.03
    },
    {
      "elevation": 2539,
      "mindate": "1980-07-23",
      "maxdate": "2025-03-06",
      "latitude": 41.87,
      "name": "POLE CREEK RANGER STATION, NV US",
      "datacoverage": 1,
      "id": "GHCND:USS0015H14S",
      "elevationUnit": "METERS",
      "longitude": -115.25
    },
    {
      "elevation": 2377.4,
      "mindate": "2012-01-01",
      "maxdate": "2025-03-06",
      "latitude": 41.41,
      "name": "STAG MOUNTAIN, NV US",
      "datacoverage": 1,
      "id": "GHCND:USS0015H19S",
      "elevationUnit": "METERS",
      "longitude": -115.45
    },
    {
      "elevation": 2133.6,
      "mindate": "2012-01-01",
      "maxdate": "2025-03-06",
      "latitude": 41.89,
      "name": "MERRITT MOUNTAIN, NV US",
      "datacoverage": 1,
      "id": "GHCND:USS0015H20S",
      "elevationUnit": "METERS",
      "longitude": -115.86
    },
    {
      "elevation": 2194.6,
      "mindate": "1983-08-01",
      "maxdate": "2025-03-06",
      "latitude": 41.66,
      "name": "DRAW CREEK, NV US",
      "datacoverage": 1,
      "id": "GHCND:USS0015H24S",
      "elevationUnit": "METERS",
      "longitude": -115.32
    }
  ]
}
