{
  "metadata": {
    "resultset": {
      "offset": 51900,
      "count": 154115,
      "limit": 100
    }
  },
  "results": [
    {
      "elevation": 512,
      "mindate": "1965-06-01",
      "maxdate": "1993-03-31",
      "latitude": 45.4,
      "name": "WEST DITTON, CA",
      "datacoverage": 1,
      "id": "GHCND:CA007028906",
      "elevationUnit": "METERS",
      "longitude": -71.3
    },
    {
      "elevation": 434,
      "mindate": "1965-05-01",
      "maxdate": "1966-10-31",
      "latitude": 45.3833,
      "name": "WOBURN, CA",
      "datacoverage": 0.6653,
      "id": "GHCND:CA007028945",
      "elevationUnit": "METERS",
      "longitude": -70.8667
    },
    {
      "elevation": 396,
      "mindate": "1973-01-01",
      "maxdate": "1997-01-31",
      "latitude": 45.3833,
      "name": "WOBURN, CA",
      "datacoverage": 0.9965,
      "id": "GHCND:CA007028946",
      "elevationUnit": "METERS",
      "longitude": -70.8667
    },
    {
      "elevation": 84,
      "mindate": "1966-10-01",
      "maxdate": "1994-05-31",
      "latitude": 46.1833,
      "name": "DAVELUYVILLE, CA",
      "datacoverage": 0.994,
      "id": "GHCND:CA00702A9ND",
      "elevationUnit": "METERS",
      "longitude": -72.2
    },
    {
      "elevation": 84,
      "mindate": "1973-01-01",
      "maxdate": "1975-10-31",
      "latitude": 45.3667,
      "name": "EATON, CA",
      "datacoverage": 0.9714,
      "id": "GHCND:CA00702BC0E",
      "elevationUnit": "METERS",
      "longitude": -71.6
    },
    {
      "elevation": 31,
      "mindate": "1977-07-01",
      "maxdate": "1984-05-16",
      "latitude": 45.5833,
      "name": "FABREVILLE, CA",
      "datacoverage": 0.9877,
      "id": "GHCND:CA00702BL09",
      "elevationUnit": "METERS",
      "longitude": -73.8167
    },
    {
      "elevation": 39,
      "mindate": "1993-08-01",
      "maxdate": "2024-04-28",
      "latitude": 45.4333,
      "name": "STE ANNE DE BELLEVUE 1, CA",
      "datacoverage": 0.9779,
      "id": "GHCND:CA00702FHL8",
      "elevationUnit": "METERS",
      "longitude": -73.9333
    },
    {
      "elevation": 49,
      "mindate": "1994-07-01",
      "maxdate": "2024-04-28",
      "latitude": 45.1167,
      "name": "ST ANICET 1, CA",
      "datacoverage": 0.9999,
      "id": "GHCND:CA00702FQLF",
      "elevationUnit": "METERS",
      "longitude": -74.2833
    },
    {
      "elevation": 268,
      "mindate": "1975-06-01",
      "maxdate": "2024-03-30",
      "latitude": 45.6667,
      "name": "ST CAMILLE WOLFE, CA",
      "datacoverage": 0.9999,
      "id": "GHCND:CA00702FR30",
      "elevationUnit": "METERS",
      "longitude": -71.7333
    },
    {
      "elevation": 15,
      "mindate": "1973-01-01",
      "maxdate": "1985-01-31",
      "latitude": 45.6667,
      "name": "ST FRANCOIS DE LAVAL, CA",
      "datacoverage": 0.9999,
      "id": "GHCND:CA00702G266",
      "elevationUnit": "METERS",
      "longitude": -73.5833
    },
    {
      "elevation": 15,
      "mindate": "1973-01-01",
      "maxdate": "1973-12-31",
      "latitude": 45.3333,
      "name": "SAWYER BROOK, CA",
      "datacoverage": 1,
      "id": "GHCND:CA00702GGR7",
      "elevationUnit": "METERS",
      "longitude": -71.6167
    },
    {
      "elevation": 15,
      "mindate": "1973-01-01",
      "maxdate": "1975-07-31",
      "latitude": 45.45,
      "name": "SHERMAN BROOK NORTH, CA",
      "datacoverage": 1,
      "id": "GHCND:CA00702HACH",
      "elevationUnit": "METERS",
      "longitude": -71.5
    },
    {
      "elevation": 245,
      "mindate": "1973-01-01",
      "maxdate": "1981-12-08",
      "latitude": 45.4167,
      "name": "STATTON BROOK NORTH, CA",
      "datacoverage": 1,
      "id": "GHCND:CA00702HBHA",
      "elevationUnit": "METERS",
      "longitude": -71.4833
    },
    {
      "elevation": 245,
      "mindate": "1973-01-01",
      "maxdate": "1981-12-05",
      "latitude": 45.3,
      "name": "SUCKER POND NORTH, CA",
      "datacoverage": 1,
      "id": "GHCND:CA00702HBHG",
      "elevationUnit": "METERS",
      "longitude": -71.6
    },
    {
      "elevation": 793,
      "mindate": "1973-01-01",
      "maxdate": "1981-12-09",
      "latitude": 45.2333,
      "name": "EATON RIVER NORTH, CA",
      "datacoverage": 1,
      "id": "GHCND:CA00702K30E",
      "elevationUnit": "METERS",
      "longitude": -71.5
    },
    {
      "elevation": 44,
      "mindate": "1994-07-01",
      "maxdate": "2024-04-28",
      "latitude": 45.3,
      "name": "L ACADIE, CA",
      "datacoverage": 0.9999,
      "id": "GHCND:CA00702LED4",
      "elevationUnit": "METERS",
      "longitude": -73.35
    },
    {
      "elevation": 32,
      "mindate": "2002-12-01",
      "maxdate": "2024-04-28",
      "latitude": 45.4667,
      "name": "MONTREAL PIERRE ELLIOTT TRUDEA, CA",
      "datacoverage": 0.8775,
      "id": "GHCND:CA00702S006",
      "elevationUnit": "METERS",
      "longitude": -73.75
    },
    {
      "elevation": 91,
      "mindate": "1962-01-01",
      "maxdate": "2023-10-24",
      "latitude": 45.55,
      "name": "ANGERS, CA",
      "datacoverage": 0.9876,
      "id": "GHCND:CA007030170",
      "elevationUnit": "METERS",
      "longitude": -75.55
    },
    {
      "elevation": 191,
      "mindate": "1963-12-01",
      "maxdate": "2024-03-30",
      "latitude": 45.95,
      "name": "ARUNDEL, CA",
      "datacoverage": 0.9968,
      "id": "GHCND:CA007030310",
      "elevationUnit": "METERS",
      "longitude": -74.6167
    },
    {
      "elevation": 364,
      "mindate": "1912-11-01",
      "maxdate": "1929-10-31",
      "latitude": 46.5,
      "name": "BARK LAKE, CA",
      "datacoverage": 0.9804,
      "id": "GHCND:CA007030447",
      "elevationUnit": "METERS",
      "longitude": -75.3333
    },
    {
      "elevation": 236,
      "mindate": "1927-01-01",
      "maxdate": "1980-05-21",
      "latitude": 46.7167,
      "name": "BARRAGE MERCIER, CA",
      "datacoverage": 0.9907,
      "id": "GHCND:CA007030457",
      "elevationUnit": "METERS",
      "longitude": -75.9833
    },
    {
      "elevation": 390,
      "mindate": "1941-07-01",
      "maxdate": "1967-10-31",
      "latitude": 47.2167,
      "name": "BARRAGE MITCHINAMECUS, CA",
      "datacoverage": 1,
      "id": "GHCND:CA007030462",
      "elevationUnit": "METERS",
      "longitude": -75.1667
    },
    {
      "elevation": 256,
      "mindate": "1963-01-01",
      "maxdate": "1973-05-13",
      "latitude": 46.7167,
      "name": "BARRIERE QUINN, CA",
      "datacoverage": 1,
      "id": "GHCND:CA007030475",
      "elevationUnit": "METERS",
      "longitude": -76.0667
    },
    {
      "elevation": 122,
      "mindate": "1919-01-01",
      "maxdate": "1994-05-31",
      "latitude": 45.7667,
      "name": "BELL FALLS, CA",
      "datacoverage": 0.9061,
      "id": "GHCND:CA007030640",
      "elevationUnit": "METERS",
      "longitude": -74.6833
    },
    {
      "elevation": 213,
      "mindate": "1974-10-01",
      "maxdate": "1994-05-31",
      "latitude": 45.75,
      "name": "BLANCHE, CA",
      "datacoverage": 1,
      "id": "GHCND:CA007030810",
      "elevationUnit": "METERS",
      "longitude": -75.3333
    },
    {
      "elevation": 137,
      "mindate": "1960-04-01",
      "maxdate": "1985-01-31",
      "latitude": 45.5833,
      "name": "BUCKINGHAM, CA",
      "datacoverage": 0.9461,
      "id": "GHCND:CA007030874",
      "elevationUnit": "METERS",
      "longitude": -75.4167
    },
    {
      "elevation": 282,
      "mindate": "1971-05-01",
      "maxdate": "1987-02-28",
      "latitude": 45.8333,
      "name": "CAMP TAMARACOUTA, CA",
      "datacoverage": 0.9842,
      "id": "GHCND:CA007031017",
      "elevationUnit": "METERS",
      "longitude": -74.2
    },
    {
      "elevation": 168,
      "mindate": "1980-05-01",
      "maxdate": "2024-03-30",
      "latitude": 45.6833,
      "name": "CHARTERIS, CA",
      "datacoverage": 0.8826,
      "id": "GHCND:CA007031315",
      "elevationUnit": "METERS",
      "longitude": -76.4333
    },
    {
      "elevation": 113,
      "mindate": "1927-09-01",
      "maxdate": "2024-03-30",
      "latitude": 45.5167,
      "name": "CHELSEA, CA",
      "datacoverage": 0.9943,
      "id": "GHCND:CA007031360",
      "elevationUnit": "METERS",
      "longitude": -75.7833
    },
    {
      "elevation": 223,
      "mindate": "1964-05-01",
      "maxdate": "2024-03-30",
      "latitude": 45.9,
      "name": "CHENEVILLE, CA",
      "datacoverage": 0.9595,
      "id": "GHCND:CA007031375",
      "elevationUnit": "METERS",
      "longitude": -75.0833
    },
    {
      "elevation": 252,
      "mindate": "1972-01-01",
      "maxdate": "1996-11-30",
      "latitude": 46.65,
      "name": "CHUTE ST PHILIPPE, CA",
      "datacoverage": 0.9866,
      "id": "GHCND:CA007031636",
      "elevationUnit": "METERS",
      "longitude": -75.25
    },
    {
      "elevation": 213,
      "mindate": "1957-06-01",
      "maxdate": "1985-01-31",
      "latitude": 46.7,
      "name": "FERME NEUVE, CA",
      "datacoverage": 0.9848,
      "id": "GHCND:CA007032370",
      "elevationUnit": "METERS",
      "longitude": -75.45
    },
    {
      "elevation": 107,
      "mindate": "1948-09-01",
      "maxdate": "1989-11-01",
      "latitude": 45.8167,
      "name": "FORT COULONGE, CA",
      "datacoverage": 0.9354,
      "id": "GHCND:CA007032440",
      "elevationUnit": "METERS",
      "longitude": -76.75
    },
    {
      "elevation": 49,
      "mindate": "1953-11-01",
      "maxdate": "1973-08-31",
      "latitude": 45.4833,
      "name": "GATINEAU, CA",
      "datacoverage": 0.874,
      "id": "GHCND:CA007032680",
      "elevationUnit": "METERS",
      "longitude": -75.65
    },
    {
      "elevation": 183,
      "mindate": "1963-01-01",
      "maxdate": "1991-11-29",
      "latitude": 45.85,
      "name": "HARRINGTON FOREST FARM, CA",
      "datacoverage": 1,
      "id": "GHCND:CA007032997",
      "elevationUnit": "METERS",
      "longitude": -74.6333
    },
    {
      "elevation": 189,
      "mindate": "1933-11-01",
      "maxdate": "1972-05-31",
      "latitude": 45.85,
      "name": "HIGH FALLS, CA",
      "datacoverage": 0.9914,
      "id": "GHCND:CA007033120",
      "elevationUnit": "METERS",
      "longitude": -75.65
    },
    {
      "elevation": 195,
      "mindate": "1999-01-01",
      "maxdate": "2022-10-03",
      "latitude": 45.8333,
      "name": "HIGH FALLS, CA",
      "datacoverage": 1,
      "id": "GHCND:CA007033121",
      "elevationUnit": "METERS",
      "longitude": -75.65
    },
    {
      "elevation": 213,
      "mindate": "1913-10-01",
      "maxdate": "1980-02-29",
      "latitude": 45.9667,
      "name": "HUBERDEAU, CA",
      "datacoverage": 0.9837,
      "id": "GHCND:CA007033160",
      "elevationUnit": "METERS",
      "longitude": -74.6333
    },
    {
      "elevation": 91,
      "mindate": "1963-01-01",
      "maxdate": "2024-03-30",
      "latitude": 45.65,
      "name": "LACHUTE, CA",
      "datacoverage": 1,
      "id": "GHCND:CA007033650",
      "elevationUnit": "METERS",
      "longitude": -74.3333
    },
    {
      "elevation": 284,
      "mindate": "1952-08-01",
      "maxdate": "1971-06-30",
      "latitude": 46.6167,
      "name": "LAC KIAMIKA, CA",
      "datacoverage": 1,
      "id": "GHCND:CA007033665",
      "elevationUnit": "METERS",
      "longitude": -75.1167
    },
    {
      "elevation": 312,
      "mindate": "1966-01-01",
      "maxdate": "1967-07-31",
      "latitude": 46.0333,
      "name": "LAC MASSON, CA",
      "datacoverage": 0.7913,
      "id": "GHCND:CA007033673",
      "elevationUnit": "METERS",
      "longitude": -74.05
    },
    {
      "elevation": 229,
      "mindate": "1963-01-01",
      "maxdate": "1966-06-30",
      "latitude": 45.9667,
      "name": "LAC POISSON BLANC, CA",
      "datacoverage": 0.8819,
      "id": "GHCND:CA007033685",
      "elevationUnit": "METERS",
      "longitude": -75.8167
    },
    {
      "elevation": 406,
      "mindate": "1957-01-01",
      "maxdate": "1986-06-15",
      "latitude": 45.9333,
      "name": "LAC ST DENIS, CA",
      "datacoverage": 0.8994,
      "id": "GHCND:CA007033700",
      "elevationUnit": "METERS",
      "longitude": -74.3167
    },
    {
      "elevation": 244,
      "mindate": "1976-09-01",
      "maxdate": "2024-03-30",
      "latitude": 46.3667,
      "name": "LA MACAZA, CA",
      "datacoverage": 1,
      "id": "GHCND:CA007033939",
      "elevationUnit": "METERS",
      "longitude": -74.7667
    },
    {
      "elevation": 245,
      "mindate": "1956-10-01",
      "maxdate": "1976-08-31",
      "latitude": 46.4,
      "name": "LA MACAZA A, CA",
      "datacoverage": 0.9874,
      "id": "GHCND:CA007033940",
      "elevationUnit": "METERS",
      "longitude": -74.7833
    },
    {
      "elevation": 274,
      "mindate": "1974-07-01",
      "maxdate": "1994-05-31",
      "latitude": 46.25,
      "name": "LA MINERVE, CA",
      "datacoverage": 0.9999,
      "id": "GHCND:CA007034010",
      "elevationUnit": "METERS",
      "longitude": -74.9333
    },
    {
      "elevation": 244,
      "mindate": "1953-06-01",
      "maxdate": "1982-03-26",
      "latitude": 46.4167,
      "name": "L ANNONCIATION, CA",
      "datacoverage": 0.5896,
      "id": "GHCND:CA007034040",
      "elevationUnit": "METERS",
      "longitude": -74.8667
    },
    {
      "elevation": 101,
      "mindate": "1911-06-01",
      "maxdate": "1945-08-31",
      "latitude": 45.5333,
      "name": "LUCERNE, CA",
      "datacoverage": 0.978,
      "id": "GHCND:CA007034350",
      "elevationUnit": "METERS",
      "longitude": -75.9667
    },
    {
      "elevation": 69,
      "mindate": "1980-11-01",
      "maxdate": "2024-03-30",
      "latitude": 45.5333,
      "name": "LUSKVILLE, CA",
      "datacoverage": 0.9905,
      "id": "GHCND:CA007034365",
      "elevationUnit": "METERS",
      "longitude": -76.05
    },
    {
      "elevation": 213,
      "mindate": "1973-09-01",
      "maxdate": "1994-05-31",
      "latitude": 46.6833,
      "name": "LYTTON, CA",
      "datacoverage": 0.964,
      "id": "GHCND:CA007034395",
      "elevationUnit": "METERS",
      "longitude": -76.0333
    },
    {
      "elevation": 189,
      "mindate": "1953-07-01",
      "maxdate": "2018-05-01",
      "latitude": 46.3,
      "name": "MANIWAKI UA, CA",
      "datacoverage": 0.9993,
      "id": "GHCND:CA007034480",
      "elevationUnit": "METERS",
      "longitude": -76
    },
    {
      "elevation": 174,
      "mindate": "1913-10-01",
      "maxdate": "1975-12-31",
      "latitude": 46.3833,
      "name": "MANIWAKI 2, CA",
      "datacoverage": 0.9505,
      "id": "GHCND:CA007034481",
      "elevationUnit": "METERS",
      "longitude": -75.9833
    },
    {
      "elevation": 200,
      "mindate": "1993-06-01",
      "maxdate": "2025-03-06",
      "latitude": 46.2667,
      "name": "MANIWAKI AIRPORT, CA",
      "datacoverage": 1,
      "id": "GHCND:CA007034482",
      "elevationUnit": "METERS",
      "longitude": -76
    },
    {
      "elevation": 55,
      "mindate": "1963-01-01",
      "maxdate": "1979-11-15",
      "latitude": 45.5333,
      "name": "MASSON, CA",
      "datacoverage": 0.9607,
      "id": "GHCND:CA007034635",
      "elevationUnit": "METERS",
      "longitude": -75.4167
    },
    {
      "elevation": 46,
      "mindate": "1976-07-01",
      "maxdate": "1985-01-31",
      "latitude": 45.65,
      "name": "MONTEBELLO, CA",
      "datacoverage": 1,
      "id": "GHCND:CA007035109",
      "elevationUnit": "METERS",
      "longitude": -74.9333
    },
    {
      "elevation": 197,
      "mindate": "1956-12-01",
      "maxdate": "2015-03-10",
      "latitude": 45.7,
      "name": "MONTEBELLO SEDBERGH, CA",
      "datacoverage": 0.9186,
      "id": "GHCND:CA007035110",
      "elevationUnit": "METERS",
      "longitude": -74.9333
    },
    {
      "elevation": 52,
      "mindate": "1930-06-01",
      "maxdate": "1975-04-30",
      "latitude": 45.65,
      "name": "MONTEBELLO SEIGNIORY, CA",
      "datacoverage": 0.9908,
      "id": "GHCND:CA007035112",
      "elevationUnit": "METERS",
      "longitude": -74.95
    },
    {
      "elevation": 244,
      "mindate": "1920-07-01",
      "maxdate": "1963-10-31",
      "latitude": 46.5667,
      "name": "MONT LAURIER, CA",
      "datacoverage": 0.9788,
      "id": "GHCND:CA007035158",
      "elevationUnit": "METERS",
      "longitude": -75.5
    },
    {
      "elevation": 244,
      "mindate": "1963-11-01",
      "maxdate": "2014-06-30",
      "latitude": 46.5667,
      "name": "MONT LAURIER, CA",
      "datacoverage": 0.9376,
      "id": "GHCND:CA007035160",
      "elevationUnit": "METERS",
      "longitude": -75.55
    },
    {
      "elevation": 83,
      "mindate": "1975-10-01",
      "maxdate": "2008-11-19",
      "latitude": 45.6667,
      "name": "MONTREAL MIRABEL INTERNATIONAL A, CA",
      "datacoverage": 0.9999,
      "id": "GHCND:CA007035290",
      "elevationUnit": "METERS",
      "longitude": -74.0333
    },
    {
      "elevation": 290,
      "mindate": "1948-05-01",
      "maxdate": "1982-03-31",
      "latitude": 45.9167,
      "name": "MORIN HEIGHTS, CA",
      "datacoverage": 0.9779,
      "id": "GHCND:CA007035360",
      "elevationUnit": "METERS",
      "longitude": -74.2667
    },
    {
      "elevation": 274,
      "mindate": "1913-08-01",
      "maxdate": "2013-11-30",
      "latitude": 46.4,
      "name": "NOMININGUE, CA",
      "datacoverage": 0.9684,
      "id": "GHCND:CA007035520",
      "elevationUnit": "METERS",
      "longitude": -75.0833
    },
    {
      "elevation": 183,
      "mindate": "1979-06-01",
      "maxdate": "2024-03-30",
      "latitude": 45.8,
      "name": "NOTRE DAME DE LA PAIX, CA",
      "datacoverage": 0.9588,
      "id": "GHCND:CA007035666",
      "elevationUnit": "METERS",
      "longitude": -74.9833
    },
    {
      "elevation": 213,
      "mindate": "1929-05-01",
      "maxdate": "1991-05-31",
      "latitude": 46.1167,
      "name": "NOTRE DAME DU LAUS, CA",
      "datacoverage": 0.9973,
      "id": "GHCND:CA007035680",
      "elevationUnit": "METERS",
      "longitude": -75.6333
    },
    {
      "elevation": 213,
      "mindate": "1948-11-01",
      "maxdate": "2004-04-30",
      "latitude": 45.85,
      "name": "OTTER LAKE, CA",
      "datacoverage": 0.8574,
      "id": "GHCND:CA007035760",
      "elevationUnit": "METERS",
      "longitude": -76.4333
    },
    {
      "elevation": 152,
      "mindate": "1911-05-01",
      "maxdate": "1991-05-31",
      "latitude": 45.6,
      "name": "PERKINS, CA",
      "datacoverage": 0.9677,
      "id": "GHCND:CA007036000",
      "elevationUnit": "METERS",
      "longitude": -75.6167
    },
    {
      "elevation": 51,
      "mindate": "1958-11-01",
      "maxdate": "2009-07-01",
      "latitude": 45.65,
      "name": "POINTE AU CHENE, CA",
      "datacoverage": 0.9491,
      "id": "GHCND:CA007036063",
      "elevationUnit": "METERS",
      "longitude": -74.8
    },
    {
      "elevation": 366,
      "mindate": "1899-07-01",
      "maxdate": "1958-04-30",
      "latitude": 46.05,
      "name": "STE AGATHE DES MONTS, CA",
      "datacoverage": 0.6204,
      "id": "GHCND:CA007036760",
      "elevationUnit": "METERS",
      "longitude": -74.2833
    },
    {
      "elevation": 395,
      "mindate": "1966-01-01",
      "maxdate": "1992-06-13",
      "latitude": 46.05,
      "name": "STE AGATHE DES MONTS, CA",
      "datacoverage": 1,
      "id": "GHCND:CA007036762",
      "elevationUnit": "METERS",
      "longitude": -74.2833
    },
    {
      "elevation": 392,
      "mindate": "1958-01-01",
      "maxdate": "1960-12-31",
      "latitude": 46.0833,
      "name": "STE AGATHE MANOR HOUSE, CA",
      "datacoverage": 0.8609,
      "id": "GHCND:CA007036780",
      "elevationUnit": "METERS",
      "longitude": -74.3
    },
    {
      "elevation": 262,
      "mindate": "1963-06-01",
      "maxdate": "2024-03-30",
      "latitude": 46.85,
      "name": "STE ANNE DU LAC, CA",
      "datacoverage": 1,
      "id": "GHCND:CA007036855",
      "elevationUnit": "METERS",
      "longitude": -75.3333
    },
    {
      "elevation": 229,
      "mindate": "1973-07-01",
      "maxdate": "1976-09-30",
      "latitude": 45.95,
      "name": "ST EMILE DE SUFFOLK, CA",
      "datacoverage": 0.4356,
      "id": "GHCND:CA007037175",
      "elevationUnit": "METERS",
      "longitude": -74.9167
    },
    {
      "elevation": 366,
      "mindate": "1967-12-01",
      "maxdate": "1994-05-31",
      "latitude": 46.1167,
      "name": "ST FAUSTIN, CA",
      "datacoverage": 1,
      "id": "GHCND:CA007037230",
      "elevationUnit": "METERS",
      "longitude": -74.4833
    },
    {
      "elevation": 366,
      "mindate": "1961-02-01",
      "maxdate": "2024-03-30",
      "latitude": 45.9833,
      "name": "ST HIPPOLYTE, CA",
      "datacoverage": 0.9727,
      "id": "GHCND:CA007037310",
      "elevationUnit": "METERS",
      "longitude": -74
    },
    {
      "elevation": 170,
      "mindate": "1932-05-01",
      "maxdate": "2024-03-30",
      "latitude": 45.8,
      "name": "ST JEROME, CA",
      "datacoverage": 0.993,
      "id": "GHCND:CA007037400",
      "elevationUnit": "METERS",
      "longitude": -74.05
    },
    {
      "elevation": 186,
      "mindate": "1959-11-01",
      "maxdate": "1967-12-31",
      "latitude": 45.8833,
      "name": "SHAWBRIDGE BOYS FARM, CA",
      "datacoverage": 1,
      "id": "GHCND:CA007037985",
      "elevationUnit": "METERS",
      "longitude": -74.0667
    },
    {
      "elevation": 168,
      "mindate": "1948-10-01",
      "maxdate": "2012-10-31",
      "latitude": 45.6167,
      "name": "SHAWVILLE, CA",
      "datacoverage": 0.9532,
      "id": "GHCND:CA007038040",
      "elevationUnit": "METERS",
      "longitude": -76.4667
    },
    {
      "elevation": 166,
      "mindate": "1960-07-01",
      "maxdate": "1964-01-20",
      "latitude": 45.7667,
      "name": "SHAWVILLE WINSLOW, CA",
      "datacoverage": 0.9294,
      "id": "GHCND:CA007038046",
      "elevationUnit": "METERS",
      "longitude": -76.5
    },
    {
      "elevation": 137,
      "mindate": "1948-09-01",
      "maxdate": "2014-10-31",
      "latitude": 45.9667,
      "name": "SHEENBORO, CA",
      "datacoverage": 0.9433,
      "id": "GHCND:CA007038080",
      "elevationUnit": "METERS",
      "longitude": -77.25
    },
    {
      "elevation": 274,
      "mindate": "1963-01-01",
      "maxdate": "1977-06-08",
      "latitude": 46.9333,
      "name": "TAPINI FARM, CA",
      "datacoverage": 0.9945,
      "id": "GHCND:CA007038350",
      "elevationUnit": "METERS",
      "longitude": -75.1333
    },
    {
      "elevation": 55,
      "mindate": "1958-01-01",
      "maxdate": "1985-05-05",
      "latitude": 45.6,
      "name": "THURSO, CA",
      "datacoverage": 0.9727,
      "id": "GHCND:CA007038500",
      "elevationUnit": "METERS",
      "longitude": -75.2667
    },
    {
      "elevation": 198,
      "mindate": "1972-11-01",
      "maxdate": "1994-05-21",
      "latitude": 45.9,
      "name": "VAL DES BOIS, CA",
      "datacoverage": 0.9847,
      "id": "GHCND:CA007038587",
      "elevationUnit": "METERS",
      "longitude": -75.6
    },
    {
      "elevation": 152,
      "mindate": "1963-01-01",
      "maxdate": "1993-03-31",
      "latitude": 45.6,
      "name": "WAKEFIELD, CA",
      "datacoverage": 0.978,
      "id": "GHCND:CA007038835",
      "elevationUnit": "METERS",
      "longitude": -75.9
    },
    {
      "elevation": 113,
      "mindate": "1953-10-01",
      "maxdate": "1994-06-18",
      "latitude": 45.9167,
      "name": "WALTHAM, CA",
      "datacoverage": 0.9612,
      "id": "GHCND:CA007038880",
      "elevationUnit": "METERS",
      "longitude": -76.9167
    },
    {
      "elevation": 175,
      "mindate": "1945-09-01",
      "maxdate": "1962-06-30",
      "latitude": 45.7167,
      "name": "WILSONS CORNERS, CA",
      "datacoverage": 0.8913,
      "id": "GHCND:CA007038915",
      "elevationUnit": "METERS",
      "longitude": -75.7
    },
    {
      "elevation": 142,
      "mindate": "1967-10-01",
      "maxdate": "2024-03-30",
      "latitude": 46.0667,
      "name": "WRIGHT, CA",
      "datacoverage": 0.9982,
      "id": "GHCND:CA007038975",
      "elevationUnit": "METERS",
      "longitude": -76.05
    },
    {
      "elevation": 244,
      "mindate": "1972-12-01",
      "maxdate": "1994-04-24",
      "latitude": 46.0167,
      "name": "DUHAMEL, CA",
      "datacoverage": 0.9613,
      "id": "GHCND:CA00703BBD2",
      "elevationUnit": "METERS",
      "longitude": -75.0833
    },
    {
      "elevation": 396,
      "mindate": "1968-01-01",
      "maxdate": "1973-09-30",
      "latitude": 47.4167,
      "name": "LAC PARENT, CA",
      "datacoverage": 0.9421,
      "id": "GHCND:CA00703CFQD",
      "elevationUnit": "METERS",
      "longitude": -74.8667
    },
    {
      "elevation": 239,
      "mindate": "1994-07-01",
      "maxdate": "2024-04-28",
      "latitude": 46.0833,
      "name": "ST JOVITE, CA",
      "datacoverage": 0.9999,
      "id": "GHCND:CA00703GDKB",
      "elevationUnit": "METERS",
      "longitude": -74.55
    },
    {
      "elevation": 22,
      "mindate": "1947-06-01",
      "maxdate": "2005-01-20",
      "latitude": 49.1333,
      "name": "BAIE COMEAU A, CA",
      "datacoverage": 0.8222,
      "id": "GHCND:CA007040440",
      "elevationUnit": "METERS",
      "longitude": -68.2
    },
    {
      "elevation": 22,
      "mindate": "2005-01-01",
      "maxdate": "2024-04-28",
      "latitude": 49.1333,
      "name": "BAIE COMEAU A, CA",
      "datacoverage": 0.9037,
      "id": "GHCND:CA007040442",
      "elevationUnit": "METERS",
      "longitude": -68.2
    },
    {
      "elevation": 22,
      "mindate": "2010-11-01",
      "maxdate": "2024-04-28",
      "latitude": 49.1333,
      "name": "BAIE COMEAU, CA",
      "datacoverage": 1,
      "id": "GHCND:CA007040444",
      "elevationUnit": "METERS",
      "longitude": -68.2
    },
    {
      "elevation": 8,
      "mindate": "1958-09-01",
      "maxdate": "1966-12-31",
      "latitude": 49.2167,
      "name": "BAIE COMEAU CBA, CA",
      "datacoverage": 0.8699,
      "id": "GHCND:CA007040445",
      "elevationUnit": "METERS",
      "longitude": -68.15
    },
    {
      "elevation": 32,
      "mindate": "1963-01-01",
      "maxdate": "2004-04-30",
      "latitude": 47.4167,
      "name": "BAIE ST PAUL",
      "datacoverage": 0.9073,
      "id": "GHCND:CA007040446",
      "elevationUnit": "METERS",
      "longitude": -70.5
    },
    {
      "elevation": 84,
      "mindate": "1973-06-01",
      "maxdate": "1978-07-31",
      "latitude": 47.7,
      "name": "BARRIERE CLERMONT, CA",
      "datacoverage": 0.3871,
      "id": "GHCND:CA0070404PA",
      "elevationUnit": "METERS",
      "longitude": -70.2167
    },
    {
      "elevation": 46,
      "mindate": "1923-07-01",
      "maxdate": "1961-09-30",
      "latitude": 48.9667,
      "name": "BERSIMIS",
      "datacoverage": 0.8387,
      "id": "GHCND:CA007040680",
      "elevationUnit": "METERS",
      "longitude": -68.6167
    },
    {
      "elevation": 18,
      "mindate": "1973-06-01",
      "maxdate": "1973-09-30",
      "latitude": 48.95,
      "name": "BERSIMIS S, CA",
      "datacoverage": 1,
      "id": "GHCND:CA007040690",
      "elevationUnit": "METERS",
      "longitude": -68.65
    },
    {
      "elevation": 8,
      "mindate": "1965-09-01",
      "maxdate": "1975-10-30",
      "latitude": 51.4167,
      "name": "BLANC SABLON, CA",
      "datacoverage": 0.9919,
      "id": "GHCND:CA007040811",
      "elevationUnit": "METERS",
      "longitude": -57.2
    },
    {
      "elevation": 19,
      "mindate": "1967-08-01",
      "maxdate": "1982-07-31",
      "latitude": 51.4167,
      "name": "BLANC SABLON",
      "datacoverage": 1,
      "id": "GHCND:CA007040812",
      "elevationUnit": "METERS",
      "longitude": -57.2167
    },
    {
      "elevation": 37,
      "mindate": "1982-08-01",
      "maxdate": "2014-12-03",
      "latitude": 51.45,
      "name": "BLANC SABLON A, CA",
      "datacoverage": 0.9999,
      "id": "GHCND:CA007040813",
      "elevationUnit": "METERS",
      "longitude": -57.1833
    }
  ]
}
