{
  "metadata": {
    "resultset": {
      "offset": 100300,
      "count": 154115,
      "limit": 100
    }
  },
  "results": [
    {
      "elevation": 987.9,
      "mindate": "2011-06-01",
      "maxdate": "2016-06-08",
      "latitude": 46.443192,
      "name": "ROUNDUP 0.5 SW CLOSED, MT US",
      "datacoverage": 0.6542,
      "id": "GHCND:US1MTMH0015",
      "elevationUnit": "METERS",
      "longitude": -108.546109
    },
    {
      "elevation": 1081.1,
      "mindate": "2011-11-01",
      "maxdate": "2021-11-03",
      "latitude": 46.42725,
      "name": "ROUNDUP 2.8 ESE, MT US",
      "datacoverage": 0.9435,
      "id": "GHCND:US1MTMH0016",
      "elevationUnit": "METERS",
      "longitude": -108.4892333
    },
    {
      "elevation": 1072.3,
      "mindate": "2013-01-01",
      "maxdate": "2025-03-07",
      "latitude": 46.3499450683594,
      "name": "ROUNDUP 7.4 SSE, MT US",
      "datacoverage": 1,
      "id": "GHCND:US1MTMH0017",
      "elevationUnit": "METERS",
      "longitude": -108.479972839355
    },
    {
      "elevation": 1011.6,
      "mindate": "2013-01-01",
      "maxdate": "2025-03-07",
      "latitude": 46.4713527777778,
      "name": "ROUNDUP 1.8 NNE, MT US",
      "datacoverage": 1,
      "id": "GHCND:US1MTMH0018",
      "elevationUnit": "METERS",
      "longitude": -108.520797222222
    },
    {
      "elevation": 1095.5,
      "mindate": "2013-10-01",
      "maxdate": "2024-06-18",
      "latitude": 46.415693,
      "name": "ROUNDUP 3.3 SE, MT US",
      "datacoverage": 1,
      "id": "GHCND:US1MTMH0019",
      "elevationUnit": "METERS",
      "longitude": -108.488483
    },
    {
      "elevation": 993.6,
      "mindate": "2014-07-01",
      "maxdate": "2025-02-18",
      "latitude": 46.487686,
      "name": "ROUNDUP 3.0 NNE, MT US",
      "datacoverage": 0.9987,
      "id": "GHCND:US1MTMH0020",
      "elevationUnit": "METERS",
      "longitude": -108.513479
    },
    {
      "elevation": 1102.5,
      "mindate": "2014-08-25",
      "maxdate": "2020-11-01",
      "latitude": 46.37657,
      "name": "ROUNDUP 7.2 SE CLOSED, MT US",
      "datacoverage": 0.5263,
      "id": "GHCND:US1MTMH0021",
      "elevationUnit": "METERS",
      "longitude": -108.428528
    },
    {
      "elevation": 1163.1,
      "mindate": "2018-06-16",
      "maxdate": "2024-12-30",
      "latitude": 46.360565,
      "name": "ROUNDUP 7.3 SE, MT US",
      "datacoverage": 0.4243,
      "id": "GHCND:US1MTMH0022",
      "elevationUnit": "METERS",
      "longitude": -108.453815
    },
    {
      "elevation": 997.3,
      "mindate": "2020-11-01",
      "maxdate": "2025-03-07",
      "latitude": 46.453066,
      "name": "ROUNDUP 0.6 NW, MT US",
      "datacoverage": 1,
      "id": "GHCND:US1MTMH0023",
      "elevationUnit": "METERS",
      "longitude": -108.548267
    },
    {
      "elevation": 1225.3,
      "mindate": "2024-03-24",
      "maxdate": "2025-03-04",
      "latitude": 46.24933,
      "name": "ROUNDUP 13.9 S, MT US",
      "datacoverage": 0.9538,
      "id": "GHCND:US1MTMH0024",
      "elevationUnit": "METERS",
      "longitude": -108.49533
    },
    {
      "elevation": 1303,
      "mindate": "2007-01-01",
      "maxdate": "2015-03-15",
      "latitude": 47.072361,
      "name": "EVARO 2.7 NNE, MT US",
      "datacoverage": 0.96,
      "id": "GHCND:US1MTMS0001",
      "elevationUnit": "METERS",
      "longitude": -114.079778
    },
    {
      "elevation": 1074.1,
      "mindate": "2007-03-01",
      "maxdate": "2007-06-23",
      "latitude": 46.8133,
      "name": "CLINTON 5.0 WNW, MT US",
      "datacoverage": 1,
      "id": "GHCND:US1MTMS0004",
      "elevationUnit": "METERS",
      "longitude": -113.78333
    },
    {
      "elevation": 976.9,
      "mindate": "2007-03-01",
      "maxdate": "2008-11-14",
      "latitude": 46.864,
      "name": "MISSOULA 3.0 SSW, MT US",
      "datacoverage": 0.9925,
      "id": "GHCND:US1MTMS0006",
      "elevationUnit": "METERS",
      "longitude": -113.9733
    },
    {
      "elevation": 1088.7,
      "mindate": "2007-03-01",
      "maxdate": "2009-10-03",
      "latitude": 46.815415,
      "name": "MISSOULA 5.9 SW, MT US",
      "datacoverage": 0.8271,
      "id": "GHCND:US1MTMS0007",
      "elevationUnit": "METERS",
      "longitude": -114.104391
    },
    {
      "elevation": 1293,
      "mindate": "2001-09-01",
      "maxdate": "2022-08-21",
      "latitude": 47.0421,
      "name": "EVARO .74 NNW, MT US",
      "datacoverage": 1,
      "id": "GHCND:US1MTMS0009",
      "elevationUnit": "METERS",
      "longitude": -114.0968
    },
    {
      "elevation": 1071.1,
      "mindate": "2007-03-01",
      "maxdate": "2013-01-27",
      "latitude": 46.829852,
      "name": "MISSOULA 2.7 S, MT US",
      "datacoverage": 0.9986,
      "id": "GHCND:US1MTMS0010",
      "elevationUnit": "METERS",
      "longitude": -114.003539
    },
    {
      "elevation": 1040.9,
      "mindate": "2007-03-01",
      "maxdate": "2012-05-22",
      "latitude": 46.894562,
      "name": "MISSOULA 2.8 NE, MT US",
      "datacoverage": 0.998,
      "id": "GHCND:US1MTMS0011",
      "elevationUnit": "METERS",
      "longitude": -113.96221
    },
    {
      "elevation": 1082,
      "mindate": "2007-03-01",
      "maxdate": "2025-03-06",
      "latitude": 46.939187,
      "name": "MISSOULA 4.9 N, MT US",
      "datacoverage": 0.9996,
      "id": "GHCND:US1MTMS0012",
      "elevationUnit": "METERS",
      "longitude": -114.019368
    },
    {
      "elevation": 1360.9,
      "mindate": "2007-04-01",
      "maxdate": "2020-06-02",
      "latitude": 47.041667,
      "name": "MISSOULA 13.0 NNW, MT US",
      "datacoverage": 0.9961,
      "id": "GHCND:US1MTMS0013",
      "elevationUnit": "METERS",
      "longitude": -114.116667
    },
    {
      "elevation": 949.1,
      "mindate": "2007-05-01",
      "maxdate": "2025-03-07",
      "latitude": 46.858614,
      "name": "MISSOULA 4.4 W, MT US",
      "datacoverage": 0.9996,
      "id": "GHCND:US1MTMS0014",
      "elevationUnit": "METERS",
      "longitude": -114.099702
    },
    {
      "elevation": 1239.9,
      "mindate": "2007-11-01",
      "maxdate": "2023-10-13",
      "latitude": 47.1784,
      "name": "SEELEY LAKE 0.3 ESE, MT US",
      "datacoverage": 0.9704,
      "id": "GHCND:US1MTMS0016",
      "elevationUnit": "METERS",
      "longitude": -113.478
    },
    {
      "elevation": 1127.8,
      "mindate": "1998-06-01",
      "maxdate": "2019-05-10",
      "latitude": 46.946066,
      "name": "GREENOUGH 2.0 NNE, MT US",
      "datacoverage": 0.4704,
      "id": "GHCND:US1MTMS0017",
      "elevationUnit": "METERS",
      "longitude": -113.429641
    },
    {
      "elevation": 1270.1,
      "mindate": "2008-06-01",
      "maxdate": "2023-12-01",
      "latitude": 47.1753,
      "name": "SEELEY LAKE 2.3 ESE, MT US",
      "datacoverage": 0.9894,
      "id": "GHCND:US1MTMS0018",
      "elevationUnit": "METERS",
      "longitude": -113.43705
    },
    {
      "elevation": 996.7,
      "mindate": "2010-01-01",
      "maxdate": "2016-01-22",
      "latitude": 46.882189,
      "name": "MISSOULA 5.0 E, MT US",
      "datacoverage": 1,
      "id": "GHCND:US1MTMS0019",
      "elevationUnit": "METERS",
      "longitude": -113.904431
    },
    {
      "elevation": 1163.7,
      "mindate": "2012-12-01",
      "maxdate": "2017-03-29",
      "latitude": 46.872975,
      "name": "BONNER 0.0 SW, MT US",
      "datacoverage": 1,
      "id": "GHCND:US1MTMS0020",
      "elevationUnit": "METERS",
      "longitude": -113.86383
    },
    {
      "elevation": 1045.8,
      "mindate": "2015-04-01",
      "maxdate": "2022-08-27",
      "latitude": 46.7888,
      "name": "BONNER WEST RIVERSIDE 9.4 SE, MT US",
      "datacoverage": 0.998,
      "id": "GHCND:US1MTMS0022",
      "elevationUnit": "METERS",
      "longitude": -113.737
    },
    {
      "elevation": 1014.1,
      "mindate": "2016-01-16",
      "maxdate": "2025-03-07",
      "latitude": 46.8371,
      "name": "BONNER WEST RIVERSIDE 4.0 SE, MT US",
      "datacoverage": 1,
      "id": "GHCND:US1MTMS0023",
      "elevationUnit": "METERS",
      "longitude": -113.8279
    },
    {
      "elevation": 979.9,
      "mindate": "2016-09-13",
      "maxdate": "2017-05-18",
      "latitude": 46.850342,
      "name": "MISSOULA 1.6 SE, MT US",
      "datacoverage": 0.7581,
      "id": "GHCND:US1MTMS0024",
      "elevationUnit": "METERS",
      "longitude": -113.988276
    },
    {
      "elevation": 1280.2,
      "mindate": "2017-03-28",
      "maxdate": "2025-03-07",
      "latitude": 47.177859,
      "name": "SEELEY LAKE 1.2 E, MT US",
      "datacoverage": 0.9873,
      "id": "GHCND:US1MTMS0026",
      "elevationUnit": "METERS",
      "longitude": -113.459935
    },
    {
      "elevation": 1180.5,
      "mindate": "1998-06-21",
      "maxdate": "2023-02-01",
      "latitude": 47.4988039,
      "name": "CONDON 2.4 SE, MT US",
      "datacoverage": 0.8856,
      "id": "GHCND:US1MTMS0027",
      "elevationUnit": "METERS",
      "longitude": -113.6800436
    },
    {
      "elevation": 955.5,
      "mindate": "2019-09-27",
      "maxdate": "2021-08-31",
      "latitude": 46.868158,
      "name": "MISSOULA 2.7 W, MT US",
      "datacoverage": 0.9987,
      "id": "GHCND:US1MTMS0030",
      "elevationUnit": "METERS",
      "longitude": -114.06674
    },
    {
      "elevation": 962.6,
      "mindate": "2020-04-15",
      "maxdate": "2025-03-04",
      "latitude": 46.874746,
      "name": "MISSOULA 1.3 WNW, MT US",
      "datacoverage": 0.1569,
      "id": "GHCND:US1MTMS0032",
      "elevationUnit": "METERS",
      "longitude": -114.033982
    },
    {
      "elevation": 1106.4,
      "mindate": "2021-09-20",
      "maxdate": "2025-03-05",
      "latitude": 46.81467,
      "name": "MISSOULA 3.8 SSW, MT US",
      "datacoverage": 0.8543,
      "id": "GHCND:US1MTMS0033",
      "elevationUnit": "METERS",
      "longitude": -114.02631
    },
    {
      "elevation": 1171.3,
      "mindate": "2023-06-11",
      "maxdate": "2025-02-25",
      "latitude": 46.610273,
      "name": "CLINTON 11.1 SSE, MT US",
      "datacoverage": 0.5735,
      "id": "GHCND:US1MTMS0034",
      "elevationUnit": "METERS",
      "longitude": -113.652354
    },
    {
      "elevation": 983,
      "mindate": "2024-05-27",
      "maxdate": "2024-12-12",
      "latitude": 46.86491,
      "name": "MISSOULA 2.9 E, MT US",
      "datacoverage": 0.9925,
      "id": "GHCND:US1MTMS0036",
      "elevationUnit": "METERS",
      "longitude": -113.9464
    },
    {
      "elevation": 923.5,
      "mindate": "1998-06-01",
      "maxdate": "2025-02-15",
      "latitude": 47.776272,
      "name": "ZORTMAN 10.0 SSW, MT US",
      "datacoverage": 0.7001,
      "id": "GHCND:US1MTPH0001",
      "elevationUnit": "METERS",
      "longitude": -108.558411
    },
    {
      "elevation": 665.1,
      "mindate": "2008-10-01",
      "maxdate": "2011-10-04",
      "latitude": 48.458798,
      "name": "SACO 0.2 NW, MT US",
      "datacoverage": 1,
      "id": "GHCND:US1MTPH0002",
      "elevationUnit": "METERS",
      "longitude": -107.344022
    },
    {
      "elevation": 1381.4,
      "mindate": "2007-02-01",
      "maxdate": "2022-12-30",
      "latitude": 45.63011,
      "name": "LIVINGSTON 2.3 SSW, MT US",
      "datacoverage": 0.9912,
      "id": "GHCND:US1MTPK0001",
      "elevationUnit": "METERS",
      "longitude": -110.579768
    },
    {
      "elevation": 1465.5,
      "mindate": "2007-02-01",
      "maxdate": "2019-04-10",
      "latitude": 45.4608,
      "name": "LIVINGSTON 14.0 S, MT US",
      "datacoverage": 0.9003,
      "id": "GHCND:US1MTPK0002",
      "elevationUnit": "METERS",
      "longitude": -110.595
    },
    {
      "elevation": 1377.1,
      "mindate": "2007-05-01",
      "maxdate": "2018-09-30",
      "latitude": 45.658102,
      "name": "LIVINGSTON 0.4 SSW, MT US",
      "datacoverage": 0.9996,
      "id": "GHCND:US1MTPK0004",
      "elevationUnit": "METERS",
      "longitude": -110.565721
    },
    {
      "elevation": 1554.5,
      "mindate": "2007-05-01",
      "maxdate": "2025-03-07",
      "latitude": 45.997345,
      "name": "WILSALL 0.3 NW, MT US",
      "datacoverage": 0.9996,
      "id": "GHCND:US1MTPK0005",
      "elevationUnit": "METERS",
      "longitude": -110.662224
    },
    {
      "elevation": 1677.9,
      "mindate": "2007-10-01",
      "maxdate": "2025-03-07",
      "latitude": 45.635694,
      "name": "LIVINGSTON 6.6 ESE, MT US",
      "datacoverage": 1,
      "id": "GHCND:US1MTPK0007",
      "elevationUnit": "METERS",
      "longitude": -110.433056
    },
    {
      "elevation": 1477.1,
      "mindate": "2009-06-01",
      "maxdate": "2015-09-28",
      "latitude": 45.4022,
      "name": "PRAY 1.7 NW CLOSED, MT US",
      "datacoverage": 0.9819,
      "id": "GHCND:US1MTPK0009",
      "elevationUnit": "METERS",
      "longitude": -110.7002
    },
    {
      "elevation": 1597.2,
      "mindate": "2009-11-01",
      "maxdate": "2018-09-03",
      "latitude": 45.494323,
      "name": "MCLEOD 12.8 SW CLOSED, MT US",
      "datacoverage": 1,
      "id": "GHCND:US1MTPK0010",
      "elevationUnit": "METERS",
      "longitude": -110.224961
    },
    {
      "elevation": 1553.9,
      "mindate": "2011-07-01",
      "maxdate": "2019-10-23",
      "latitude": 45.37,
      "name": "LIVINGSTON 20.8 SSW, MT US",
      "datacoverage": 0.9994,
      "id": "GHCND:US1MTPK0012",
      "elevationUnit": "METERS",
      "longitude": -110.66
    },
    {
      "elevation": 1537.7,
      "mindate": "2011-12-01",
      "maxdate": "2014-10-12",
      "latitude": 45.265803,
      "name": "EMIGRANT 9.2 SW CLOSED, MT US",
      "datacoverage": 0.9137,
      "id": "GHCND:US1MTPK0013",
      "elevationUnit": "METERS",
      "longitude": -110.849876
    },
    {
      "elevation": 1403.6,
      "mindate": "2012-01-01",
      "maxdate": "2025-03-06",
      "latitude": 45.658,
      "name": "LIVINGSTON 0.9 WSW, MT US",
      "datacoverage": 1,
      "id": "GHCND:US1MTPK0014",
      "elevationUnit": "METERS",
      "longitude": -110.5817
    },
    {
      "elevation": 1673,
      "mindate": "2016-02-01",
      "maxdate": "2019-12-04",
      "latitude": 45.318671,
      "name": "PRAY 4.4 SSW, MT US",
      "datacoverage": 0.9102,
      "id": "GHCND:US1MTPK0017",
      "elevationUnit": "METERS",
      "longitude": -110.709775
    },
    {
      "elevation": 1618.8,
      "mindate": "2022-04-12",
      "maxdate": "2023-05-09",
      "latitude": 45.037517,
      "name": "GARDINER 0.7 NW, MT US",
      "datacoverage": 0.9947,
      "id": "GHCND:US1MTPK0018",
      "elevationUnit": "METERS",
      "longitude": -110.717059
    },
    {
      "elevation": 1061.9,
      "mindate": "2007-05-01",
      "maxdate": "2025-03-01",
      "latitude": 45.66932,
      "name": "BROADUS 18.8 NNW, MT US",
      "datacoverage": 1,
      "id": "GHCND:US1MTPR0001",
      "elevationUnit": "METERS",
      "longitude": -105.62355
    },
    {
      "elevation": 1087.2,
      "mindate": "2008-01-01",
      "maxdate": "2023-12-10",
      "latitude": 45.667811,
      "name": "VOLBORG 18 SW, MT US",
      "datacoverage": 1,
      "id": "GHCND:US1MTPR0002",
      "elevationUnit": "METERS",
      "longitude": -105.899022
    },
    {
      "elevation": 1048.5,
      "mindate": "2007-06-01",
      "maxdate": "2024-06-01",
      "latitude": 45.60923,
      "name": "ASHLAND 11.9 E, MT US",
      "datacoverage": 0.9715,
      "id": "GHCND:US1MTPR0003",
      "elevationUnit": "METERS",
      "longitude": -106.068111
    },
    {
      "elevation": 986.9,
      "mindate": "2009-05-01",
      "maxdate": "2022-02-06",
      "latitude": 45.296422,
      "name": "BROADUS 12.6 SW, MT US",
      "datacoverage": 0.9877,
      "id": "GHCND:US1MTPR0004",
      "elevationUnit": "METERS",
      "longitude": -105.561994
    },
    {
      "elevation": 1051,
      "mindate": "2009-10-01",
      "maxdate": "2025-03-04",
      "latitude": 45.290982,
      "name": "BOYES 1.7 NNE, MT US",
      "datacoverage": 1,
      "id": "GHCND:US1MTPR0005",
      "elevationUnit": "METERS",
      "longitude": -105.021266
    },
    {
      "elevation": 972.9,
      "mindate": "2009-10-01",
      "maxdate": "2025-03-07",
      "latitude": 45.587,
      "name": "ASHLAND 9.7 ESE, MT US",
      "datacoverage": 1,
      "id": "GHCND:US1MTPR0006",
      "elevationUnit": "METERS",
      "longitude": -106.121167
    },
    {
      "elevation": 956.8,
      "mindate": "2009-11-01",
      "maxdate": "2025-03-06",
      "latitude": 45.273117,
      "name": "BROADUS 12.3 SSE, MT US",
      "datacoverage": 1,
      "id": "GHCND:US1MTPR0007",
      "elevationUnit": "METERS",
      "longitude": -105.32805
    },
    {
      "elevation": 1069.8,
      "mindate": "2011-03-01",
      "maxdate": "2022-07-25",
      "latitude": 45.44,
      "name": "BROADUS 9.8 W, MT US",
      "datacoverage": 0.9993,
      "id": "GHCND:US1MTPR0009",
      "elevationUnit": "METERS",
      "longitude": -105.61
    },
    {
      "elevation": 1013.2,
      "mindate": "2012-02-01",
      "maxdate": "2020-03-24",
      "latitude": 45.677441,
      "name": "BROADUS 17.7 NNW, MT US",
      "datacoverage": 1,
      "id": "GHCND:US1MTPR0011",
      "elevationUnit": "METERS",
      "longitude": -105.555345
    },
    {
      "elevation": 921.1,
      "mindate": "2012-05-01",
      "maxdate": "2015-02-07",
      "latitude": 45.45693,
      "name": "BROADUS 3.6 ENE CLOSED, MT US",
      "datacoverage": 1,
      "id": "GHCND:US1MTPR0012",
      "elevationUnit": "METERS",
      "longitude": -105.335965
    },
    {
      "elevation": 996.4,
      "mindate": "1998-06-17",
      "maxdate": "2025-01-01",
      "latitude": 45.6333,
      "name": "VOLBORG 15.1 SSW, MT US",
      "datacoverage": 0.9994,
      "id": "GHCND:US1MTPR0014",
      "elevationUnit": "METERS",
      "longitude": -105.766
    },
    {
      "elevation": 1127.5,
      "mindate": "2000-07-03",
      "maxdate": "2025-03-07",
      "latitude": 45.6561381,
      "name": "VOLBORG 17.7 SW, MT US",
      "datacoverage": 1,
      "id": "GHCND:US1MTPR0016",
      "elevationUnit": "METERS",
      "longitude": -105.9339524
    },
    {
      "elevation": 1007.7,
      "mindate": "2022-04-12",
      "maxdate": "2024-07-07",
      "latitude": 45.281474,
      "name": "ASHLAND 25.0 SSE, MT US",
      "datacoverage": 0.1491,
      "id": "GHCND:US1MTPR0018",
      "elevationUnit": "METERS",
      "longitude": -106.147315
    },
    {
      "elevation": 896.7,
      "mindate": "2010-06-01",
      "maxdate": "2010-12-20",
      "latitude": 47.004862,
      "name": "WINNETT 3.3 E, MT US",
      "datacoverage": 0.9956,
      "id": "GHCND:US1MTPT0001",
      "elevationUnit": "METERS",
      "longitude": -108.276941
    },
    {
      "elevation": 1162.5,
      "mindate": "2014-06-27",
      "maxdate": "2024-10-17",
      "latitude": 46.7408126592636,
      "name": "WINNETT 21.6 SSW, MT US",
      "datacoverage": 0.0863,
      "id": "GHCND:US1MTPT0002",
      "elevationUnit": "METERS",
      "longitude": -108.591584265232
    },
    {
      "elevation": 1385,
      "mindate": "2007-12-01",
      "maxdate": "2010-06-16",
      "latitude": 46.4095,
      "name": "DEER LODGE 0.9 NNE, MT US",
      "datacoverage": 0.9819,
      "id": "GHCND:US1MTPW0002",
      "elevationUnit": "METERS",
      "longitude": -112.7245
    },
    {
      "elevation": 1236.6,
      "mindate": "2008-08-01",
      "maxdate": "2025-03-05",
      "latitude": 46.99372,
      "name": "OVANDO 2.9 SW, MT US",
      "datacoverage": 1,
      "id": "GHCND:US1MTPW0003",
      "elevationUnit": "METERS",
      "longitude": -113.17423
    },
    {
      "elevation": 989.1,
      "mindate": "1998-06-01",
      "maxdate": "2018-04-09",
      "latitude": 45.90202,
      "name": "COLSTRIP 0.6 NE CLOSED, MT US",
      "datacoverage": 0.5518,
      "id": "GHCND:US1MTRB0001",
      "elevationUnit": "METERS",
      "longitude": -106.625708
    },
    {
      "elevation": 1019.6,
      "mindate": "2008-03-01",
      "maxdate": "2013-02-26",
      "latitude": 45.6344299316406,
      "name": "LAME DEER 3.0 E CLOSED, MT US",
      "datacoverage": 1,
      "id": "GHCND:US1MTRB0002",
      "elevationUnit": "METERS",
      "longitude": -106.615440368652
    },
    {
      "elevation": 767.8,
      "mindate": "2008-06-01",
      "maxdate": "2012-04-29",
      "latitude": 46.263848,
      "name": "FORSYTH 0.6 WSW CLOSED, MT US",
      "datacoverage": 0.298,
      "id": "GHCND:US1MTRB0003",
      "elevationUnit": "METERS",
      "longitude": -106.689619
    },
    {
      "elevation": 786.7,
      "mindate": "2010-03-01",
      "maxdate": "2015-06-22",
      "latitude": 46.272819,
      "name": "FORSYTH 1.5 ENE CLOSED, MT US",
      "datacoverage": 1,
      "id": "GHCND:US1MTRB0006",
      "elevationUnit": "METERS",
      "longitude": -106.647085
    },
    {
      "elevation": 1103.4,
      "mindate": "2010-09-01",
      "maxdate": "2013-05-25",
      "latitude": 45.3402,
      "name": "LAME DEER 1.9 E CLOSED, MT US",
      "datacoverage": 1,
      "id": "GHCND:US1MTRB0007",
      "elevationUnit": "METERS",
      "longitude": -106.3713
    },
    {
      "elevation": 963.2,
      "mindate": "2010-10-01",
      "maxdate": "2018-04-09",
      "latitude": 46.544606,
      "name": "MELSTONE 6.3 SE CLOSED, MT US",
      "datacoverage": 0.4443,
      "id": "GHCND:US1MTRB0008",
      "elevationUnit": "METERS",
      "longitude": -107.762747
    },
    {
      "elevation": 992.7,
      "mindate": "2010-10-01",
      "maxdate": "2024-12-30",
      "latitude": 46.58939,
      "name": "MELSTONE 5.7 E, MT US",
      "datacoverage": 0.9999,
      "id": "GHCND:US1MTRB0009",
      "elevationUnit": "METERS",
      "longitude": -107.7488
    },
    {
      "elevation": 780.6,
      "mindate": "2018-06-17",
      "maxdate": "2021-10-26",
      "latitude": 46.270415,
      "name": "FORSYTH 1.2 ENE, MT US",
      "datacoverage": 0.0977,
      "id": "GHCND:US1MTRB0014",
      "elevationUnit": "METERS",
      "longitude": -106.653095
    },
    {
      "elevation": 604.7,
      "mindate": "2007-04-01",
      "maxdate": "2025-02-26",
      "latitude": 47.445,
      "name": "SAVAGE 1.0 S, MT US",
      "datacoverage": 0.9257,
      "id": "GHCND:US1MTRC0001",
      "elevationUnit": "METERS",
      "longitude": -104.3454
    },
    {
      "elevation": 584,
      "mindate": "2007-05-01",
      "maxdate": "2012-09-08",
      "latitude": 47.757466,
      "name": "SIDNEY 3.5 NNE, MT US",
      "datacoverage": 0.9992,
      "id": "GHCND:US1MTRC0002",
      "elevationUnit": "METERS",
      "longitude": -104.12715
    },
    {
      "elevation": 717.2,
      "mindate": "2011-05-01",
      "maxdate": "2012-05-11",
      "latitude": 47.98,
      "name": "CULBERTSON 13.4 SSE, MT US",
      "datacoverage": 0.9967,
      "id": "GHCND:US1MTRC0003",
      "elevationUnit": "METERS",
      "longitude": -104.37
    },
    {
      "elevation": 617.5,
      "mindate": "2007-05-01",
      "maxdate": "2024-11-19",
      "latitude": 48.337585,
      "name": "FROID 0.1N, MT US",
      "datacoverage": 0.6446,
      "id": "GHCND:US1MTRT0002",
      "elevationUnit": "METERS",
      "longitude": -104.494126
    },
    {
      "elevation": 645.9,
      "mindate": "2008-05-01",
      "maxdate": "2025-03-07",
      "latitude": 48.316878,
      "name": "BROCKTON 11.6 N, MT US",
      "datacoverage": 0.9998,
      "id": "GHCND:US1MTRT0003",
      "elevationUnit": "METERS",
      "longitude": -104.910549
    },
    {
      "elevation": 674.8,
      "mindate": "1998-06-17",
      "maxdate": "2025-03-04",
      "latitude": 48.403702,
      "name": "POPLAR 20.4 N, MT US",
      "datacoverage": 0.9994,
      "id": "GHCND:US1MTRT0005",
      "elevationUnit": "METERS",
      "longitude": -105.150028
    },
    {
      "elevation": 1247.9,
      "mindate": "2007-03-01",
      "maxdate": "2009-12-15",
      "latitude": 46.1244,
      "name": "HAMILTON 8.8 SSW, MT US",
      "datacoverage": 0.998,
      "id": "GHCND:US1MTRV0001",
      "elevationUnit": "METERS",
      "longitude": -114.2172
    },
    {
      "elevation": 1085.1,
      "mindate": "2007-03-01",
      "maxdate": "2025-03-06",
      "latitude": 46.60683,
      "name": "FLORENCE 3.7 SE, MT US",
      "datacoverage": 0.9996,
      "id": "GHCND:US1MTRV0005",
      "elevationUnit": "METERS",
      "longitude": -114.0124
    },
    {
      "elevation": 1129,
      "mindate": "2007-05-01",
      "maxdate": "2008-12-13",
      "latitude": 46.23509,
      "name": "HAMILTON 2.0 SE, MT US",
      "datacoverage": 0.9465,
      "id": "GHCND:US1MTRV0006",
      "elevationUnit": "METERS",
      "longitude": -114.127851
    },
    {
      "elevation": 1305.2,
      "mindate": "2007-05-01",
      "maxdate": "2021-03-03",
      "latitude": 46.320898,
      "name": "CORVALLIS 4.2 ENE, MT US",
      "datacoverage": 1,
      "id": "GHCND:US1MTRV0007",
      "elevationUnit": "METERS",
      "longitude": -114.025166
    },
    {
      "elevation": 1093.6,
      "mindate": "2009-08-01",
      "maxdate": "2015-12-08",
      "latitude": 46.23479,
      "name": "HAMILTON 1.2 SSE, MT US",
      "datacoverage": 0.909,
      "id": "GHCND:US1MTRV0008",
      "elevationUnit": "METERS",
      "longitude": -114.15626
    },
    {
      "elevation": 1075.9,
      "mindate": "2010-06-01",
      "maxdate": "2024-11-18",
      "latitude": 46.427776,
      "name": "STEVENSVILLE 5.7 SSE, MT US",
      "datacoverage": 0.8427,
      "id": "GHCND:US1MTRV0009",
      "elevationUnit": "METERS",
      "longitude": -114.058279
    },
    {
      "elevation": 1051.6,
      "mindate": "2013-12-01",
      "maxdate": "2023-12-15",
      "latitude": 46.4723747,
      "name": "VICTOR 3.9 N, MT US",
      "datacoverage": 1,
      "id": "GHCND:US1MTRV0010",
      "elevationUnit": "METERS",
      "longitude": -114.1463235
    },
    {
      "elevation": 1120.1,
      "mindate": "2018-07-01",
      "maxdate": "2025-02-26",
      "latitude": 46.376798,
      "name": "VICTOR 5.4 SE, MT US",
      "datacoverage": 0.5878,
      "id": "GHCND:US1MTRV0015",
      "elevationUnit": "METERS",
      "longitude": -114.055246
    },
    {
      "elevation": 1194.2,
      "mindate": "2019-08-01",
      "maxdate": "2025-03-07",
      "latitude": 46.216,
      "name": "HAMILTON 3.7 SE, MT US",
      "datacoverage": 1,
      "id": "GHCND:US1MTRV0016",
      "elevationUnit": "METERS",
      "longitude": -114.1039
    },
    {
      "elevation": 1001.3,
      "mindate": "2021-08-20",
      "maxdate": "2024-09-18",
      "latitude": 46.62845,
      "name": "FLORENCE 1.8 ESE, MT US",
      "datacoverage": 0.6617,
      "id": "GHCND:US1MTRV0017",
      "elevationUnit": "METERS",
      "longitude": -114.041496
    },
    {
      "elevation": 1283.8,
      "mindate": "2022-08-01",
      "maxdate": "2025-03-07",
      "latitude": 46.12578,
      "name": "HAMILTON 9.2 SSW, MT US",
      "datacoverage": 0.9537,
      "id": "GHCND:US1MTRV0018",
      "elevationUnit": "METERS",
      "longitude": -114.22318
    },
    {
      "elevation": 1249.1,
      "mindate": "2008-10-01",
      "maxdate": "2022-01-17",
      "latitude": 45.832963,
      "name": "BIG TIMBER 0.3 ESE, MT US",
      "datacoverage": 1,
      "id": "GHCND:US1MTSG0001",
      "elevationUnit": "METERS",
      "longitude": -109.944964
    },
    {
      "elevation": 1240.2,
      "mindate": "2008-11-01",
      "maxdate": "2011-07-04",
      "latitude": 45.764326,
      "name": "BIG TIMBER 6.5 SE CLOSED, MT US",
      "datacoverage": 0.6676,
      "id": "GHCND:US1MTSG0002",
      "elevationUnit": "METERS",
      "longitude": -109.858504
    },
    {
      "elevation": 1331.1,
      "mindate": "2008-11-01",
      "maxdate": "2021-01-30",
      "latitude": 45.719116,
      "name": "BIG TIMBER 8.2 SSE, MT US",
      "datacoverage": 0.9104,
      "id": "GHCND:US1MTSG0003",
      "elevationUnit": "METERS",
      "longitude": -109.90895
    },
    {
      "elevation": 1437.7,
      "mindate": "2008-11-01",
      "maxdate": "2012-07-01",
      "latitude": 45.972343,
      "name": "BIG TIMBER 9.8 NNW CLOSED, MT US",
      "datacoverage": 1,
      "id": "GHCND:US1MTSG0004",
      "elevationUnit": "METERS",
      "longitude": -110.000239
    },
    {
      "elevation": 1247.2,
      "mindate": "2009-11-01",
      "maxdate": "2016-05-16",
      "latitude": 45.6907,
      "name": "REED POINT 8.6 WSW CLOSED, MT US",
      "datacoverage": 0.9999,
      "id": "GHCND:US1MTSG0005",
      "elevationUnit": "METERS",
      "longitude": -109.7172633
    },
    {
      "elevation": 1740.4,
      "mindate": "2009-11-01",
      "maxdate": "2020-10-18",
      "latitude": 45.810253,
      "name": "BIG TIMBER 4.1 ESE, MT US",
      "datacoverage": 0.8846,
      "id": "GHCND:US1MTSG0006",
      "elevationUnit": "METERS",
      "longitude": -109.873597
    },
    {
      "elevation": 1244.8,
      "mindate": "2010-06-01",
      "maxdate": "2016-12-13",
      "latitude": 45.8340792,
      "name": "BIG TIMBER 0.5 E CLOSED, MT US",
      "datacoverage": 0.9995,
      "id": "GHCND:US1MTSG0007",
      "elevationUnit": "METERS",
      "longitude": -109.9409942
    },
    {
      "elevation": 1532.8,
      "mindate": "2011-11-01",
      "maxdate": "2017-03-09",
      "latitude": 46.104078,
      "name": "MELVILLE 0.3 W CLOSED, MT US",
      "datacoverage": 0.905,
      "id": "GHCND:US1MTSG0008",
      "elevationUnit": "METERS",
      "longitude": -109.9568865
    },
    {
      "elevation": 1415.2,
      "mindate": "2012-01-01",
      "maxdate": "2025-03-04",
      "latitude": 46.1720789,
      "name": "MELVILLE 10.1 ENE, MT US",
      "datacoverage": 1,
      "id": "GHCND:US1MTSG0009",
      "elevationUnit": "METERS",
      "longitude": -109.768704
    }
  ]
}
