{
  "metadata": {
    "resultset": {
      "offset": 46800,
      "count": 154115,
      "limit": 100
    }
  },
  "results": [
    {
      "elevation": 335,
      "mindate": "1966-02-01",
      "maxdate": "1967-03-31",
      "latitude": 50.5333,
      "name": "ENDERBY VALECAIRN FARM, CA",
      "datacoverage": 1,
      "id": "GHCND:CA001162683",
      "elevationUnit": "METERS",
      "longitude": -119.1667
    },
    {
      "elevation": 588,
      "mindate": "1959-03-01",
      "maxdate": "1986-08-31",
      "latitude": 50.45,
      "name": "FALKLAND SALMON VALLEY, CA",
      "datacoverage": 0.9786,
      "id": "GHCND:CA001162784",
      "elevationUnit": "METERS",
      "longitude": -119.4
    },
    {
      "elevation": 823,
      "mindate": "1974-12-01",
      "maxdate": "1984-03-31",
      "latitude": 50.5,
      "name": "FALKLAND SPANISH LAKE, CA",
      "datacoverage": 1,
      "id": "GHCND:CA001162785",
      "elevationUnit": "METERS",
      "longitude": -119.5
    },
    {
      "elevation": 434,
      "mindate": "1975-08-01",
      "maxdate": "1976-01-31",
      "latitude": 50.9667,
      "name": "GRIFFIN LAKE, CA",
      "datacoverage": 1,
      "id": "GHCND:CA001163306",
      "elevationUnit": "METERS",
      "longitude": -118.5333
    },
    {
      "elevation": 923,
      "mindate": "1960-11-01",
      "maxdate": "1981-02-28",
      "latitude": 50.75,
      "name": "HAT CREEK, CA",
      "datacoverage": 1,
      "id": "GHCND:CA001163340",
      "elevationUnit": "METERS",
      "longitude": -121.5833
    },
    {
      "elevation": 683,
      "mindate": "1953-02-01",
      "maxdate": "1995-10-31",
      "latitude": 50.9167,
      "name": "HEFFLEY CREEK, CA",
      "datacoverage": 1,
      "id": "GHCND:CA001163400",
      "elevationUnit": "METERS",
      "longitude": -120.1833
    },
    {
      "elevation": 640,
      "mindate": "1953-06-01",
      "maxdate": "1963-03-31",
      "latitude": 51.9167,
      "name": "HEMP CREEK CLEARWATER, CA",
      "datacoverage": 1,
      "id": "GHCND:CA001163450",
      "elevationUnit": "METERS",
      "longitude": -120.05
    },
    {
      "elevation": 1524,
      "mindate": "1957-03-01",
      "maxdate": "1958-04-30",
      "latitude": 50.4833,
      "name": "HIGHLAND VALLEY, CA",
      "datacoverage": 1,
      "id": "GHCND:CA001163465",
      "elevationUnit": "METERS",
      "longitude": -120.9833
    },
    {
      "elevation": 1402,
      "mindate": "1958-09-01",
      "maxdate": "1959-09-30",
      "latitude": 50.5167,
      "name": "HIGHLAND VALLEY 2, CA",
      "datacoverage": 1,
      "id": "GHCND:CA001163466",
      "elevationUnit": "METERS",
      "longitude": -120.9833
    },
    {
      "elevation": 1402,
      "mindate": "1960-01-01",
      "maxdate": "1961-03-31",
      "latitude": 50.5167,
      "name": "HIGHLAND VALLEY 3, CA",
      "datacoverage": 0.6007,
      "id": "GHCND:CA001163467",
      "elevationUnit": "METERS",
      "longitude": -120.9833
    },
    {
      "elevation": 994,
      "mindate": "1983-06-01",
      "maxdate": "1994-06-30",
      "latitude": 51.6,
      "name": "HORSE LAKE, CA",
      "datacoverage": 1,
      "id": "GHCND:CA001163595",
      "elevationUnit": "METERS",
      "longitude": -121.2
    },
    {
      "elevation": 1061,
      "mindate": "1987-06-01",
      "maxdate": "1993-03-31",
      "latitude": 51.5667,
      "name": "HORSE LAKE FAWN CREEK, CA",
      "datacoverage": 0.8856,
      "id": "GHCND:CA001163596",
      "elevationUnit": "METERS",
      "longitude": -121.0667
    },
    {
      "elevation": 379,
      "mindate": "1878-01-01",
      "maxdate": "1982-12-31",
      "latitude": 50.6667,
      "name": "KAMLOOPS, CA",
      "datacoverage": 0.8177,
      "id": "GHCND:CA001163779",
      "elevationUnit": "METERS",
      "longitude": -120.3333
    },
    {
      "elevation": 345,
      "mindate": "1951-01-01",
      "maxdate": "2025-03-06",
      "latitude": 50.7,
      "name": "KAMLOOPS A, CA",
      "datacoverage": 1,
      "id": "GHCND:CA001163780",
      "elevationUnit": "METERS",
      "longitude": -120.45
    },
    {
      "elevation": 701,
      "mindate": "1977-05-01",
      "maxdate": "1993-12-31",
      "latitude": 50.6667,
      "name": "KAMLOOPS AFTON MINES, CA",
      "datacoverage": 0.9998,
      "id": "GHCND:CA001163790",
      "elevationUnit": "METERS",
      "longitude": -120.5
    },
    {
      "elevation": 701,
      "mindate": "1949-08-01",
      "maxdate": "1977-05-31",
      "latitude": 50.7167,
      "name": "KAMLOOPS CDA, CA",
      "datacoverage": 0.991,
      "id": "GHCND:CA001163810",
      "elevationUnit": "METERS",
      "longitude": -120.4333
    },
    {
      "elevation": 556,
      "mindate": "1970-09-01",
      "maxdate": "1974-06-30",
      "latitude": 50.6833,
      "name": "KAMLOOPS CHERRY CREEK, CA",
      "datacoverage": 1,
      "id": "GHCND:CA001163814",
      "elevationUnit": "METERS",
      "longitude": -120.5833
    },
    {
      "elevation": 701,
      "mindate": "1974-08-01",
      "maxdate": "1977-03-31",
      "latitude": 50.65,
      "name": "KAMLOOPS CHERRY CREEK 2, CA",
      "datacoverage": 1,
      "id": "GHCND:CA001163815",
      "elevationUnit": "METERS",
      "longitude": -120.5833
    },
    {
      "elevation": 601,
      "mindate": "1986-07-01",
      "maxdate": "1988-04-30",
      "latitude": 50.6667,
      "name": "KAMLOOPS GLENEAGLES, CA",
      "datacoverage": 0.8632,
      "id": "GHCND:CA001163817",
      "elevationUnit": "METERS",
      "longitude": -120.3667
    },
    {
      "elevation": 345,
      "mindate": "1986-09-01",
      "maxdate": "1989-06-30",
      "latitude": 50.7167,
      "name": "KAMLOOPS KIMBERLY CRESCENT, CA",
      "datacoverage": 0.942,
      "id": "GHCND:CA001163826",
      "elevationUnit": "METERS",
      "longitude": -120.3667
    },
    {
      "elevation": 345,
      "mindate": "1939-05-01",
      "maxdate": "1957-02-28",
      "latitude": 50.6833,
      "name": "KAMLOOPS MISSION FLATS, CA",
      "datacoverage": 0.9999,
      "id": "GHCND:CA001163840",
      "elevationUnit": "METERS",
      "longitude": -120.35
    },
    {
      "elevation": 345,
      "mindate": "2006-04-01",
      "maxdate": "2025-03-06",
      "latitude": 50.7,
      "name": "KAMLOOPS AUT, CA",
      "datacoverage": 0.9832,
      "id": "GHCND:CA001163842",
      "elevationUnit": "METERS",
      "longitude": -120.45
    },
    {
      "elevation": 442,
      "mindate": "1970-01-01",
      "maxdate": "1974-05-31",
      "latitude": 50.6667,
      "name": "KAMLOOPS TUNSTALL CRES, CA",
      "datacoverage": 1,
      "id": "GHCND:CA001163873",
      "elevationUnit": "METERS",
      "longitude": -120.3167
    },
    {
      "elevation": 347,
      "mindate": "1962-05-01",
      "maxdate": "2005-09-30",
      "latitude": 50.6833,
      "name": "KAMLOOPS VALLEYVIEW, CA",
      "datacoverage": 0.8656,
      "id": "GHCND:CA001163875",
      "elevationUnit": "METERS",
      "longitude": -120.25
    },
    {
      "elevation": 1143,
      "mindate": "1924-01-01",
      "maxdate": "1951-05-31",
      "latitude": 50.9667,
      "name": "KNOUFF LAKE, CA",
      "datacoverage": 0.9971,
      "id": "GHCND:CA001164380",
      "elevationUnit": "METERS",
      "longitude": -120.1333
    },
    {
      "elevation": 1113,
      "mindate": "1952-07-01",
      "maxdate": "1952-11-19",
      "latitude": 50.95,
      "name": "KNOUFF LAKE 2, CA",
      "datacoverage": 1,
      "id": "GHCND:CA001164381",
      "elevationUnit": "METERS",
      "longitude": -120.1333
    },
    {
      "elevation": 786,
      "mindate": "1986-06-01",
      "maxdate": "1988-06-30",
      "latitude": 50.6167,
      "name": "KNUTSFORD, CA",
      "datacoverage": 0.9999,
      "id": "GHCND:CA001164384",
      "elevationUnit": "METERS",
      "longitude": -120.3167
    },
    {
      "elevation": 1143,
      "mindate": "1974-05-01",
      "maxdate": "1979-09-30",
      "latitude": 51.5,
      "name": "LAC DES ROCHES, CA",
      "datacoverage": 1,
      "id": "GHCND:CA001164445",
      "elevationUnit": "METERS",
      "longitude": -120.6167
    },
    {
      "elevation": 457,
      "mindate": "1973-06-01",
      "maxdate": "1984-03-31",
      "latitude": 51.45,
      "name": "LITTLE FORT, CA",
      "datacoverage": 0.9994,
      "id": "GHCND:CA001164636",
      "elevationUnit": "METERS",
      "longitude": -120.2
    },
    {
      "elevation": 390,
      "mindate": "1986-08-01",
      "maxdate": "1990-07-31",
      "latitude": 51.3667,
      "name": "LITTLE FORT 2, CA",
      "datacoverage": 0.6875,
      "id": "GHCND:CA0011646L6",
      "elevationUnit": "METERS",
      "longitude": -120.1833
    },
    {
      "elevation": 1174,
      "mindate": "1966-10-01",
      "maxdate": "1967-02-28",
      "latitude": 51.65,
      "name": "LONE BUTTE, CA",
      "datacoverage": 1,
      "id": "GHCND:CA001164715",
      "elevationUnit": "METERS",
      "longitude": -120.8333
    },
    {
      "elevation": 838,
      "mindate": "1968-05-01",
      "maxdate": "1989-12-31",
      "latitude": 51.0667,
      "name": "LOON LAKE, CA",
      "datacoverage": 0.9383,
      "id": "GHCND:CA001164717",
      "elevationUnit": "METERS",
      "longitude": -121.3333
    },
    {
      "elevation": 625,
      "mindate": "1969-10-01",
      "maxdate": "1974-07-30",
      "latitude": 51.0333,
      "name": "LOUIS CRK MEL BAR RANCH, CA",
      "datacoverage": 0.9991,
      "id": "GHCND:CA001164720",
      "elevationUnit": "METERS",
      "longitude": -120.0333
    },
    {
      "elevation": 500,
      "mindate": "1959-03-01",
      "maxdate": "2010-03-31",
      "latitude": 50.2333,
      "name": "LUMBY, CA",
      "datacoverage": 0.4975,
      "id": "GHCND:CA001164729",
      "elevationUnit": "METERS",
      "longitude": -118.95
    },
    {
      "elevation": 560,
      "mindate": "1970-11-01",
      "maxdate": "1999-02-28",
      "latitude": 50.3667,
      "name": "LUMBY SIGALET RD, CA",
      "datacoverage": 0.9972,
      "id": "GHCND:CA001164730",
      "elevationUnit": "METERS",
      "longitude": -118.7667
    },
    {
      "elevation": 399,
      "mindate": "1924-07-01",
      "maxdate": "1975-10-31",
      "latitude": 50.3833,
      "name": "MABEL LAKE, CA",
      "datacoverage": 0.9708,
      "id": "GHCND:CA001164770",
      "elevationUnit": "METERS",
      "longitude": -118.7833
    },
    {
      "elevation": 404,
      "mindate": "1924-01-01",
      "maxdate": "1994-08-31",
      "latitude": 51,
      "name": "MALAKWA EAGLE R HATCHERY, CA",
      "datacoverage": 0.8137,
      "id": "GHCND:CA001164830",
      "elevationUnit": "METERS",
      "longitude": -118.65
    },
    {
      "elevation": 354,
      "mindate": "1965-06-01",
      "maxdate": "1969-03-31",
      "latitude": 50.7167,
      "name": "MARA LAKE, CA",
      "datacoverage": 1,
      "id": "GHCND:CA001164903",
      "elevationUnit": "METERS",
      "longitude": -119.0333
    },
    {
      "elevation": 1145,
      "mindate": "1981-05-01",
      "maxdate": "1991-04-30",
      "latitude": 51.55,
      "name": "LONE BUTTE 2, CA",
      "datacoverage": 0.9501,
      "id": "GHCND:CA001164G1E",
      "elevationUnit": "METERS",
      "longitude": -121.2
    },
    {
      "elevation": 1082,
      "mindate": "1983-06-01",
      "maxdate": "1984-09-30",
      "latitude": 51.5667,
      "name": "LONE BUTTE 3, CA",
      "datacoverage": 0.998,
      "id": "GHCND:CA001164GA5",
      "elevationUnit": "METERS",
      "longitude": -121.15
    },
    {
      "elevation": 899,
      "mindate": "1986-07-01",
      "maxdate": "1997-02-28",
      "latitude": 50.6,
      "name": "KNUTSFORD 2 S, CA",
      "datacoverage": 0.9922,
      "id": "GHCND:CA001164LH5",
      "elevationUnit": "METERS",
      "longitude": -120.3167
    },
    {
      "elevation": 381,
      "mindate": "1967-04-01",
      "maxdate": "2009-11-29",
      "latitude": 51.05,
      "name": "MCLURE, CA",
      "datacoverage": 0.9804,
      "id": "GHCND:CA001165030",
      "elevationUnit": "METERS",
      "longitude": -120.2167
    },
    {
      "elevation": 683,
      "mindate": "1961-09-01",
      "maxdate": "1968-09-30",
      "latitude": 50.5167,
      "name": "MONTE LAKE, CA",
      "datacoverage": 1,
      "id": "GHCND:CA001165197",
      "elevationUnit": "METERS",
      "longitude": -119.85
    },
    {
      "elevation": 701,
      "mindate": "1961-09-01",
      "maxdate": "1962-12-31",
      "latitude": 50.5167,
      "name": "MONTE LAKE 2, CA",
      "datacoverage": 1,
      "id": "GHCND:CA001165198",
      "elevationUnit": "METERS",
      "longitude": -119.85
    },
    {
      "elevation": 713,
      "mindate": "1963-11-01",
      "maxdate": "1967-05-31",
      "latitude": 51.8667,
      "name": "MOUL CREEK CLEARWATER, CA",
      "datacoverage": 1,
      "id": "GHCND:CA001165210",
      "elevationUnit": "METERS",
      "longitude": -120.0167
    },
    {
      "elevation": 873,
      "mindate": "1977-05-01",
      "maxdate": "1988-06-30",
      "latitude": 50.7833,
      "name": "MOUNT LOLO ADMIN KAMLOOPS, CA",
      "datacoverage": 0.9999,
      "id": "GHCND:CA001165224",
      "elevationUnit": "METERS",
      "longitude": -120.1833
    },
    {
      "elevation": 1737,
      "mindate": "1964-02-01",
      "maxdate": "1977-03-31",
      "latitude": 50.8,
      "name": "MOUNT LOLO KAMLOOPS, CA",
      "datacoverage": 0.9939,
      "id": "GHCND:CA001165225",
      "elevationUnit": "METERS",
      "longitude": -120.1333
    },
    {
      "elevation": 1059,
      "mindate": "1970-05-01",
      "maxdate": "1999-11-30",
      "latitude": 51.65,
      "name": "100 MILE HOUSE, CA",
      "datacoverage": 0.9993,
      "id": "GHCND:CA001165791",
      "elevationUnit": "METERS",
      "longitude": -121.3
    },
    {
      "elevation": 928,
      "mindate": "1987-06-01",
      "maxdate": "2023-10-11",
      "latitude": 51.6833,
      "name": "100 MILE HOUSE 6 NE, CA",
      "datacoverage": 1,
      "id": "GHCND:CA001165793",
      "elevationUnit": "METERS",
      "longitude": -121.2167
    },
    {
      "elevation": 381,
      "mindate": "1986-01-01",
      "maxdate": "1997-01-31",
      "latitude": 50.6833,
      "name": "PRITCHARD, CA",
      "datacoverage": 0.9999,
      "id": "GHCND:CA001166527",
      "elevationUnit": "METERS",
      "longitude": -119.8167
    },
    {
      "elevation": 1162,
      "mindate": "1974-05-01",
      "maxdate": "2024-04-27",
      "latitude": 50.9333,
      "name": "RED LAKE, CA",
      "datacoverage": 0.9112,
      "id": "GHCND:CA001166658",
      "elevationUnit": "METERS",
      "longitude": -120.8
    },
    {
      "elevation": 990,
      "mindate": "1979-11-01",
      "maxdate": "1985-05-31",
      "latitude": 50.9,
      "name": "RED LAKE 2, CA",
      "datacoverage": 1,
      "id": "GHCND:CA001166659",
      "elevationUnit": "METERS",
      "longitude": -120.7667
    },
    {
      "elevation": 716,
      "mindate": "1962-06-01",
      "maxdate": "1975-06-30",
      "latitude": 50.2167,
      "name": "RICHLAND, CA",
      "datacoverage": 0.9938,
      "id": "GHCND:CA001166760",
      "elevationUnit": "METERS",
      "longitude": -118.5
    },
    {
      "elevation": 795,
      "mindate": "1987-06-01",
      "maxdate": "2013-11-30",
      "latitude": 51.85,
      "name": "RUTH LAKE, CA",
      "datacoverage": 0.9433,
      "id": "GHCND:CA001166912",
      "elevationUnit": "METERS",
      "longitude": -120.9833
    },
    {
      "elevation": 506,
      "mindate": "1911-07-01",
      "maxdate": "1982-07-31",
      "latitude": 50.7,
      "name": "SALMON ARM, CA",
      "datacoverage": 1,
      "id": "GHCND:CA001166945",
      "elevationUnit": "METERS",
      "longitude": -119.25
    },
    {
      "elevation": 396,
      "mindate": "1950-04-01",
      "maxdate": "1986-10-31",
      "latitude": 50.7,
      "name": "SALMON ARM 2, CA",
      "datacoverage": 0.9999,
      "id": "GHCND:CA001166946",
      "elevationUnit": "METERS",
      "longitude": -119.2833
    },
    {
      "elevation": 363,
      "mindate": "1893-04-01",
      "maxdate": "1996-12-31",
      "latitude": 50.6833,
      "name": "SALMON ARM 3, CA",
      "datacoverage": 0.2,
      "id": "GHCND:CA001166947",
      "elevationUnit": "METERS",
      "longitude": -119.35
    },
    {
      "elevation": 960,
      "mindate": "1986-07-01",
      "maxdate": "2006-05-31",
      "latitude": 50.7167,
      "name": "PINANTAN LAKE, CA",
      "datacoverage": 0.9162,
      "id": "GHCND:CA001166JFR",
      "elevationUnit": "METERS",
      "longitude": -119.95
    },
    {
      "elevation": 527,
      "mindate": "1982-10-01",
      "maxdate": "2013-02-20",
      "latitude": 50.6833,
      "name": "SALMON ARM A, CA",
      "datacoverage": 0.9754,
      "id": "GHCND:CA001166R45",
      "elevationUnit": "METERS",
      "longitude": -119.2333
    },
    {
      "elevation": 1145,
      "mindate": "1989-10-01",
      "maxdate": "1992-09-30",
      "latitude": 51.1667,
      "name": "SAMATOSUM MOUNTAIN MINE, CA",
      "datacoverage": 0.9998,
      "id": "GHCND:CA001167008",
      "elevationUnit": "METERS",
      "longitude": -119.8167
    },
    {
      "elevation": 354,
      "mindate": "2004-08-01",
      "maxdate": "2008-01-17",
      "latitude": 50.9167,
      "name": "SCOTCH CREEK, CA",
      "datacoverage": 1,
      "id": "GHCND:CA001167150",
      "elevationUnit": "METERS",
      "longitude": -119.4667
    },
    {
      "elevation": 1080,
      "mindate": "1974-05-01",
      "maxdate": "1987-06-30",
      "latitude": 51.3,
      "name": "70 MILE HOUSE, CA",
      "datacoverage": 0.9557,
      "id": "GHCND:CA001167191",
      "elevationUnit": "METERS",
      "longitude": -121.4
    },
    {
      "elevation": 351,
      "mindate": "1973-05-01",
      "maxdate": "1996-02-29",
      "latitude": 51.25,
      "name": "SEYMOUR ARM, CA",
      "datacoverage": 0.9708,
      "id": "GHCND:CA001167193",
      "elevationUnit": "METERS",
      "longitude": -118.95
    },
    {
      "elevation": 351,
      "mindate": "1986-01-01",
      "maxdate": "1989-05-31",
      "latitude": 51.0667,
      "name": "SEYMOUR ARM NINE MILE LIGHT, CA",
      "datacoverage": 0.8543,
      "id": "GHCND:CA001167194",
      "elevationUnit": "METERS",
      "longitude": -119.0333
    },
    {
      "elevation": 427,
      "mindate": "1930-01-01",
      "maxdate": "1972-08-31",
      "latitude": 50.3,
      "name": "SHUSWAP FALLS, CA",
      "datacoverage": 0.9727,
      "id": "GHCND:CA001167260",
      "elevationUnit": "METERS",
      "longitude": -118.8167
    },
    {
      "elevation": 427,
      "mindate": "1954-08-01",
      "maxdate": "1979-04-30",
      "latitude": 50.8,
      "name": "SICAMOUS, CA",
      "datacoverage": 1,
      "id": "GHCND:CA001167275",
      "elevationUnit": "METERS",
      "longitude": -119
    },
    {
      "elevation": 355,
      "mindate": "1979-11-01",
      "maxdate": "1994-10-31",
      "latitude": 50.85,
      "name": "SICAMOUS 2, CA",
      "datacoverage": 0.9888,
      "id": "GHCND:CA001167276",
      "elevationUnit": "METERS",
      "longitude": -118.9833
    },
    {
      "elevation": 419,
      "mindate": "1989-06-01",
      "maxdate": "2021-10-31",
      "latitude": 50.55,
      "name": "SILVER CREEK, CA",
      "datacoverage": 1,
      "id": "GHCND:CA001167337",
      "elevationUnit": "METERS",
      "longitude": -119.35
    },
    {
      "elevation": 390,
      "mindate": "1924-01-01",
      "maxdate": "1979-08-31",
      "latitude": 50.8833,
      "name": "SORRENTO, CA",
      "datacoverage": 0.9985,
      "id": "GHCND:CA001167590",
      "elevationUnit": "METERS",
      "longitude": -119.4833
    },
    {
      "elevation": 488,
      "mindate": "1969-04-01",
      "maxdate": "1990-10-31",
      "latitude": 50.8833,
      "name": "SORRENTO EAST, CA",
      "datacoverage": 0.9961,
      "id": "GHCND:CA001167592",
      "elevationUnit": "METERS",
      "longitude": -119.4
    },
    {
      "elevation": 232,
      "mindate": "1873-06-01",
      "maxdate": "1909-03-31",
      "latitude": 50.4167,
      "name": "SPENCES BRIDGE, CA",
      "datacoverage": 0.6256,
      "id": "GHCND:CA001167635",
      "elevationUnit": "METERS",
      "longitude": -121.5
    },
    {
      "elevation": 235,
      "mindate": "1980-06-01",
      "maxdate": "2002-10-31",
      "latitude": 50.4167,
      "name": "SPENCES BRIDGE NICOLA, CA",
      "datacoverage": 0.9993,
      "id": "GHCND:CA001167637",
      "elevationUnit": "METERS",
      "longitude": -121.3167
    },
    {
      "elevation": 610,
      "mindate": "1957-12-01",
      "maxdate": "1964-11-23",
      "latitude": 50.3333,
      "name": "SUGAR LAKE, CA",
      "datacoverage": 0.988,
      "id": "GHCND:CA001167778",
      "elevationUnit": "METERS",
      "longitude": -118.5333
    },
    {
      "elevation": 442,
      "mindate": "1913-01-01",
      "maxdate": "1961-12-31",
      "latitude": 50.75,
      "name": "TAPPEN, CA",
      "datacoverage": 0.9473,
      "id": "GHCND:CA001167980",
      "elevationUnit": "METERS",
      "longitude": -119.3333
    },
    {
      "elevation": 567,
      "mindate": "1962-07-01",
      "maxdate": "1966-10-31",
      "latitude": 50.8,
      "name": "TAPPEN FORD ROAD, CA",
      "datacoverage": 1,
      "id": "GHCND:CA001167982",
      "elevationUnit": "METERS",
      "longitude": -119.3
    },
    {
      "elevation": 381,
      "mindate": "1966-11-01",
      "maxdate": "1967-02-28",
      "latitude": 50.6667,
      "name": "TAPPEN TULARI FARM, CA",
      "datacoverage": 1,
      "id": "GHCND:CA001167986",
      "elevationUnit": "METERS",
      "longitude": -119.3
    },
    {
      "elevation": 1840,
      "mindate": "1980-12-01",
      "maxdate": "2022-04-08",
      "latitude": 50.9,
      "name": "SUN PEAKS MOUNTAIN, CA",
      "datacoverage": 0.3703,
      "id": "GHCND:CA001168204",
      "elevationUnit": "METERS",
      "longitude": -119.9167
    },
    {
      "elevation": 360,
      "mindate": "1908-08-01",
      "maxdate": "1953-07-31",
      "latitude": 50.7167,
      "name": "TRANQUILLE, CA",
      "datacoverage": 0.9352,
      "id": "GHCND:CA001168220",
      "elevationUnit": "METERS",
      "longitude": -120.5167
    },
    {
      "elevation": 445,
      "mindate": "1913-04-01",
      "maxdate": "2024-04-27",
      "latitude": 51.5833,
      "name": "VAVENBY, CA",
      "datacoverage": 0.9959,
      "id": "GHCND:CA001168520",
      "elevationUnit": "METERS",
      "longitude": -119.7833
    },
    {
      "elevation": 756,
      "mindate": "2007-10-01",
      "maxdate": "2008-05-31",
      "latitude": 50.6,
      "name": "VENABLES VLY BHUMI FARM, CA",
      "datacoverage": 1,
      "id": "GHCND:CA001168532",
      "elevationUnit": "METERS",
      "longitude": -121.3833
    },
    {
      "elevation": 357,
      "mindate": "1962-05-01",
      "maxdate": "1966-11-30",
      "latitude": 50.9333,
      "name": "VINSULLA, CA",
      "datacoverage": 0.9994,
      "id": "GHCND:CA001168667",
      "elevationUnit": "METERS",
      "longitude": -120.25
    },
    {
      "elevation": 1080,
      "mindate": "1987-06-01",
      "maxdate": "1988-02-29",
      "latitude": 51.4667,
      "name": "WATCH LAKE EAST, CA",
      "datacoverage": 0.9998,
      "id": "GHCND:CA001168736",
      "elevationUnit": "METERS",
      "longitude": -121.0667
    },
    {
      "elevation": 1069,
      "mindate": "1987-06-01",
      "maxdate": "1996-10-31",
      "latitude": 51.4667,
      "name": "WATCH LAKE NORTH, CA",
      "datacoverage": 0.9995,
      "id": "GHCND:CA001168739",
      "elevationUnit": "METERS",
      "longitude": -121.1167
    },
    {
      "elevation": 609,
      "mindate": "1921-05-01",
      "maxdate": "2013-05-31",
      "latitude": 50.4667,
      "name": "WESTWOLD, CA",
      "datacoverage": 0.9728,
      "id": "GHCND:CA001168880",
      "elevationUnit": "METERS",
      "longitude": -119.75
    },
    {
      "elevation": 425,
      "mindate": "1975-08-01",
      "maxdate": "1978-06-30",
      "latitude": 50.2333,
      "name": "THIMBLE RANCH, CA",
      "datacoverage": 1,
      "id": "GHCND:CA001168A5H",
      "elevationUnit": "METERS",
      "longitude": -118.5833
    },
    {
      "elevation": 701,
      "mindate": "1985-08-01",
      "maxdate": "1988-09-30",
      "latitude": 51.6833,
      "name": "CLEARWATER CANDLE CRK, CA",
      "datacoverage": 0.9734,
      "id": "GHCND:CA00116A655",
      "elevationUnit": "METERS",
      "longitude": -120
    },
    {
      "elevation": 640,
      "mindate": "1986-06-01",
      "maxdate": "2024-04-25",
      "latitude": 50.6,
      "name": "KAMLOOPS PRATT ROAD, CA",
      "datacoverage": 0.9944,
      "id": "GHCND:CA00116C8P0",
      "elevationUnit": "METERS",
      "longitude": -120.2
    },
    {
      "elevation": 1070,
      "mindate": "1991-06-01",
      "maxdate": "1991-11-30",
      "latitude": 51.4167,
      "name": "GREEN LAKE, CA",
      "datacoverage": 0.998,
      "id": "GHCND:CA00116CK98",
      "elevationUnit": "METERS",
      "longitude": -121.2333
    },
    {
      "elevation": 1070,
      "mindate": "1988-07-01",
      "maxdate": "1988-11-30",
      "latitude": 51.5667,
      "name": "HORSE LAKE LONE BUTE, CA",
      "datacoverage": 0.9947,
      "id": "GHCND:CA00116CNR6",
      "elevationUnit": "METERS",
      "longitude": -121.15
    },
    {
      "elevation": 346,
      "mindate": "1989-06-01",
      "maxdate": "1989-11-30",
      "latitude": 50.6667,
      "name": "KAMLOOPS DALLAS, CA",
      "datacoverage": 0.998,
      "id": "GHCND:CA00116CQAK",
      "elevationUnit": "METERS",
      "longitude": -120.1667
    },
    {
      "elevation": 351,
      "mindate": "1991-01-01",
      "maxdate": "2024-04-28",
      "latitude": 50.7,
      "name": "SALMON ARM CS, CA",
      "datacoverage": 1,
      "id": "GHCND:CA00116FRMN",
      "elevationUnit": "METERS",
      "longitude": -119.2833
    },
    {
      "elevation": 1083,
      "mindate": "1987-06-01",
      "maxdate": "2009-06-30",
      "latitude": 51.3333,
      "name": "VIDETTE LAKE SHARPE LAKE, CA",
      "datacoverage": 1,
      "id": "GHCND:CA00116HFF6",
      "elevationUnit": "METERS",
      "longitude": -120.8333
    },
    {
      "elevation": 869,
      "mindate": "1990-03-01",
      "maxdate": "1995-02-28",
      "latitude": 51.7333,
      "name": "CLEARWATER SPAHATS CREEK, CA",
      "datacoverage": 0.8168,
      "id": "GHCND:CA00116JF55",
      "elevationUnit": "METERS",
      "longitude": -120
    },
    {
      "elevation": 357,
      "mindate": "1986-06-01",
      "maxdate": "2002-08-31",
      "latitude": 50.8167,
      "name": "KAMLOOPS RAYLEIGH, CA",
      "datacoverage": 0.923,
      "id": "GHCND:CA00116L87J",
      "elevationUnit": "METERS",
      "longitude": -120.3
    },
    {
      "elevation": 342,
      "mindate": "1986-08-01",
      "maxdate": "1990-03-31",
      "latitude": 50.7,
      "name": "KAMLOOPS RIDGEVIEW TERRACE, CA",
      "datacoverage": 0.8183,
      "id": "GHCND:CA00116LQPJ",
      "elevationUnit": "METERS",
      "longitude": -120.3833
    },
    {
      "elevation": 890,
      "mindate": "1987-07-01",
      "maxdate": "1989-12-31",
      "latitude": 51.7,
      "name": "108 MILE HOUSE WATSON LAKE, CA",
      "datacoverage": 0.9986,
      "id": "GHCND:CA00116N7R6",
      "elevationUnit": "METERS",
      "longitude": -121.3333
    },
    {
      "elevation": 845,
      "mindate": "1972-04-01",
      "maxdate": "1990-12-31",
      "latitude": 50.5333,
      "name": "MONTE LAKE PAXTON VALLEY, CA",
      "datacoverage": 0.9733,
      "id": "GHCND:CA00116NJ97",
      "elevationUnit": "METERS",
      "longitude": -119.8
    },
    {
      "elevation": 351,
      "mindate": "1986-07-01",
      "maxdate": "2007-03-30",
      "latitude": 50.65,
      "name": "MONTE CREEK, CA",
      "datacoverage": 1,
      "id": "GHCND:CA00116NJ9F",
      "elevationUnit": "METERS",
      "longitude": -119.95
    },
    {
      "elevation": 363,
      "mindate": "1986-07-01",
      "maxdate": "1996-11-30",
      "latitude": 50.65,
      "name": "MONTE CREEK WEST, CA",
      "datacoverage": 0.9997,
      "id": "GHCND:CA00116NJRF",
      "elevationUnit": "METERS",
      "longitude": -120.0167
    },
    {
      "elevation": 1300,
      "mindate": "1994-03-01",
      "maxdate": "2022-04-08",
      "latitude": 50.8833,
      "name": "SUN PEAKS LOWER, CA",
      "datacoverage": 0.3472,
      "id": "GHCND:CA00116Q20D",
      "elevationUnit": "METERS",
      "longitude": -119.8833
    }
  ]
}
