{
  "metadata": {
    "resultset": {
      "offset": 132600,
      "count": 154115,
      "limit": 100
    }
  },
  "results": [
    {
      "elevation": 222.5,
      "mindate": "1948-01-01",
      "maxdate": "2010-12-31",
      "latitude": 38.75,
      "name": "CLIFTON CITY, MO US",
      "datacoverage": 1,
      "id": "GHCND:USC00231704",
      "elevationUnit": "METERS",
      "longitude": -93.01667
    },
    {
      "elevation": 223.1,
      "mindate": "1902-06-01",
      "maxdate": "1946-04-30",
      "latitude": 39.45,
      "name": "CLIFTON HILL, MO US",
      "datacoverage": 0.8255,
      "id": "GHCND:USC00231708",
      "elevationUnit": "METERS",
      "longitude": -92.66667
    },
    {
      "elevation": 305.1,
      "mindate": "1973-01-01",
      "maxdate": "1981-12-31",
      "latitude": 38.1,
      "name": "CLIMAX SPRINGS, MO US",
      "datacoverage": 0.9999,
      "id": "GHCND:USC00231709",
      "elevationUnit": "METERS",
      "longitude": -93.05
    },
    {
      "elevation": 234.7,
      "mindate": "1906-10-01",
      "maxdate": "2025-03-07",
      "latitude": 38.395,
      "name": "CLINTON, MO US",
      "datacoverage": 1,
      "id": "GHCND:USC00231711",
      "elevationUnit": "METERS",
      "longitude": -93.7711
    },
    {
      "elevation": 304.8,
      "mindate": "2006-01-01",
      "maxdate": "2025-03-07",
      "latitude": 38.48452,
      "name": "COLE CAMP 3 NW, MO US",
      "datacoverage": 1,
      "id": "GHCND:USC00231748",
      "elevationUnit": "METERS",
      "longitude": -93.2556
    },
    {
      "elevation": 277.4,
      "mindate": "1963-01-01",
      "maxdate": "1988-12-31",
      "latitude": 38.33333,
      "name": "COLE CAMP 9 SE, MO US",
      "datacoverage": 0.9212,
      "id": "GHCND:USC00231759",
      "elevationUnit": "METERS",
      "longitude": -93.08333
    },
    {
      "elevation": 254.2,
      "mindate": "1949-01-01",
      "maxdate": "2025-03-07",
      "latitude": 39.5318,
      "name": "COLOMA, MO US",
      "datacoverage": 1,
      "id": "GHCND:USC00231773",
      "elevationUnit": "METERS",
      "longitude": -93.529
    },
    {
      "mindate": "1958-07-01",
      "maxdate": "1959-09-30",
      "latitude": 38.96667,
      "name": "COLUMBIA 9 ENE, MO US",
      "datacoverage": 1,
      "id": "GHCND:USC00231792",
      "longitude": -92.18333
    },
    {
      "mindate": "1944-06-01",
      "maxdate": "1953-02-28",
      "latitude": 38.98333,
      "name": "COLUMBIA 9 WNW, MO US",
      "datacoverage": 1,
      "id": "GHCND:USC00231800",
      "longitude": -92.46667
    },
    {
      "elevation": 234.7,
      "mindate": "1997-02-01",
      "maxdate": "2025-03-06",
      "latitude": 38.94243,
      "name": "COLUMBIA U OF M, MO US",
      "datacoverage": 1,
      "id": "GHCND:USC00231801",
      "elevationUnit": "METERS",
      "longitude": -92.32044
    },
    {
      "elevation": 337.7,
      "mindate": "1893-01-01",
      "maxdate": "2025-03-06",
      "latitude": 40.2394,
      "name": "CONCEPTION, MO US",
      "datacoverage": 1,
      "id": "GHCND:USC00231822",
      "elevationUnit": "METERS",
      "longitude": -94.6833
    },
    {
      "elevation": 233.2,
      "mindate": "1893-01-01",
      "maxdate": "2025-03-03",
      "latitude": 38.9783,
      "name": "CONCORDIA, MO US",
      "datacoverage": 1,
      "id": "GHCND:USC00231837",
      "elevationUnit": "METERS",
      "longitude": -93.5702
    },
    {
      "elevation": 277.1,
      "mindate": "1898-10-01",
      "maxdate": "1901-09-30",
      "latitude": 37.812822,
      "name": "COOK STATION, MO US",
      "datacoverage": 1,
      "id": "GHCND:USC00231868",
      "elevationUnit": "METERS",
      "longitude": -91.437925
    },
    {
      "elevation": 302.1,
      "mindate": "1943-11-01",
      "maxdate": "1984-12-31",
      "latitude": 37.81667,
      "name": "COOK STATION, MO US",
      "datacoverage": 0.9918,
      "id": "GHCND:USC00231870",
      "elevationUnit": "METERS",
      "longitude": -91.43333
    },
    {
      "elevation": 277.4,
      "mindate": "2009-07-01",
      "maxdate": "2025-03-07",
      "latitude": 39.8536,
      "name": "COSBY 2 W, MO US",
      "datacoverage": 0.9998,
      "id": "GHCND:USC00231924",
      "elevationUnit": "METERS",
      "longitude": -94.7077
    },
    {
      "elevation": 158.5,
      "mindate": "2020-03-01",
      "maxdate": "2025-03-07",
      "latitude": 38.73119,
      "name": "COTTLEVILLE, MO US",
      "datacoverage": 0.9869,
      "id": "GHCND:USC00231932",
      "elevationUnit": "METERS",
      "longitude": -90.65159
    },
    {
      "mindate": "1893-01-01",
      "maxdate": "1903-08-31",
      "latitude": 39.566667,
      "name": "COWGILL, MO US",
      "datacoverage": 0.8754,
      "id": "GHCND:USC00231961",
      "longitude": -93.933333
    },
    {
      "elevation": 289.9,
      "mindate": "1940-06-01",
      "maxdate": "1974-03-31",
      "latitude": 37.45,
      "name": "CRANE MOUNTAIN, MO US",
      "datacoverage": 1,
      "id": "GHCND:USC00231980",
      "elevationUnit": "METERS",
      "longitude": -90.63333
    },
    {
      "elevation": 331.9,
      "mindate": "1911-01-01",
      "maxdate": "1973-10-31",
      "latitude": 37.95,
      "name": "CROCKER, MO US",
      "datacoverage": 0.5788,
      "id": "GHCND:USC00232004",
      "elevationUnit": "METERS",
      "longitude": -92.26667
    },
    {
      "elevation": 128,
      "mindate": "1934-05-01",
      "maxdate": "1959-01-30",
      "latitude": 38.23333,
      "name": "CRYSTAL CITY, MO US",
      "datacoverage": 0.9324,
      "id": "GHCND:USC00232031",
      "elevationUnit": "METERS",
      "longitude": -90.38333
    },
    {
      "elevation": 313.9,
      "mindate": "1935-04-01",
      "maxdate": "2025-03-07",
      "latitude": 38.05967,
      "name": "CUBA, MO US",
      "datacoverage": 0.9007,
      "id": "GHCND:USC00232043",
      "elevationUnit": "METERS",
      "longitude": -91.39544
    },
    {
      "elevation": 320,
      "mindate": "1893-01-01",
      "maxdate": "2014-04-09",
      "latitude": 37.4481,
      "name": "DADEVILLE, MO US",
      "datacoverage": 1,
      "id": "GHCND:USC00232071",
      "elevationUnit": "METERS",
      "longitude": -93.6779
    },
    {
      "elevation": 152.4,
      "mindate": "2020-03-01",
      "maxdate": "2025-03-06",
      "latitude": 38.73116,
      "name": "DARDENNE PRAIRIE 4 SE, MO US",
      "datacoverage": 0.827,
      "id": "GHCND:USC00232114",
      "elevationUnit": "METERS",
      "longitude": -90.68421
    },
    {
      "elevation": 251.8,
      "mindate": "1893-01-01",
      "maxdate": "1910-03-31",
      "latitude": 39.55,
      "name": "DARKSVILLE, MO US",
      "datacoverage": 0.9521,
      "id": "GHCND:USC00232115",
      "elevationUnit": "METERS",
      "longitude": -92.583333
    },
    {
      "mindate": "1905-11-01",
      "maxdate": "1907-07-31",
      "latitude": 37.95,
      "name": "DECATURVILLE, MO US",
      "datacoverage": 0.6679,
      "id": "GHCND:USC00232132",
      "longitude": -92.6
    },
    {
      "elevation": 78.9,
      "mindate": "1941-08-01",
      "maxdate": "1955-12-31",
      "latitude": 36.2,
      "name": "DEERING, MO US",
      "datacoverage": 0.9999,
      "id": "GHCND:USC00232156",
      "elevationUnit": "METERS",
      "longitude": -89.88333
    },
    {
      "elevation": 222.8,
      "mindate": "1901-03-01",
      "maxdate": "2025-03-06",
      "latitude": 38.13988,
      "name": "DE SOTO, MO US",
      "datacoverage": 1,
      "id": "GHCND:USC00232220",
      "elevationUnit": "METERS",
      "longitude": -90.50645
    },
    {
      "elevation": 94.5,
      "mindate": "1923-09-01",
      "maxdate": "2025-03-07",
      "latitude": 36.79333,
      "name": "DEXTER, MO US",
      "datacoverage": 0.992,
      "id": "GHCND:USC00232235",
      "elevationUnit": "METERS",
      "longitude": -89.9392
    },
    {
      "elevation": 326.1,
      "mindate": "1973-08-01",
      "maxdate": "2025-03-03",
      "latitude": 36.98596,
      "name": "DIAMOND 2 W, MO US",
      "datacoverage": 1,
      "id": "GHCND:USC00232240",
      "elevationUnit": "METERS",
      "longitude": -94.35518
    },
    {
      "elevation": 88.1,
      "mindate": "1904-04-01",
      "maxdate": "2017-04-30",
      "latitude": 36.6205,
      "name": "DONIPHAN, MO US",
      "datacoverage": 1,
      "id": "GHCND:USC00232289",
      "elevationUnit": "METERS",
      "longitude": -90.8125
    },
    {
      "elevation": 98.1,
      "mindate": "1935-07-01",
      "maxdate": "1957-05-31",
      "latitude": 36.61667,
      "name": "DONIPHAN 1 W, MO US",
      "datacoverage": 0.9847,
      "id": "GHCND:USC00232294",
      "elevationUnit": "METERS",
      "longitude": -90.85
    },
    {
      "elevation": 294.4,
      "mindate": "1948-08-01",
      "maxdate": "2024-12-31",
      "latitude": 36.73964,
      "name": "DORA 3 SE, MO US",
      "datacoverage": 1,
      "id": "GHCND:USC00232302",
      "elevationUnit": "METERS",
      "longitude": -92.20856
    },
    {
      "elevation": 265.2,
      "mindate": "1893-08-01",
      "maxdate": "2021-09-30",
      "latitude": 40.4906,
      "name": "DOWNING, MO US",
      "datacoverage": 1,
      "id": "GHCND:USC00232318",
      "elevationUnit": "METERS",
      "longitude": -92.3705
    },
    {
      "mindate": "1913-06-01",
      "maxdate": "1915-04-30",
      "latitude": 37.3,
      "name": "DUNCAN, MO US",
      "datacoverage": 1,
      "id": "GHCND:USC00232379",
      "longitude": -92.683333
    },
    {
      "elevation": 93.3,
      "mindate": "2023-11-17",
      "maxdate": "2024-11-30",
      "latitude": 36.7972,
      "name": "EAST PRAIRIE, MO US",
      "datacoverage": 0.7748,
      "id": "GHCND:USC00232380",
      "elevationUnit": "METERS",
      "longitude": -89.356
    },
    {
      "mindate": "1941-10-01",
      "maxdate": "1959-11-30",
      "latitude": 37.68333,
      "name": "EAST END, MO US",
      "datacoverage": 0.9083,
      "id": "GHCND:USC00232406",
      "longitude": -91.03333
    },
    {
      "elevation": 260.6,
      "mindate": "1893-01-01",
      "maxdate": "1900-12-31",
      "latitude": 38.668345,
      "name": "EAST LYNNE, MO US",
      "datacoverage": 0.9995,
      "id": "GHCND:USC00232416",
      "elevationUnit": "METERS",
      "longitude": -94.22939
    },
    {
      "elevation": 292.3,
      "mindate": "1940-01-01",
      "maxdate": "1947-08-31",
      "latitude": 36.883333,
      "name": "EASTWOOD LOOKOUT, MO US",
      "datacoverage": 0.8276,
      "id": "GHCND:USC00232443",
      "elevationUnit": "METERS",
      "longitude": -91.033333
    },
    {
      "elevation": 371.9,
      "mindate": "1981-01-01",
      "maxdate": "1981-10-31",
      "latitude": 37.63333,
      "name": "VICTORIA CP AND L, MO US",
      "datacoverage": 1,
      "id": "GHCND:USC00232463",
      "elevationUnit": "METERS",
      "longitude": -91.91667
    },
    {
      "elevation": 256,
      "mindate": "1919-11-01",
      "maxdate": "2011-09-19",
      "latitude": 39.5075,
      "name": "EDGERTON, MO US",
      "datacoverage": 0.9411,
      "id": "GHCND:USC00232474",
      "elevationUnit": "METERS",
      "longitude": -94.6328
    },
    {
      "elevation": 246.3,
      "mindate": "1893-01-01",
      "maxdate": "2025-01-31",
      "latitude": 40.16353,
      "name": "EDINA, MO US",
      "datacoverage": 1,
      "id": "GHCND:USC00232482",
      "elevationUnit": "METERS",
      "longitude": -92.16586
    },
    {
      "elevation": 260.6,
      "mindate": "1893-01-01",
      "maxdate": "1904-02-29",
      "latitude": 38.6667,
      "name": "EIGHT MILE, MO US",
      "datacoverage": 0.9334,
      "id": "GHCND:USC00232492",
      "elevationUnit": "METERS",
      "longitude": -94.2167
    },
    {
      "elevation": 281.6,
      "mindate": "1893-02-01",
      "maxdate": "2025-03-04",
      "latitude": 38.34853,
      "name": "ELDON, MO US",
      "datacoverage": 1,
      "id": "GHCND:USC00232503",
      "elevationUnit": "METERS",
      "longitude": -92.58108
    },
    {
      "elevation": 278.9,
      "mindate": "1905-05-01",
      "maxdate": "2025-02-28",
      "latitude": 37.86403,
      "name": "ELDORADO SPRINGS, MO US",
      "datacoverage": 1,
      "id": "GHCND:USC00232511",
      "elevationUnit": "METERS",
      "longitude": -94.01563
    },
    {
      "elevation": 274.9,
      "mindate": "1939-06-01",
      "maxdate": "1961-06-30",
      "latitude": 36.6,
      "name": "ELIJAH, MO US",
      "datacoverage": 0.9472,
      "id": "GHCND:USC00232519",
      "elevationUnit": "METERS",
      "longitude": -92.15
    },
    {
      "elevation": 222.5,
      "mindate": "1939-01-01",
      "maxdate": "2015-01-26",
      "latitude": 37.2333,
      "name": "ELLINGTON, MO US",
      "datacoverage": 0.9173,
      "id": "GHCND:USC00232547",
      "elevationUnit": "METERS",
      "longitude": -90.97
    },
    {
      "elevation": 225.9,
      "mindate": "1940-01-01",
      "maxdate": "1972-05-31",
      "latitude": 36.93333,
      "name": "ELLSINORE, MO US",
      "datacoverage": 0.9286,
      "id": "GHCND:USC00232563",
      "elevationUnit": "METERS",
      "longitude": -90.75
    },
    {
      "elevation": 259.1,
      "mindate": "1988-12-01",
      "maxdate": "2025-01-03",
      "latitude": 38.868,
      "name": "ELM, MO US",
      "datacoverage": 1,
      "id": "GHCND:USC00232568",
      "elevationUnit": "METERS",
      "longitude": -94.0352
    },
    {
      "elevation": 268.2,
      "mindate": "1894-03-01",
      "maxdate": "1900-12-31",
      "latitude": 39.507229,
      "name": "ELMIRA, MO US",
      "datacoverage": 0.9995,
      "id": "GHCND:USC00232575",
      "elevationUnit": "METERS",
      "longitude": -94.154663
    },
    {
      "elevation": 144.8,
      "mindate": "1931-01-01",
      "maxdate": "2025-02-28",
      "latitude": 39.1559,
      "name": "ELSBERRY 1 S, MO US",
      "datacoverage": 1,
      "id": "GHCND:USC00232591",
      "elevationUnit": "METERS",
      "longitude": -90.78309
    },
    {
      "elevation": 214,
      "mindate": "1948-08-01",
      "maxdate": "1951-09-30",
      "latitude": 37.15,
      "name": "EMINENCE 5 WNW, MO US",
      "datacoverage": 1,
      "id": "GHCND:USC00232617",
      "elevationUnit": "METERS",
      "longitude": -91.45
    },
    {
      "elevation": 203.3,
      "mindate": "1991-11-01",
      "maxdate": "2024-05-08",
      "latitude": 37.14521,
      "name": "EMINENCE, MO US",
      "datacoverage": 1,
      "id": "GHCND:USC00232619",
      "elevationUnit": "METERS",
      "longitude": -91.35757
    },
    {
      "elevation": 243.8,
      "mindate": "2009-10-01",
      "maxdate": "2019-04-30",
      "latitude": 39.2871,
      "name": "EXCELSIOR SPRINGS 4 S, MO US",
      "datacoverage": 0.9872,
      "id": "GHCND:USC00232700",
      "elevationUnit": "METERS",
      "longitude": -94.2226
    },
    {
      "elevation": 283.5,
      "mindate": "1948-01-01",
      "maxdate": "2010-03-26",
      "latitude": 40.339,
      "name": "FAIRFAX, MO US",
      "datacoverage": 0.9419,
      "id": "GHCND:USC00232729",
      "elevationUnit": "METERS",
      "longitude": -95.391
    },
    {
      "elevation": 286.5,
      "mindate": "2024-01-01",
      "maxdate": "2024-04-06",
      "latitude": 40.3394,
      "name": "FAIRFAX 1 W, MO US",
      "datacoverage": 1,
      "id": "GHCND:USC00232731",
      "elevationUnit": "METERS",
      "longitude": -95.4066
    },
    {
      "mindate": "1893-08-01",
      "maxdate": "1910-12-31",
      "latitude": 39.983333,
      "name": "FAIRPORT, MO US",
      "datacoverage": 0.9761,
      "id": "GHCND:USC00232733",
      "longitude": -94.35
    },
    {
      "elevation": 232.9,
      "mindate": "1932-11-01",
      "maxdate": "1945-06-30",
      "latitude": 39.266667,
      "name": "FARBER, MO US",
      "datacoverage": 1,
      "id": "GHCND:USC00232792",
      "elevationUnit": "METERS",
      "longitude": -91.566667
    },
    {
      "elevation": 274.3,
      "mindate": "1906-01-01",
      "maxdate": "2024-05-21",
      "latitude": 37.79205,
      "name": "FARMINGTON, MO US",
      "datacoverage": 1,
      "id": "GHCND:USC00232809",
      "elevationUnit": "METERS",
      "longitude": -90.40978
    },
    {
      "mindate": "1950-12-01",
      "maxdate": "1952-02-29",
      "latitude": 39.63333,
      "name": "FAUCETT SPEAS FARM, MO US",
      "datacoverage": 1,
      "id": "GHCND:USC00232821",
      "longitude": -94.81667
    },
    {
      "elevation": 228.9,
      "mindate": "1893-01-01",
      "maxdate": "1978-09-30",
      "latitude": 39.13333,
      "name": "FAYETTE, MO US",
      "datacoverage": 0.9962,
      "id": "GHCND:USC00232823",
      "elevationUnit": "METERS",
      "longitude": -92.7
    },
    {
      "elevation": 222.5,
      "mindate": "2011-01-01",
      "maxdate": "2024-07-11",
      "latitude": 39.07237,
      "name": "FAYETTE 6 SE, MO US",
      "datacoverage": 0.9835,
      "id": "GHCND:USC00232825",
      "elevationUnit": "METERS",
      "longitude": -92.62145
    },
    {
      "elevation": 195.1,
      "mindate": "1957-08-01",
      "maxdate": "1962-10-31",
      "latitude": 39.13333,
      "name": "FAYETTE EXPERIMENTAL LAGOON, MO US",
      "datacoverage": 0.9993,
      "id": "GHCND:USC00232828",
      "elevationUnit": "METERS",
      "longitude": -92.66667
    },
    {
      "elevation": 192,
      "mindate": "2024-01-01",
      "maxdate": "2024-04-03",
      "latitude": 39.1208,
      "name": "FAYETTE 6 ESE, MO US",
      "datacoverage": 1,
      "id": "GHCND:USC00232832",
      "elevationUnit": "METERS",
      "longitude": -92.5611
    },
    {
      "elevation": 182.9,
      "mindate": "1960-01-01",
      "maxdate": "2025-01-31",
      "latitude": 38.23247,
      "name": "FESTUS, MO US",
      "datacoverage": 1,
      "id": "GHCND:USC00232850",
      "elevationUnit": "METERS",
      "longitude": -90.39811
    },
    {
      "elevation": 100.6,
      "mindate": "1930-11-01",
      "maxdate": "2016-03-01",
      "latitude": 36.78278,
      "name": "FISK, MO US",
      "datacoverage": 0.9333,
      "id": "GHCND:USC00232881",
      "elevationUnit": "METERS",
      "longitude": -90.20333
    },
    {
      "elevation": 334.1,
      "mindate": "1975-01-01",
      "maxdate": "2025-03-07",
      "latitude": 37.80488,
      "name": "FLEMINGTON 1 W, MO US",
      "datacoverage": 1,
      "id": "GHCND:USC00232941",
      "elevationUnit": "METERS",
      "longitude": -93.52939
    },
    {
      "elevation": 259.1,
      "mindate": "1946-01-01",
      "maxdate": "1952-03-31",
      "latitude": 36.7,
      "name": "FORSYTH, MO US",
      "datacoverage": 0.9995,
      "id": "GHCND:USC00232975",
      "elevationUnit": "METERS",
      "longitude": -93.11667
    },
    {
      "elevation": 342.3,
      "mindate": "2007-04-01",
      "maxdate": "2025-03-07",
      "latitude": 37.74794,
      "name": "FORT LEONARD WOOD, MO US",
      "datacoverage": 1,
      "id": "GHCND:USC00232981",
      "elevationUnit": "METERS",
      "longitude": -92.10519
    },
    {
      "elevation": 203.9,
      "mindate": "1950-01-01",
      "maxdate": "1983-10-31",
      "latitude": 39.7,
      "name": "FOUNTAIN GROVE WILDLIFE REFUGE, MO US",
      "datacoverage": 0.9749,
      "id": "GHCND:USC00232995",
      "elevationUnit": "METERS",
      "longitude": -93.3
    },
    {
      "elevation": 303.6,
      "mindate": "1893-01-01",
      "maxdate": "1895-03-31",
      "latitude": 38.571164,
      "name": "FOX CREEK, MO US",
      "datacoverage": 1,
      "id": "GHCND:USC00233004",
      "elevationUnit": "METERS",
      "longitude": -90.689017
    },
    {
      "elevation": 221,
      "mindate": "1923-07-01",
      "maxdate": "2025-02-18",
      "latitude": 37.55834,
      "name": "FREDERICKTOWN, MO US",
      "datacoverage": 1,
      "id": "GHCND:USC00233038",
      "elevationUnit": "METERS",
      "longitude": -90.30343
    },
    {
      "elevation": 245.4,
      "mindate": "1962-01-01",
      "maxdate": "2025-03-07",
      "latitude": 38.4583,
      "name": "FREEDOM, MO US",
      "datacoverage": 1,
      "id": "GHCND:USC00233043",
      "elevationUnit": "METERS",
      "longitude": -91.7029
    },
    {
      "mindate": "1940-06-01",
      "maxdate": "1960-05-31",
      "latitude": 36.96667,
      "name": "FREMONT TOWER, MO US",
      "datacoverage": 0.6708,
      "id": "GHCND:USC00233052",
      "longitude": -91.23333
    },
    {
      "mindate": "1913-07-01",
      "maxdate": "1918-04-30",
      "latitude": 37.3,
      "name": "FRUIT CITY, MO US",
      "datacoverage": 1,
      "id": "GHCND:USC00233066",
      "longitude": -91.066667
    },
    {
      "elevation": 234.7,
      "mindate": "1893-02-01",
      "maxdate": "2015-12-22",
      "latitude": 38.84838,
      "name": "FULTON, MO US",
      "datacoverage": 1,
      "id": "GHCND:USC00233079",
      "elevationUnit": "METERS",
      "longitude": -91.94196
    },
    {
      "elevation": 313,
      "mindate": "1898-12-01",
      "maxdate": "2025-03-07",
      "latitude": 36.8061,
      "name": "GALENA, MO US",
      "datacoverage": 1,
      "id": "GHCND:USC00233094",
      "elevationUnit": "METERS",
      "longitude": -93.4677
    },
    {
      "elevation": 280.7,
      "mindate": "1893-01-01",
      "maxdate": "2024-03-15",
      "latitude": 39.9084,
      "name": "GALLATIN 1 W, MO US",
      "datacoverage": 1,
      "id": "GHCND:USC00233102",
      "elevationUnit": "METERS",
      "longitude": -93.96992
    },
    {
      "elevation": 289.9,
      "mindate": "1934-08-01",
      "maxdate": "1940-03-31",
      "latitude": 36.7,
      "name": "GARBER, MO US",
      "datacoverage": 1,
      "id": "GHCND:USC00233119",
      "elevationUnit": "METERS",
      "longitude": -93.3
    },
    {
      "elevation": 335.3,
      "mindate": "2001-07-01",
      "maxdate": "2011-11-03",
      "latitude": 36.8658,
      "name": "GENTRYVILLE, MO US",
      "datacoverage": 1,
      "id": "GHCND:USC00233162",
      "elevationUnit": "METERS",
      "longitude": -92.3605
    },
    {
      "elevation": 271,
      "mindate": "1940-06-01",
      "maxdate": "1978-11-30",
      "latitude": 38.4,
      "name": "GERALD, MO US",
      "datacoverage": 0.9372,
      "id": "GHCND:USC00233178",
      "elevationUnit": "METERS",
      "longitude": -91.33333
    },
    {
      "mindate": "1893-01-01",
      "maxdate": "1914-12-31",
      "latitude": 39.233333,
      "name": "GLASGOW, MO US",
      "datacoverage": 0.9017,
      "id": "GHCND:USC00233220",
      "longitude": -92.85
    },
    {
      "elevation": 179.8,
      "mindate": "2004-08-01",
      "maxdate": "2025-03-07",
      "latitude": 39.2241,
      "name": "GLASGOW, MO US",
      "datacoverage": 0.9009,
      "id": "GHCND:USC00233222",
      "elevationUnit": "METERS",
      "longitude": -92.8483
    },
    {
      "elevation": 135,
      "mindate": "1916-01-01",
      "maxdate": "1920-06-02",
      "latitude": 38.544498,
      "name": "GLENCOE, MO US",
      "datacoverage": 0.8893,
      "id": "GHCND:USC00233233",
      "elevationUnit": "METERS",
      "longitude": -90.623737
    },
    {
      "elevation": 299,
      "mindate": "1893-01-01",
      "maxdate": "1895-02-28",
      "latitude": 38.515579,
      "name": "GLENSTED, MO US",
      "datacoverage": 0.8101,
      "id": "GHCND:USC00233238",
      "elevationUnit": "METERS",
      "longitude": -92.855473
    },
    {
      "elevation": 332.5,
      "mindate": "1973-04-01",
      "maxdate": "2024-09-03",
      "latitude": 37.30864,
      "name": "GOLDEN CITY 6 S, MO US",
      "datacoverage": 1,
      "id": "GHCND:USC00233262",
      "elevationUnit": "METERS",
      "longitude": -94.08379
    },
    {
      "elevation": 299,
      "mindate": "1962-04-01",
      "maxdate": "1972-04-30",
      "latitude": 39.96667,
      "name": "GOLDSBERRY, MO US",
      "datacoverage": 0.9917,
      "id": "GHCND:USC00233268",
      "elevationUnit": "METERS",
      "longitude": -92.76667
    },
    {
      "elevation": 214,
      "mindate": "1893-01-01",
      "maxdate": "1942-01-31",
      "latitude": 40.25,
      "name": "GORIN, MO US",
      "datacoverage": 0.9915,
      "id": "GHCND:USC00233290",
      "elevationUnit": "METERS",
      "longitude": -92.08333
    },
    {
      "elevation": 299,
      "mindate": "1950-08-01",
      "maxdate": "1951-09-30",
      "latitude": 39.63333,
      "name": "GOWER 2 N, MO US",
      "datacoverage": 1,
      "id": "GHCND:USC00233300",
      "elevationUnit": "METERS",
      "longitude": -94.6
    },
    {
      "elevation": 176.8,
      "mindate": "1986-11-01",
      "maxdate": "2010-12-31",
      "latitude": 40.20167,
      "name": "GRAHAM 1 NW, MO US",
      "datacoverage": 1,
      "id": "GHCND:USC00233329",
      "elevationUnit": "METERS",
      "longitude": -95.07222
    },
    {
      "elevation": 345,
      "mindate": "1943-09-01",
      "maxdate": "1973-07-31",
      "latitude": 36.96667,
      "name": "GRANBY, MO US",
      "datacoverage": 0.9833,
      "id": "GHCND:USC00233341",
      "elevationUnit": "METERS",
      "longitude": -94.28333
    },
    {
      "elevation": 344.4,
      "mindate": "1893-01-01",
      "maxdate": "2010-12-31",
      "latitude": 40.486,
      "name": "GRANT CITY, MO US",
      "datacoverage": 1,
      "id": "GHCND:USC00233369",
      "elevationUnit": "METERS",
      "longitude": -94.414
    },
    {
      "elevation": 331.9,
      "mindate": "2006-06-01",
      "maxdate": "2024-12-31",
      "latitude": 40.464,
      "name": "GRANT CITY 5 WSW, MO US",
      "datacoverage": 0.9829,
      "id": "GHCND:USC00233375",
      "elevationUnit": "METERS",
      "longitude": -94.4978
    },
    {
      "elevation": 315.5,
      "mindate": "2006-01-01",
      "maxdate": "2024-11-17",
      "latitude": 40.3504,
      "name": "GREEN CITY 5 N, MO US",
      "datacoverage": 1,
      "id": "GHCND:USC00233416",
      "elevationUnit": "METERS",
      "longitude": -92.9491
    },
    {
      "elevation": 292,
      "mindate": "1981-01-01",
      "maxdate": "2025-03-05",
      "latitude": 37.39973,
      "name": "GREENFIELD 2 SE, MO US",
      "datacoverage": 0.3435,
      "id": "GHCND:USC00233420",
      "elevationUnit": "METERS",
      "longitude": -93.79996
    },
    {
      "elevation": 149.4,
      "mindate": "1894-06-01",
      "maxdate": "2010-12-31",
      "latitude": 37.2,
      "name": "GREENVILLE 6 N, MO US",
      "datacoverage": 1,
      "id": "GHCND:USC00233451",
      "elevationUnit": "METERS",
      "longitude": -90.45
    },
    {
      "elevation": 155.4,
      "mindate": "1950-01-01",
      "maxdate": "1986-06-30",
      "latitude": 40.27444,
      "name": "GREGORY LANDING, IL US",
      "datacoverage": 1,
      "id": "GHCND:USC00233463",
      "elevationUnit": "METERS",
      "longitude": -91.42611
    },
    {
      "elevation": 423.1,
      "mindate": "1949-01-01",
      "maxdate": "2010-12-31",
      "latitude": 37.4077,
      "name": "GROVESPRING 1 NE, MO US",
      "datacoverage": 1,
      "id": "GHCND:USC00233483",
      "elevationUnit": "METERS",
      "longitude": -92.593
    },
    {
      "elevation": 399.9,
      "mindate": "1925-05-01",
      "maxdate": "1969-10-31",
      "latitude": 36.7,
      "name": "HAILEY 3 WSW, MO US",
      "datacoverage": 0.9887,
      "id": "GHCND:USC00233537",
      "elevationUnit": "METERS",
      "longitude": -93.76667
    },
    {
      "mindate": "1893-08-01",
      "maxdate": "1904-10-31",
      "latitude": 37.616667,
      "name": "HALF WAY, MO US",
      "datacoverage": 1,
      "id": "GHCND:USC00233551",
      "longitude": -93.25
    },
    {
      "elevation": 311.8,
      "mindate": "1972-07-01",
      "maxdate": "2025-01-31",
      "latitude": 37.253,
      "name": "HALLTOWN 5 NW, MO US",
      "datacoverage": 0.3656,
      "id": "GHCND:USC00233562",
      "elevationUnit": "METERS",
      "longitude": -93.7275
    }
  ]
}
