{
  "metadata": {
    "resultset": {
      "offset": 104400,
      "count": 154115,
      "limit": 100
    }
  },
  "results": [
    {
      "elevation": 1517,
      "mindate": "2021-07-01",
      "maxdate": "2024-11-08",
      "latitude": 35.13864,
      "name": "ALBUQUERQUE 2.1 NW, NM US",
      "datacoverage": 1,
      "id": "GHCND:US1NMBR0390",
      "elevationUnit": "METERS",
      "longitude": -106.65187
    },
    {
      "elevation": 1534.4,
      "mindate": "2020-12-07",
      "maxdate": "2024-06-30",
      "latitude": 35.166737,
      "name": "ALBUQUERQUE 3.5 NNE, NM US",
      "datacoverage": 0.4462,
      "id": "GHCND:US1NMBR0391",
      "elevationUnit": "METERS",
      "longitude": -106.60831
    },
    {
      "elevation": 1648.4,
      "mindate": "2021-09-01",
      "maxdate": "2025-03-06",
      "latitude": 35.133146,
      "name": "ALBUQUERQUE 4.1 ENE, NM US",
      "datacoverage": 1,
      "id": "GHCND:US1NMBR0394",
      "elevationUnit": "METERS",
      "longitude": -106.554438
    },
    {
      "elevation": 1503.6,
      "mindate": "2021-07-19",
      "maxdate": "2025-03-05",
      "latitude": 35.031732,
      "name": "ALBUQUERQUE 7.7 SW, NM US",
      "datacoverage": 0.4887,
      "id": "GHCND:US1NMBR0395",
      "elevationUnit": "METERS",
      "longitude": -106.711222
    },
    {
      "elevation": 1516.1,
      "mindate": "2021-09-20",
      "maxdate": "2025-03-07",
      "latitude": 35.1428,
      "name": "LOS RANCHOS 2.1 SW, NM US",
      "datacoverage": 0.9986,
      "id": "GHCND:US1NMBR0399",
      "elevationUnit": "METERS",
      "longitude": -106.675245
    },
    {
      "elevation": 1857.8,
      "mindate": "2021-08-31",
      "maxdate": "2023-09-17",
      "latitude": 35.187348,
      "name": "ALBUQUERQUE 8.7 NE, NM US",
      "datacoverage": 1,
      "id": "GHCND:US1NMBR0400",
      "elevationUnit": "METERS",
      "longitude": -106.4969854
    },
    {
      "elevation": 1628.2,
      "mindate": "2021-06-01",
      "maxdate": "2024-11-30",
      "latitude": 35.11158,
      "name": "ALBUQUERQUE 6.8 W, NM US",
      "datacoverage": 0.3714,
      "id": "GHCND:US1NMBR0401",
      "elevationUnit": "METERS",
      "longitude": -106.74515
    },
    {
      "elevation": 1521.6,
      "mindate": "2021-08-28",
      "maxdate": "2025-02-15",
      "latitude": 35.160466,
      "name": "LOS RANCHOS 0.5 SE, NM US",
      "datacoverage": 0.1349,
      "id": "GHCND:US1NMBR0402",
      "elevationUnit": "METERS",
      "longitude": -106.64148
    },
    {
      "elevation": 1605.7,
      "mindate": "2021-09-24",
      "maxdate": "2025-03-07",
      "latitude": 35.138962,
      "name": "ALBUQUERQUE 3.0 ENE, NM US",
      "datacoverage": 0.7074,
      "id": "GHCND:US1NMBR0403",
      "elevationUnit": "METERS",
      "longitude": -106.57944
    },
    {
      "elevation": 1785.5,
      "mindate": "2021-10-01",
      "maxdate": "2025-03-06",
      "latitude": 35.084,
      "name": "ALBUQUERQUE 7.8 ESE, NM US",
      "datacoverage": 1,
      "id": "GHCND:US1NMBR0404",
      "elevationUnit": "METERS",
      "longitude": -106.492
    },
    {
      "elevation": 1991.3,
      "mindate": "2021-10-01",
      "maxdate": "2025-03-07",
      "latitude": 35.198112,
      "name": "SANDIA PARK 3.4 NE, NM US",
      "datacoverage": 1,
      "id": "GHCND:US1NMBR0406",
      "elevationUnit": "METERS",
      "longitude": -106.317278
    },
    {
      "elevation": 1623.4,
      "mindate": "2021-12-01",
      "maxdate": "2025-03-07",
      "latitude": 35.15661,
      "name": "ALBUQUERQUE 4.0 NE, NM US",
      "datacoverage": 1,
      "id": "GHCND:US1NMBR0407",
      "elevationUnit": "METERS",
      "longitude": -106.57164
    },
    {
      "elevation": 2319.8,
      "mindate": "2002-01-28",
      "maxdate": "2024-04-28",
      "latitude": 34.985556,
      "name": "CEDRO 2.4 S, NM US",
      "datacoverage": 0.0346,
      "id": "GHCND:US1NMBR0409",
      "elevationUnit": "METERS",
      "longitude": -106.347778
    },
    {
      "elevation": 1690.4,
      "mindate": "2022-04-09",
      "maxdate": "2025-03-06",
      "latitude": 35.110261,
      "name": "ALBUQUERQUE 5.7 E, NM US",
      "datacoverage": 1,
      "id": "GHCND:US1NMBR0416",
      "elevationUnit": "METERS",
      "longitude": -106.5241504
    },
    {
      "elevation": 1634.6,
      "mindate": "2022-01-03",
      "maxdate": "2025-02-14",
      "latitude": 35.10258,
      "name": "ALBUQUERQUE 7.2 W, NM US",
      "datacoverage": 0.9392,
      "id": "GHCND:US1NMBR0420",
      "elevationUnit": "METERS",
      "longitude": -106.750054
    },
    {
      "elevation": 2072,
      "mindate": "2022-04-12",
      "maxdate": "2024-08-30",
      "latitude": 35.1475,
      "name": "SANDIA PARK 4.4 ESE, NM US",
      "datacoverage": 0.9819,
      "id": "GHCND:US1NMBR0421",
      "elevationUnit": "METERS",
      "longitude": -106.293889
    },
    {
      "elevation": 1578.9,
      "mindate": "2022-06-27",
      "maxdate": "2025-03-07",
      "latitude": 35.18529,
      "name": "ALBUQUERQUE 6.0 NW, NM US",
      "datacoverage": 0.6721,
      "id": "GHCND:US1NMBR0422",
      "elevationUnit": "METERS",
      "longitude": -106.689311
    },
    {
      "elevation": 1585,
      "mindate": "2022-07-17",
      "maxdate": "2025-03-06",
      "latitude": 35.079257,
      "name": "ALBUQUERQUE 2.7 SSE, NM US",
      "datacoverage": 1,
      "id": "GHCND:US1NMBR0427",
      "elevationUnit": "METERS",
      "longitude": -106.612344
    },
    {
      "elevation": 1611.2,
      "mindate": "2022-07-12",
      "maxdate": "2025-03-04",
      "latitude": 35.096105,
      "name": "ALBUQUERQUE 6.9 WSW, NM US",
      "datacoverage": 0.909,
      "id": "GHCND:US1NMBR0428",
      "elevationUnit": "METERS",
      "longitude": -106.743381
    },
    {
      "elevation": 1570,
      "mindate": "2022-08-08",
      "maxdate": "2025-03-02",
      "latitude": 35.213167,
      "name": "ALBUQUERQUE 7.1 NNW, NM US",
      "datacoverage": 0.1503,
      "id": "GHCND:US1NMBR0430",
      "elevationUnit": "METERS",
      "longitude": -106.67065
    },
    {
      "elevation": 1619.1,
      "mindate": "2002-09-04",
      "maxdate": "2025-03-07",
      "latitude": 35.180327,
      "name": "NORTH VALLEY 3.1 E, NM US",
      "datacoverage": 0.801,
      "id": "GHCND:US1NMBR0432",
      "elevationUnit": "METERS",
      "longitude": -106.567811
    },
    {
      "elevation": 1510.6,
      "mindate": "2022-08-22",
      "maxdate": "2025-03-02",
      "latitude": 35.080694,
      "name": "ALBUQUERQUE 4.1 SW, NM US",
      "datacoverage": 0.1299,
      "id": "GHCND:US1NMBR0433",
      "elevationUnit": "METERS",
      "longitude": -106.681453
    },
    {
      "elevation": 1610.3,
      "mindate": "2022-09-10",
      "maxdate": "2024-11-07",
      "latitude": 35.074513,
      "name": "ALBUQUERQUE 3.2 SSE, NM US",
      "datacoverage": 0.1987,
      "id": "GHCND:US1NMBR0434",
      "elevationUnit": "METERS",
      "longitude": -106.602767
    },
    {
      "elevation": 1523.1,
      "mindate": "2022-09-16",
      "maxdate": "2024-11-18",
      "latitude": 35.175233,
      "name": "NORTH VALLEY 0.1 N, NM US",
      "datacoverage": 0.3296,
      "id": "GHCND:US1NMBR0435",
      "elevationUnit": "METERS",
      "longitude": -106.622813
    },
    {
      "elevation": 1765.1,
      "mindate": "2022-10-08",
      "maxdate": "2025-02-14",
      "latitude": 35.059464,
      "name": "ALBUQUERQUE 9.8 ESE, NM US",
      "datacoverage": 0.9267,
      "id": "GHCND:US1NMBR0436",
      "elevationUnit": "METERS",
      "longitude": -106.465774
    },
    {
      "elevation": 1970.2,
      "mindate": "2022-10-01",
      "maxdate": "2025-03-07",
      "latitude": 35.08406,
      "name": "TIJERAS 0.4 SE, NM US",
      "datacoverage": 0.973,
      "id": "GHCND:US1NMBR0437",
      "elevationUnit": "METERS",
      "longitude": -106.37083
    },
    {
      "elevation": 1642,
      "mindate": "2023-02-01",
      "maxdate": "2025-03-06",
      "latitude": 35.10345,
      "name": "ALBUQUERQUE 7.3 W, NM US",
      "datacoverage": 0.8231,
      "id": "GHCND:US1NMBR0441",
      "elevationUnit": "METERS",
      "longitude": -106.75187
    },
    {
      "elevation": 2277.8,
      "mindate": "2023-08-09",
      "maxdate": "2024-12-13",
      "latitude": 34.97313,
      "name": "TIJERAS 8.4 SSE, NM US",
      "datacoverage": 0.5716,
      "id": "GHCND:US1NMBR0447",
      "elevationUnit": "METERS",
      "longitude": -106.32855
    },
    {
      "elevation": 1703.8,
      "mindate": "2023-07-10",
      "maxdate": "2025-03-07",
      "latitude": 35.052557,
      "name": "ALBUQUERQUE 8.0 ESE, NM US",
      "datacoverage": 0.6112,
      "id": "GHCND:US1NMBR0449",
      "elevationUnit": "METERS",
      "longitude": -106.506269
    },
    {
      "elevation": 1501.1,
      "mindate": "2023-08-14",
      "maxdate": "2025-03-05",
      "latitude": 34.979752,
      "name": "ALBUQUERQUE 9.9 SSW, NM US",
      "datacoverage": 0.8362,
      "id": "GHCND:US1NMBR0450",
      "elevationUnit": "METERS",
      "longitude": -106.672089
    },
    {
      "elevation": 1690.4,
      "mindate": "2023-09-18",
      "maxdate": "2025-02-21",
      "latitude": 35.1185427,
      "name": "ALBUQUERQUE 5.4 E, NM US",
      "datacoverage": 0.891,
      "id": "GHCND:US1NMBR0452",
      "elevationUnit": "METERS",
      "longitude": -106.5292574
    },
    {
      "elevation": 2077.8,
      "mindate": "2023-10-21",
      "maxdate": "2025-03-05",
      "latitude": 35.09437,
      "name": "EDGEWOOD 4.8 W, NM US",
      "datacoverage": 0.5996,
      "id": "GHCND:US1NMBR0454",
      "elevationUnit": "METERS",
      "longitude": -106.2589
    },
    {
      "elevation": 1622.5,
      "mindate": "2023-10-24",
      "maxdate": "2025-02-20",
      "latitude": 35.09726,
      "name": "ALBUQUERQUE 4.0 ESE, NM US",
      "datacoverage": 0.9969,
      "id": "GHCND:US1NMBR0455",
      "elevationUnit": "METERS",
      "longitude": -106.55825
    },
    {
      "elevation": 1715.4,
      "mindate": "2023-12-21",
      "maxdate": "2025-03-07",
      "latitude": 35.044183,
      "name": "SANDIA 3.4 E, NM US",
      "datacoverage": 0.8736,
      "id": "GHCND:US1NMBR0456",
      "elevationUnit": "METERS",
      "longitude": -106.506263
    },
    {
      "elevation": 1494.4,
      "mindate": "2023-11-28",
      "maxdate": "2024-12-18",
      "latitude": 34.937469,
      "name": "ISLETA PUEBLO 3.8 N, NM US",
      "datacoverage": 1,
      "id": "GHCND:US1NMBR0457",
      "elevationUnit": "METERS",
      "longitude": -106.690137
    },
    {
      "elevation": 1517.9,
      "mindate": "2023-12-19",
      "maxdate": "2025-02-16",
      "latitude": 35.13927,
      "name": "ALBUQUERQUE 3.1 WNW, NM US",
      "datacoverage": 0.9032,
      "id": "GHCND:US1NMBR0458",
      "elevationUnit": "METERS",
      "longitude": -106.672844
    },
    {
      "elevation": 1914.4,
      "mindate": "2024-03-22",
      "maxdate": "2025-03-04",
      "latitude": 35.07654,
      "name": "TIJERAS 1.2 SW, NM US",
      "datacoverage": 0.9113,
      "id": "GHCND:US1NMBR0459",
      "elevationUnit": "METERS",
      "longitude": -106.390536
    },
    {
      "elevation": 1598.7,
      "mindate": "2024-04-20",
      "maxdate": "2025-03-07",
      "latitude": 35.07492,
      "name": "ALBUQUERQUE 3.1 SSE, NM US",
      "datacoverage": 0.9099,
      "id": "GHCND:US1NMBR0460",
      "elevationUnit": "METERS",
      "longitude": -106.6078
    },
    {
      "elevation": 1563,
      "mindate": "2024-08-01",
      "maxdate": "2025-03-07",
      "latitude": 35.170026,
      "name": "PARADISE HILLS 1.8 S, NM US",
      "datacoverage": 1,
      "id": "GHCND:US1NMBR0465",
      "elevationUnit": "METERS",
      "longitude": -106.691365
    },
    {
      "elevation": 1993.1,
      "mindate": "2005-04-01",
      "maxdate": "2021-05-25",
      "latitude": 35.2206,
      "name": "MILAN 2.2 N, NM US",
      "datacoverage": 0.9999,
      "id": "GHCND:US1NMCB0001",
      "elevationUnit": "METERS",
      "longitude": -107.8897
    },
    {
      "elevation": 1983,
      "mindate": "2005-10-01",
      "maxdate": "2007-09-05",
      "latitude": 35.167891,
      "name": "GRANTS 1.2 NNE, NM US",
      "datacoverage": 0.6671,
      "id": "GHCND:US1NMCB0003",
      "elevationUnit": "METERS",
      "longitude": -107.826867
    },
    {
      "elevation": 1998.9,
      "mindate": "2011-11-01",
      "maxdate": "2024-11-28",
      "latitude": 35.19184,
      "name": "MILAN 0.2 NNW, NM US",
      "datacoverage": 0.9986,
      "id": "GHCND:US1NMCB0004",
      "elevationUnit": "METERS",
      "longitude": -107.89295
    },
    {
      "elevation": 1979.1,
      "mindate": "2011-11-01",
      "maxdate": "2024-02-22",
      "latitude": 35.155419,
      "name": "GRANTS 1.0 W, NM US",
      "datacoverage": 1,
      "id": "GHCND:US1NMCB0005",
      "elevationUnit": "METERS",
      "longitude": -107.856239
    },
    {
      "elevation": 2019.6,
      "mindate": "2013-10-01",
      "maxdate": "2023-10-03",
      "latitude": 35.2549,
      "name": "BLUEWATER 0.3 E, NM US",
      "datacoverage": 0.6902,
      "id": "GHCND:US1NMCB0007",
      "elevationUnit": "METERS",
      "longitude": -107.979592
    },
    {
      "elevation": 1732.5,
      "mindate": "2019-03-13",
      "maxdate": "2021-01-05",
      "latitude": 35.007995,
      "name": "MESITA 0.6 ESE, NM US",
      "datacoverage": 0.391,
      "id": "GHCND:US1NMCB0012",
      "elevationUnit": "METERS",
      "longitude": -107.321362
    },
    {
      "elevation": 1887.9,
      "mindate": "2019-06-21",
      "maxdate": "2021-01-29",
      "latitude": 35.061472,
      "name": "MCCARTYS 0.6 W, NM US",
      "datacoverage": 0.9954,
      "id": "GHCND:US1NMCB0017",
      "elevationUnit": "METERS",
      "longitude": -107.680744
    },
    {
      "elevation": 2341.8,
      "mindate": "2001-11-07",
      "maxdate": "2022-01-30",
      "latitude": 35.0065,
      "name": "GRANTS 19.6 WSW, NM US",
      "datacoverage": 0.7454,
      "id": "GHCND:US1NMCB0026",
      "elevationUnit": "METERS",
      "longitude": -108.13534
    },
    {
      "elevation": 1987.9,
      "mindate": "2021-05-26",
      "maxdate": "2025-03-06",
      "latitude": 35.169662,
      "name": "GRANTS 1.6 NE, NM US",
      "datacoverage": 1,
      "id": "GHCND:US1NMCB0027",
      "elevationUnit": "METERS",
      "longitude": -107.817456
    },
    {
      "elevation": 2305.5,
      "mindate": "2021-06-28",
      "maxdate": "2023-08-27",
      "latitude": 35.278405,
      "name": "THOREAU 9.9 SSE, NM US",
      "datacoverage": 0.9819,
      "id": "GHCND:US1NMCB0028",
      "elevationUnit": "METERS",
      "longitude": -108.13367
    },
    {
      "elevation": 1887.6,
      "mindate": "2021-07-01",
      "maxdate": "2022-08-09",
      "latitude": 35.06138889,
      "name": "ACOMITA LAKE 3.9 W, NM US",
      "datacoverage": 0.96,
      "id": "GHCND:US1NMCB0029",
      "elevationUnit": "METERS",
      "longitude": -107.68083333
    },
    {
      "elevation": 2192.4,
      "mindate": "2023-06-17",
      "maxdate": "2025-03-07",
      "latitude": 35.14389,
      "name": "RAMAH 3.1 ENE, NM US",
      "datacoverage": 0.8524,
      "id": "GHCND:US1NMCB0032",
      "elevationUnit": "METERS",
      "longitude": -108.43904
    },
    {
      "elevation": 1127.2,
      "mindate": "2005-06-01",
      "maxdate": "2006-12-19",
      "latitude": 33.4371,
      "name": "ROSWELL 5.9 NW, NM US",
      "datacoverage": 0.998,
      "id": "GHCND:US1NMCH0002",
      "elevationUnit": "METERS",
      "longitude": -104.5948
    },
    {
      "elevation": 1200,
      "mindate": "2005-11-01",
      "maxdate": "2010-09-23",
      "latitude": 33.374331,
      "name": "ROSWELL 10.0 W, NM US",
      "datacoverage": 0.6783,
      "id": "GHCND:US1NMCH0003",
      "elevationUnit": "METERS",
      "longitude": -104.702233
    },
    {
      "elevation": 1090.9,
      "mindate": "2005-10-01",
      "maxdate": "2020-01-22",
      "latitude": 33.420165,
      "name": "ROSWELL 4.1 NNE, NM US",
      "datacoverage": 0.8882,
      "id": "GHCND:US1NMCH0004",
      "elevationUnit": "METERS",
      "longitude": -104.490337
    },
    {
      "elevation": 1107,
      "mindate": "2005-10-01",
      "maxdate": "2025-01-09",
      "latitude": 33.366548,
      "name": "ROSWELL 0.3 SSW, NM US",
      "datacoverage": 1,
      "id": "GHCND:US1NMCH0005",
      "elevationUnit": "METERS",
      "longitude": -104.531966
    },
    {
      "elevation": 1125.9,
      "mindate": "2006-03-01",
      "maxdate": "2012-02-16",
      "latitude": 33.473133,
      "name": "ROSWELL 7.6 NNW, NM US",
      "datacoverage": 0.9998,
      "id": "GHCND:US1NMCH0007",
      "elevationUnit": "METERS",
      "longitude": -104.577199
    },
    {
      "elevation": 1113.1,
      "mindate": "2006-12-01",
      "maxdate": "2021-08-10",
      "latitude": 33.394356,
      "name": "ROSWELL 3.5 WNW, NM US",
      "datacoverage": 0.9911,
      "id": "GHCND:US1NMCH0009",
      "elevationUnit": "METERS",
      "longitude": -104.583025
    },
    {
      "elevation": 1095.1,
      "mindate": "2010-08-01",
      "maxdate": "2025-03-02",
      "latitude": 33.621533,
      "name": "ROSWELL 17.4 N, NM US",
      "datacoverage": 0.9994,
      "id": "GHCND:US1NMCH0011",
      "elevationUnit": "METERS",
      "longitude": -104.50215
    },
    {
      "elevation": 1105.5,
      "mindate": "2015-02-01",
      "maxdate": "2015-08-19",
      "latitude": 33.364298,
      "name": "ROSWELL 0.5 S, NM US",
      "datacoverage": 1,
      "id": "GHCND:US1NMCH0015",
      "elevationUnit": "METERS",
      "longitude": -104.527427
    },
    {
      "elevation": 1096.4,
      "mindate": "2015-03-01",
      "maxdate": "2025-03-06",
      "latitude": 33.4195404499769,
      "name": "ROSWELL 3.4 NNE, NM US",
      "datacoverage": 0.998,
      "id": "GHCND:US1NMCH0018",
      "elevationUnit": "METERS",
      "longitude": -104.517182037234
    },
    {
      "elevation": 1099.7,
      "mindate": "2015-07-01",
      "maxdate": "2017-05-10",
      "latitude": 33.40564,
      "name": "ROSWELL 2.4 N, NM US",
      "datacoverage": 0.9925,
      "id": "GHCND:US1NMCH0020",
      "elevationUnit": "METERS",
      "longitude": -104.52861
    },
    {
      "elevation": 1437.4,
      "mindate": "2016-08-25",
      "maxdate": "2025-03-05",
      "latitude": 34.079856,
      "name": "ROSWELL 52.1 NNW, NM US",
      "datacoverage": 1,
      "id": "GHCND:US1NMCH0022",
      "elevationUnit": "METERS",
      "longitude": -104.836628
    },
    {
      "elevation": 1378.6,
      "mindate": "2016-09-07",
      "maxdate": "2025-03-07",
      "latitude": 33.9117088317871,
      "name": "ROSWELL 38.7 NNW, NM US",
      "datacoverage": 1,
      "id": "GHCND:US1NMCH0023",
      "elevationUnit": "METERS",
      "longitude": -104.706527709961
    },
    {
      "elevation": 1094.8,
      "mindate": "2017-03-23",
      "maxdate": "2025-03-01",
      "latitude": 33.44383,
      "name": "ROSWELL 5.1 N, NM US",
      "datacoverage": 1,
      "id": "GHCND:US1NMCH0024",
      "elevationUnit": "METERS",
      "longitude": -104.51511
    },
    {
      "elevation": 1098.8,
      "mindate": "2018-01-19",
      "maxdate": "2025-02-19",
      "latitude": 33.391354,
      "name": "ROSWELL 1.7 NW, NM US",
      "datacoverage": 0.9486,
      "id": "GHCND:US1NMCH0025",
      "elevationUnit": "METERS",
      "longitude": -104.54537
    },
    {
      "elevation": 1142.7,
      "mindate": "2018-04-18",
      "maxdate": "2024-11-19",
      "latitude": 33.718417,
      "name": "ROSWELL 27.5 NNE, NM US",
      "datacoverage": 0.8974,
      "id": "GHCND:US1NMCH0026",
      "elevationUnit": "METERS",
      "longitude": -104.295575
    },
    {
      "elevation": 1121.4,
      "mindate": "2015-06-07",
      "maxdate": "2025-03-07",
      "latitude": 33.650767,
      "name": "ROSWELL 19.3 N, NM US",
      "datacoverage": 0.7073,
      "id": "GHCND:US1NMCH0027",
      "elevationUnit": "METERS",
      "longitude": -104.53317
    },
    {
      "elevation": 1288.7,
      "mindate": "2018-06-26",
      "maxdate": "2021-07-07",
      "latitude": 33.851591,
      "name": "ROSWELL 35.6 NNW, NM US",
      "datacoverage": 0.7365,
      "id": "GHCND:US1NMCH0029",
      "elevationUnit": "METERS",
      "longitude": -104.750095
    },
    {
      "elevation": 1073.8,
      "mindate": "2018-12-13",
      "maxdate": "2025-03-07",
      "latitude": 33.376425,
      "name": "ROSWELL 5.5 E, NM US",
      "datacoverage": 0.9993,
      "id": "GHCND:US1NMCH0031",
      "elevationUnit": "METERS",
      "longitude": -104.434679
    },
    {
      "elevation": 1086,
      "mindate": "2018-12-01",
      "maxdate": "2025-02-28",
      "latitude": 33.39736,
      "name": "ROSWELL 2.0 NNE, NM US",
      "datacoverage": 1,
      "id": "GHCND:US1NMCH0032",
      "elevationUnit": "METERS",
      "longitude": -104.51385
    },
    {
      "elevation": 1106.1,
      "mindate": "2019-03-12",
      "maxdate": "2024-10-20",
      "latitude": 33.370286,
      "name": "ROSWELL 0.7 E, NM US",
      "datacoverage": 0.3979,
      "id": "GHCND:US1NMCH0034",
      "elevationUnit": "METERS",
      "longitude": -104.51691
    },
    {
      "elevation": 1308.2,
      "mindate": "2002-11-13",
      "maxdate": "2024-08-05",
      "latitude": 33.59035167,
      "name": "ROSWELL 25.3 NW, NM US",
      "datacoverage": 0.9993,
      "id": "GHCND:US1NMCH0036",
      "elevationUnit": "METERS",
      "longitude": -104.88150333
    },
    {
      "elevation": 1149.1,
      "mindate": "2019-06-22",
      "maxdate": "2025-02-19",
      "latitude": 33.758513,
      "name": "ROSWELL 28.5 NNE, NM US",
      "datacoverage": 0.9989,
      "id": "GHCND:US1NMCH0037",
      "elevationUnit": "METERS",
      "longitude": -104.362368
    },
    {
      "elevation": 1106.4,
      "mindate": "2019-07-09",
      "maxdate": "2025-03-07",
      "latitude": 33.4543946609459,
      "name": "ROSWELL 6.0 NNW, NM US",
      "datacoverage": 1,
      "id": "GHCND:US1NMCH0038",
      "elevationUnit": "METERS",
      "longitude": -104.559560036053
    },
    {
      "elevation": 1251.5,
      "mindate": "2022-08-01",
      "maxdate": "2024-11-18",
      "latitude": 33.71834,
      "name": "ROSWELL 40.5 NE, NM US",
      "datacoverage": 1,
      "id": "GHCND:US1NMCH0043",
      "elevationUnit": "METERS",
      "longitude": -103.96289
    },
    {
      "elevation": 1102.8,
      "mindate": "2004-02-07",
      "maxdate": "2025-03-07",
      "latitude": 33.445833,
      "name": "ROSWELL 5.2 N, NM US",
      "datacoverage": 0.7592,
      "id": "GHCND:US1NMCH0044",
      "elevationUnit": "METERS",
      "longitude": -104.53722
    },
    {
      "elevation": 1022.6,
      "mindate": "2023-09-11",
      "maxdate": "2025-03-07",
      "latitude": 32.987484,
      "name": "LAKE ARTHUR 2.5 ESE, NM US",
      "datacoverage": 1,
      "id": "GHCND:US1NMCH0046",
      "elevationUnit": "METERS",
      "longitude": -104.322973
    },
    {
      "elevation": 1110.7,
      "mindate": "2004-04-25",
      "maxdate": "2025-01-22",
      "latitude": 33.488772,
      "name": "ROSWELL 8.1 N, NM US",
      "datacoverage": 1,
      "id": "GHCND:US1NMCH0047",
      "elevationUnit": "METERS",
      "longitude": -104.537633
    },
    {
      "elevation": 3065.1,
      "mindate": "2005-02-01",
      "maxdate": "2022-07-24",
      "latitude": 36.266997,
      "name": "ANGEL FIRE 10.2 SSE, NM US",
      "datacoverage": 1,
      "id": "GHCND:US1NMCL0001",
      "elevationUnit": "METERS",
      "longitude": -105.178409
    },
    {
      "elevation": 1770.9,
      "mindate": "2006-05-01",
      "maxdate": "2010-03-19",
      "latitude": 36.358708,
      "name": "SPRINGER 0.5 S, NM US",
      "datacoverage": 0.9784,
      "id": "GHCND:US1NMCL0005",
      "elevationUnit": "METERS",
      "longitude": -104.594447
    },
    {
      "elevation": 2595.1,
      "mindate": "2006-06-01",
      "maxdate": "2024-05-01",
      "latitude": 36.387694,
      "name": "ANGEL FIRE 0.2 SSE, NM US",
      "datacoverage": 0.9999,
      "id": "GHCND:US1NMCL0006",
      "elevationUnit": "METERS",
      "longitude": -105.276667
    },
    {
      "elevation": 2062,
      "mindate": "2007-03-01",
      "maxdate": "2009-03-14",
      "latitude": 36.67526,
      "name": "RATON 16.2 SSE, NM US",
      "datacoverage": 0.499,
      "id": "GHCND:US1NMCL0008",
      "elevationUnit": "METERS",
      "longitude": -104.312267
    },
    {
      "elevation": 2015.3,
      "mindate": "2016-07-21",
      "maxdate": "2021-11-14",
      "latitude": 36.865028,
      "name": "RATON 1.5 SSW, NM US",
      "datacoverage": 0.4518,
      "id": "GHCND:US1NMCL0011",
      "elevationUnit": "METERS",
      "longitude": -104.446787
    },
    {
      "elevation": 2044,
      "mindate": "2017-08-01",
      "maxdate": "2025-03-05",
      "latitude": 36.900361,
      "name": "RATON 1.0 N, NM US",
      "datacoverage": 1,
      "id": "GHCND:US1NMCL0014",
      "elevationUnit": "METERS",
      "longitude": -104.443299
    },
    {
      "elevation": 1988.5,
      "mindate": "2018-06-08",
      "maxdate": "2021-10-11",
      "latitude": 36.8554232,
      "name": "RATON 2.2 SSW, NM US",
      "datacoverage": 0.9992,
      "id": "GHCND:US1NMCL0016",
      "elevationUnit": "METERS",
      "longitude": -104.4559268
    },
    {
      "elevation": 1896.2,
      "mindate": "2018-07-01",
      "maxdate": "2025-03-05",
      "latitude": 36.3469,
      "name": "SPRINGER 11.7 W, NM US",
      "datacoverage": 0.9336,
      "id": "GHCND:US1NMCL0017",
      "elevationUnit": "METERS",
      "longitude": -104.802142
    },
    {
      "elevation": 1778.5,
      "mindate": "2019-04-01",
      "maxdate": "2025-03-05",
      "latitude": 36.362075,
      "name": "SPRINGER 0.9 WSW, NM US",
      "datacoverage": 0.7078,
      "id": "GHCND:US1NMCL0018",
      "elevationUnit": "METERS",
      "longitude": -104.609283
    },
    {
      "elevation": 2014.4,
      "mindate": "2018-06-10",
      "maxdate": "2025-03-04",
      "latitude": 36.870582,
      "name": "RATON 1.1 S, NM US",
      "datacoverage": 1,
      "id": "GHCND:US1NMCL0019",
      "elevationUnit": "METERS",
      "longitude": -104.4392
    },
    {
      "elevation": 2615.5,
      "mindate": "2020-05-31",
      "maxdate": "2025-01-02",
      "latitude": 36.44583,
      "name": "ANGEL FIRE 4.1 NNW, NM US",
      "datacoverage": 0.8385,
      "id": "GHCND:US1NMCL0021",
      "elevationUnit": "METERS",
      "longitude": -105.303056
    },
    {
      "elevation": 2046.1,
      "mindate": "2022-06-10",
      "maxdate": "2024-11-05",
      "latitude": 36.45467,
      "name": "CIMARRON 4.6 SW, NM US",
      "datacoverage": 0.3074,
      "id": "GHCND:US1NMCL0024",
      "elevationUnit": "METERS",
      "longitude": -104.960296
    },
    {
      "elevation": 1271.9,
      "mindate": "2008-07-01",
      "maxdate": "2020-03-19",
      "latitude": 34.332787,
      "name": "CLOVIS 6.6 SE, NM US",
      "datacoverage": 0.5794,
      "id": "GHCND:US1NMCR0006",
      "elevationUnit": "METERS",
      "longitude": -103.135241
    },
    {
      "elevation": 1392.3,
      "mindate": "2010-09-01",
      "maxdate": "2018-12-26",
      "latitude": 34.8648219,
      "name": "BROADVIEW 2.7 N, NM US",
      "datacoverage": 1,
      "id": "GHCND:US1NMCR0010",
      "elevationUnit": "METERS",
      "longitude": -103.2107059
    },
    {
      "elevation": 1333.8,
      "mindate": "2012-03-01",
      "maxdate": "2014-06-18",
      "latitude": 34.435205,
      "name": "CLOVIS 6.5 WNW, NM US",
      "datacoverage": 1,
      "id": "GHCND:US1NMCR0013",
      "elevationUnit": "METERS",
      "longitude": -103.312385
    },
    {
      "elevation": 1321,
      "mindate": "2014-06-01",
      "maxdate": "2017-06-25",
      "latitude": 34.405415,
      "name": "CLOVIS 4.6 W, NM US",
      "datacoverage": 1,
      "id": "GHCND:US1NMCR0016",
      "elevationUnit": "METERS",
      "longitude": -103.282997
    },
    {
      "elevation": 1290.5,
      "mindate": "2014-11-18",
      "maxdate": "2025-01-10",
      "latitude": 34.41036389,
      "name": "CLOVIS 3.3 E, NM US",
      "datacoverage": 0.103,
      "id": "GHCND:US1NMCR0017",
      "elevationUnit": "METERS",
      "longitude": -103.1444444
    },
    {
      "elevation": 1272.2,
      "mindate": "2014-11-01",
      "maxdate": "2015-11-20",
      "latitude": 34.358896,
      "name": "CLOVIS 3.9 SSE, NM US",
      "datacoverage": 1,
      "id": "GHCND:US1NMCR0018",
      "elevationUnit": "METERS",
      "longitude": -103.173953
    },
    {
      "elevation": 1300.3,
      "mindate": "2014-11-01",
      "maxdate": "2018-08-03",
      "latitude": 34.422995,
      "name": "CLOVIS 2.6 ENE, NM US",
      "datacoverage": 1,
      "id": "GHCND:US1NMCR0019",
      "elevationUnit": "METERS",
      "longitude": -103.159795
    },
    {
      "elevation": 1327.7,
      "mindate": "2014-11-01",
      "maxdate": "2025-03-07",
      "latitude": 34.586034,
      "name": "TEXICO 13.6 N, NM US",
      "datacoverage": 1,
      "id": "GHCND:US1NMCR0020",
      "elevationUnit": "METERS",
      "longitude": -103.0732
    },
    {
      "elevation": 1313.7,
      "mindate": "2014-11-01",
      "maxdate": "2025-03-07",
      "latitude": 34.4386,
      "name": "CLOVIS 2.3 NNE, NM US",
      "datacoverage": 1,
      "id": "GHCND:US1NMCR0021",
      "elevationUnit": "METERS",
      "longitude": -103.1819
    },
    {
      "elevation": 1303.3,
      "mindate": "2014-11-01",
      "maxdate": "2021-02-12",
      "latitude": 34.420418,
      "name": "CLOVIS 1.1 NE, NM US",
      "datacoverage": 1,
      "id": "GHCND:US1NMCR0022",
      "elevationUnit": "METERS",
      "longitude": -103.188385
    }
  ]
}
