{
  "metadata": {
    "resultset": {
      "offset": 76000,
      "count": 154115,
      "limit": 100
    }
  },
  "results": [
    {
      "elevation": 363.9,
      "mindate": "2006-08-01",
      "maxdate": "2011-09-01",
      "latitude": 41.5182,
      "name": "BLAIR 2.1 SW, NE US",
      "datacoverage": 0.9194,
      "id": "GHCND:US10wash004",
      "elevationUnit": "METERS",
      "longitude": -96.1473
    },
    {
      "elevation": 388.9,
      "mindate": "2007-05-01",
      "maxdate": "2009-07-20",
      "latitude": 41.6764,
      "name": "HERMAN 5.2 W, NE US",
      "datacoverage": 0.7027,
      "id": "GHCND:US10wash005",
      "elevationUnit": "METERS",
      "longitude": -96.3155
    },
    {
      "elevation": 378,
      "mindate": "2007-06-01",
      "maxdate": "2018-09-04",
      "latitude": 41.4595,
      "name": "FORT CALHOUN 2.7 W, NE US",
      "datacoverage": 0.9998,
      "id": "GHCND:US10wash006",
      "elevationUnit": "METERS",
      "longitude": -96.0784
    },
    {
      "mindate": "2014-04-01",
      "maxdate": "2018-09-30",
      "latitude": 41.655229,
      "name": "HERMAN 9.1 W, NE US",
      "datacoverage": 0.6665,
      "id": "GHCND:US10wash010",
      "longitude": -96.388885
    },
    {
      "mindate": "2014-04-01",
      "maxdate": "2014-09-30",
      "latitude": 41.558395,
      "name": "BLAIR 5.1 W, NE US",
      "datacoverage": 0.998,
      "id": "GHCND:US10wash011",
      "longitude": -96.220652
    },
    {
      "mindate": "2014-05-01",
      "maxdate": "2015-09-30",
      "latitude": 41.477645,
      "name": "KENNARD 0.3 NNE, NE US",
      "datacoverage": 0.7051,
      "id": "GHCND:US10wash012",
      "longitude": -96.201601
    },
    {
      "mindate": "2015-07-01",
      "maxdate": "2019-09-02",
      "latitude": 41.543715,
      "name": "BLAIR 0.1 W, NE US",
      "datacoverage": 0.9925,
      "id": "GHCND:US10wash014",
      "longitude": -96.146509
    },
    {
      "elevation": 479.1,
      "mindate": "2006-06-01",
      "maxdate": "2010-07-22",
      "latitude": 42.221,
      "name": "WAYNE 3.1 E, NE US",
      "datacoverage": 0.5994,
      "id": "GHCND:US10wayn001",
      "elevationUnit": "METERS",
      "longitude": -96.9598
    },
    {
      "elevation": 440.1,
      "mindate": "2006-06-01",
      "maxdate": "2024-12-26",
      "latitude": 42.2361,
      "name": "WAYNE 0.7 ENE, NE US",
      "datacoverage": 0.9999,
      "id": "GHCND:US10wayn002",
      "elevationUnit": "METERS",
      "longitude": -97.0074
    },
    {
      "elevation": 455.1,
      "mindate": "2006-06-01",
      "maxdate": "2009-09-08",
      "latitude": 42.2444,
      "name": "WAYNE 1.1 NE, NE US",
      "datacoverage": 0.5998,
      "id": "GHCND:US10wayn003",
      "elevationUnit": "METERS",
      "longitude": -97.0067
    },
    {
      "elevation": 558.1,
      "mindate": "2006-06-01",
      "maxdate": "2013-11-17",
      "latitude": 42.1937,
      "name": "WINSIDE 6.3 W, NE US",
      "datacoverage": 0.6887,
      "id": "GHCND:US10wayn004",
      "elevationUnit": "METERS",
      "longitude": -97.2936
    },
    {
      "elevation": 548,
      "mindate": "2006-06-01",
      "maxdate": "2010-10-26",
      "latitude": 42.2179,
      "name": "WINSIDE 6.5 WNW, NE US",
      "datacoverage": 0.66,
      "id": "GHCND:US10wayn005",
      "elevationUnit": "METERS",
      "longitude": -97.2881
    },
    {
      "elevation": 513.9,
      "mindate": "2006-06-01",
      "maxdate": "2006-10-16",
      "latitude": 42.1108,
      "name": "HOSKINS 0.1 SSE, NE US",
      "datacoverage": 1,
      "id": "GHCND:US10wayn006",
      "elevationUnit": "METERS",
      "longitude": -97.3056
    },
    {
      "elevation": 515.1,
      "mindate": "2007-05-01",
      "maxdate": "2010-08-20",
      "latitude": 42.2136,
      "name": "WINSIDE 3.9 WNW, NE US",
      "datacoverage": 0.5993,
      "id": "GHCND:US10wayn007",
      "elevationUnit": "METERS",
      "longitude": -97.2326
    },
    {
      "elevation": 451.1,
      "mindate": "2008-10-01",
      "maxdate": "2014-06-02",
      "latitude": 42.2296,
      "name": "WAYNE 0.6 W, NE US",
      "datacoverage": 0.4498,
      "id": "GHCND:US10wayn008",
      "elevationUnit": "METERS",
      "longitude": -97.0294
    },
    {
      "mindate": "2013-09-01",
      "maxdate": "2019-04-04",
      "latitude": 42.218215,
      "name": "WINSIDE 7.5 NW, NE US",
      "datacoverage": 0.7101,
      "id": "GHCND:US10wayn010",
      "longitude": -97.288431
    },
    {
      "elevation": 598,
      "mindate": "2004-05-01",
      "maxdate": "2006-11-30",
      "latitude": 40.3357,
      "name": "BLUE HILL 2.2 W, NE US",
      "datacoverage": 0.7416,
      "id": "GHCND:US10webs001",
      "elevationUnit": "METERS",
      "longitude": -98.4907
    },
    {
      "elevation": 609.9,
      "mindate": "2004-05-01",
      "maxdate": "2017-05-03",
      "latitude": 40.3067,
      "name": "BLADEN 1.7 ESE, NE US",
      "datacoverage": 0.9993,
      "id": "GHCND:US10webs002",
      "elevationUnit": "METERS",
      "longitude": -98.5694
    },
    {
      "elevation": 584.9,
      "mindate": "2004-05-01",
      "maxdate": "2013-09-16",
      "latitude": 40.2637,
      "name": "LAWRENCE 4.2 WSW, NE US",
      "datacoverage": 0.5309,
      "id": "GHCND:US10webs003",
      "elevationUnit": "METERS",
      "longitude": -98.331
    },
    {
      "mindate": "2004-05-01",
      "maxdate": "2004-12-23",
      "latitude": 40.2972,
      "name": "CAMPBELL 0.3 ESE, NE US",
      "datacoverage": 0.998,
      "id": "GHCND:US10webs004",
      "longitude": -98.7267
    },
    {
      "elevation": 499.9,
      "mindate": "2004-06-01",
      "maxdate": "2005-07-18",
      "latitude": 40.0625,
      "name": "GUIDE ROCK 1.3 WSW, NE US",
      "datacoverage": 0.7145,
      "id": "GHCND:US10webs005",
      "elevationUnit": "METERS",
      "longitude": -98.35
    },
    {
      "elevation": 554.1,
      "mindate": "2004-06-01",
      "maxdate": "2006-10-07",
      "latitude": 40.026,
      "name": "INAVALE 4.9 SSW, NE US",
      "datacoverage": 0.9307,
      "id": "GHCND:US10webs007",
      "elevationUnit": "METERS",
      "longitude": -98.6892
    },
    {
      "elevation": 541,
      "mindate": "2004-06-01",
      "maxdate": "2014-01-31",
      "latitude": 40.1045,
      "name": "RED CLOUD 1.1 N, NE US",
      "datacoverage": 0.9996,
      "id": "GHCND:US10webs008",
      "elevationUnit": "METERS",
      "longitude": -98.5204
    },
    {
      "elevation": 616.9,
      "mindate": "2004-06-01",
      "maxdate": "2021-05-19",
      "latitude": 40.2786,
      "name": "BLADEN 4.4 SW, NE US",
      "datacoverage": 1,
      "id": "GHCND:US10webs009",
      "elevationUnit": "METERS",
      "longitude": -98.6577
    },
    {
      "elevation": 584,
      "mindate": "2004-06-01",
      "maxdate": "2019-10-02",
      "latitude": 40.2422,
      "name": "LAWRENCE 3.8 SSW, NE US",
      "datacoverage": 0.3959,
      "id": "GHCND:US10webs010",
      "elevationUnit": "METERS",
      "longitude": -98.2928
    },
    {
      "elevation": 583.1,
      "mindate": "2004-06-01",
      "maxdate": "2007-02-20",
      "latitude": 40.2083,
      "name": "GUIDE ROCK 9.2 N, NE US",
      "datacoverage": 1,
      "id": "GHCND:US10webs011",
      "elevationUnit": "METERS",
      "longitude": -98.3293
    },
    {
      "elevation": 516.9,
      "mindate": "2006-09-01",
      "maxdate": "2025-03-07",
      "latitude": 40.0891,
      "name": "RED CLOUD 4.3 E, NE US",
      "datacoverage": 1,
      "id": "GHCND:US10webs013",
      "elevationUnit": "METERS",
      "longitude": -98.4366
    },
    {
      "elevation": 613.9,
      "mindate": "2007-01-01",
      "maxdate": "2007-10-05",
      "latitude": 40.2109,
      "name": "BLADEN 8.7 SW, NE US",
      "datacoverage": 1,
      "id": "GHCND:US10webs014",
      "elevationUnit": "METERS",
      "longitude": -98.6741
    },
    {
      "elevation": 568.1,
      "mindate": "2007-04-01",
      "maxdate": "2017-10-14",
      "latitude": 40.3144,
      "name": "LAWRENCE 1.7 NNW, NE US",
      "datacoverage": 0.8473,
      "id": "GHCND:US10webs015",
      "elevationUnit": "METERS",
      "longitude": -98.2739
    },
    {
      "mindate": "2009-07-01",
      "maxdate": "2024-11-27",
      "latitude": 40.3362,
      "name": "BLUE HILL 4.0 E, NE US",
      "datacoverage": 0.9995,
      "id": "GHCND:US10webs018",
      "longitude": -98.3725
    },
    {
      "mindate": "2010-08-01",
      "maxdate": "2019-01-12",
      "latitude": 40.279894,
      "name": "BLUE HILL 5.0 SW, NE US",
      "datacoverage": 0.9999,
      "id": "GHCND:US10webs019",
      "longitude": -98.515799
    },
    {
      "mindate": "2014-05-22",
      "maxdate": "2025-02-19",
      "latitude": 40.071669,
      "name": "GUIDE ROCK 0.2 SSE, NE US",
      "datacoverage": 0.1732,
      "id": "GHCND:US10webs020",
      "longitude": -98.329278
    },
    {
      "mindate": "2015-05-23",
      "maxdate": "2024-11-19",
      "latitude": 40.283336,
      "name": "BLUE HILL 4.7 SE, NE US",
      "datacoverage": 0.1245,
      "id": "GHCND:US10webs021",
      "longitude": -98.385905
    },
    {
      "mindate": "2015-09-18",
      "maxdate": "2021-10-13",
      "latitude": 40.32779,
      "name": "BLUE HILL 0.3 SSW, NE US",
      "datacoverage": 0.9819,
      "id": "GHCND:US10webs022",
      "longitude": -98.44999
    },
    {
      "elevation": 645,
      "mindate": "2004-08-01",
      "maxdate": "2015-04-10",
      "latitude": 41.9939,
      "name": "BARTLETT 8.6 NW, NE US",
      "datacoverage": 1,
      "id": "GHCND:US10whee001",
      "elevationUnit": "METERS",
      "longitude": -98.6327
    },
    {
      "elevation": 627,
      "mindate": "2004-08-01",
      "maxdate": "2018-11-13",
      "latitude": 41.9864,
      "name": "BARTLETT 9 NE, NE US",
      "datacoverage": 1,
      "id": "GHCND:US10whee002",
      "elevationUnit": "METERS",
      "longitude": -98.5104
    },
    {
      "elevation": 604.1,
      "mindate": "2004-08-01",
      "maxdate": "2011-12-31",
      "latitude": 41.9032,
      "name": "BARTLETT 11.4 E, NE US",
      "datacoverage": 1,
      "id": "GHCND:US10whee003",
      "elevationUnit": "METERS",
      "longitude": -98.3348
    },
    {
      "elevation": 607.2,
      "mindate": "2004-08-01",
      "maxdate": "2005-11-03",
      "latitude": 41.7439,
      "name": "SPALDING 5.3 NW, NE US",
      "datacoverage": 1,
      "id": "GHCND:US10whee004",
      "elevationUnit": "METERS",
      "longitude": -98.4331
    },
    {
      "elevation": 645,
      "mindate": "2005-11-01",
      "maxdate": "2025-03-06",
      "latitude": 41.7779,
      "name": "SPALDING 6.2 N, NE US",
      "datacoverage": 0.8362,
      "id": "GHCND:US10whee006",
      "elevationUnit": "METERS",
      "longitude": -98.3759
    },
    {
      "elevation": 626.1,
      "mindate": "2006-09-01",
      "maxdate": "2023-07-31",
      "latitude": 42.0522,
      "name": "EWING 17.4 SW, NE US",
      "datacoverage": 0.7208,
      "id": "GHCND:US10whee007",
      "elevationUnit": "METERS",
      "longitude": -98.5398
    },
    {
      "elevation": 670,
      "mindate": "2008-06-01",
      "maxdate": "2011-10-10",
      "latitude": 41.8811,
      "name": "BARTLETT 0.4 SE, NE US",
      "datacoverage": 0.7561,
      "id": "GHCND:US10whee009",
      "elevationUnit": "METERS",
      "longitude": -98.5488
    },
    {
      "elevation": 673.9,
      "mindate": "2008-06-01",
      "maxdate": "2010-12-11",
      "latitude": 41.9058,
      "name": "BARTLETT 7.3 W, NE US",
      "datacoverage": 0.6653,
      "id": "GHCND:US10whee010",
      "elevationUnit": "METERS",
      "longitude": -98.6898
    },
    {
      "elevation": 502.9,
      "mindate": "2004-04-01",
      "maxdate": "2024-11-19",
      "latitude": 40.8683,
      "name": "YORK 1.0 E, NE US",
      "datacoverage": 0.7708,
      "id": "GHCND:US10york002",
      "elevationUnit": "METERS",
      "longitude": -97.574
    },
    {
      "elevation": 499.9,
      "mindate": "2010-03-01",
      "maxdate": "2017-03-22",
      "latitude": 40.862163,
      "name": "YORK 0.6 SW, NE US",
      "datacoverage": 0.7244,
      "id": "GHCND:US10york003",
      "elevationUnit": "METERS",
      "longitude": -97.593465
    },
    {
      "elevation": 527.9,
      "mindate": "2004-05-01",
      "maxdate": "2025-03-05",
      "latitude": 41.0186,
      "name": "BENEDICT 3.5 W, NE US",
      "datacoverage": 0.9999,
      "id": "GHCND:US10york008",
      "elevationUnit": "METERS",
      "longitude": -97.672
    },
    {
      "elevation": 484,
      "mindate": "2004-05-01",
      "maxdate": "2010-11-05",
      "latitude": 40.745,
      "name": "MCCOOL JUNCTION 0.2 WNW, NE US",
      "datacoverage": 0.9999,
      "id": "GHCND:US10york009",
      "elevationUnit": "METERS",
      "longitude": -97.6008
    },
    {
      "elevation": 502.9,
      "mindate": "2004-05-01",
      "maxdate": "2007-12-01",
      "latitude": 40.8573,
      "name": "YORK 0.9 SW, NE US",
      "datacoverage": 0.7496,
      "id": "GHCND:US10york010",
      "elevationUnit": "METERS",
      "longitude": -97.6025
    },
    {
      "elevation": 505.1,
      "mindate": "2004-05-01",
      "maxdate": "2024-11-10",
      "latitude": 40.9149,
      "name": "YORK 3.5 NNE, NE US",
      "datacoverage": 0.6546,
      "id": "GHCND:US10york011",
      "elevationUnit": "METERS",
      "longitude": -97.5677
    },
    {
      "elevation": 508.1,
      "mindate": "2004-05-01",
      "maxdate": "2015-09-10",
      "latitude": 40.889,
      "name": "YORK 4.6 WNW, NE US",
      "datacoverage": 0.499,
      "id": "GHCND:US10york012",
      "elevationUnit": "METERS",
      "longitude": -97.6761
    },
    {
      "elevation": 460.9,
      "mindate": "2004-03-01",
      "maxdate": "2016-08-02",
      "latitude": 40.739081,
      "name": "EXETER 7.3 NNE, NE US",
      "datacoverage": 0.8964,
      "id": "GHCND:US10york014",
      "elevationUnit": "METERS",
      "longitude": -97.406783
    },
    {
      "elevation": 506,
      "mindate": "2004-05-01",
      "maxdate": "2010-08-24",
      "latitude": 40.8765,
      "name": "YORK 0.6 NNE, NE US",
      "datacoverage": 0.3336,
      "id": "GHCND:US10york015",
      "elevationUnit": "METERS",
      "longitude": -97.5904
    },
    {
      "elevation": 495.9,
      "mindate": "2004-05-01",
      "maxdate": "2024-06-19",
      "latitude": 41.0435,
      "name": "GRESHAM 1.7 WNW, NE US",
      "datacoverage": 0.5971,
      "id": "GHCND:US10york017",
      "elevationUnit": "METERS",
      "longitude": -97.427
    },
    {
      "elevation": 502,
      "mindate": "2004-05-01",
      "maxdate": "2009-10-06",
      "latitude": 40.8431,
      "name": "YORK 1.9 SSE, NE US",
      "datacoverage": 1,
      "id": "GHCND:US10york018",
      "elevationUnit": "METERS",
      "longitude": -97.5786
    },
    {
      "elevation": 490.1,
      "mindate": "2004-05-01",
      "maxdate": "2025-03-07",
      "latitude": 40.8868,
      "name": "WACO 3.6 E, NE US",
      "datacoverage": 0.9404,
      "id": "GHCND:US10york019",
      "elevationUnit": "METERS",
      "longitude": -97.3948
    },
    {
      "elevation": 524.9,
      "mindate": "2004-05-01",
      "maxdate": "2024-12-20",
      "latitude": 40.9758,
      "name": "BRADSHAW 6.4 N, NE US",
      "datacoverage": 1,
      "id": "GHCND:US10york020",
      "elevationUnit": "METERS",
      "longitude": -97.7336
    },
    {
      "elevation": 495.9,
      "mindate": "2004-05-01",
      "maxdate": "2006-10-12",
      "latitude": 41.0284,
      "name": "GRESHAM 0.2 E, NE US",
      "datacoverage": 0.7659,
      "id": "GHCND:US10york022",
      "elevationUnit": "METERS",
      "longitude": -97.3984
    },
    {
      "elevation": 502.9,
      "mindate": "2004-05-01",
      "maxdate": "2024-12-31",
      "latitude": 41.0357,
      "name": "STROMSBURG 6.8 SE, NE US",
      "datacoverage": 0.9995,
      "id": "GHCND:US10york023",
      "elevationUnit": "METERS",
      "longitude": -97.5205
    },
    {
      "elevation": 524.9,
      "mindate": "2004-05-01",
      "maxdate": "2025-02-15",
      "latitude": 40.816,
      "name": "HENDERSON 2.5 N, NE US",
      "datacoverage": 0.7372,
      "id": "GHCND:US10york024",
      "elevationUnit": "METERS",
      "longitude": -97.806
    },
    {
      "elevation": 502,
      "mindate": "2004-06-01",
      "maxdate": "2010-08-29",
      "latitude": 40.8831,
      "name": "YORK 3.3 WNW, NE US",
      "datacoverage": 0.9999,
      "id": "GHCND:US10york025",
      "elevationUnit": "METERS",
      "longitude": -97.6515
    },
    {
      "elevation": 516.9,
      "mindate": "2004-06-01",
      "maxdate": "2007-10-24",
      "latitude": 40.8121,
      "name": "HENDERSON 4.6 ENE, NE US",
      "datacoverage": 0.7561,
      "id": "GHCND:US10york026",
      "elevationUnit": "METERS",
      "longitude": -97.7354
    },
    {
      "elevation": 485.9,
      "mindate": "2004-06-01",
      "maxdate": "2024-10-29",
      "latitude": 40.8504,
      "name": "WACO 4.3 SE, NE US",
      "datacoverage": 0.9859,
      "id": "GHCND:US10york027",
      "elevationUnit": "METERS",
      "longitude": -97.4069
    },
    {
      "elevation": 512.1,
      "mindate": "2005-03-01",
      "maxdate": "2016-11-10",
      "latitude": 40.793,
      "name": "HENDERSON 3.4 ENE, NE US",
      "datacoverage": 0.6743,
      "id": "GHCND:US10york028",
      "elevationUnit": "METERS",
      "longitude": -97.7499
    },
    {
      "elevation": 499.9,
      "mindate": "2007-05-01",
      "maxdate": "2021-09-30",
      "latitude": 40.8584,
      "name": "YORK 1.0 ESE, NE US",
      "datacoverage": 0.7473,
      "id": "GHCND:US10york029",
      "elevationUnit": "METERS",
      "longitude": -97.5774
    },
    {
      "elevation": 516.9,
      "mindate": "2007-08-01",
      "maxdate": "2008-11-09",
      "latitude": 41.0261,
      "name": "BRADSHAW 10.1 NNE, NE US",
      "datacoverage": 0.6237,
      "id": "GHCND:US10york031",
      "elevationUnit": "METERS",
      "longitude": -97.7034
    },
    {
      "elevation": 499.9,
      "mindate": "2008-04-01",
      "maxdate": "2012-10-25",
      "latitude": 40.9538,
      "name": "YORK 6.9 NE, NE US",
      "datacoverage": 0.7269,
      "id": "GHCND:US10york032",
      "elevationUnit": "METERS",
      "longitude": -97.5226
    },
    {
      "mindate": "2011-06-01",
      "maxdate": "2018-09-25",
      "latitude": 40.9234,
      "name": "YORK 4.0 NNW, NE US",
      "datacoverage": 0.9986,
      "id": "GHCND:US10york033",
      "longitude": -97.6173
    },
    {
      "mindate": "2009-10-01",
      "maxdate": "2025-03-07",
      "latitude": 40.751,
      "name": "MCCOOL JUNCTION 1.1 ENE, NE US",
      "datacoverage": 1,
      "id": "GHCND:US10york034",
      "longitude": -97.5785
    },
    {
      "mindate": "2010-04-01",
      "maxdate": "2015-06-06",
      "latitude": 40.800296,
      "name": "YORK 4.9 SSW, NE US",
      "datacoverage": 0.9368,
      "id": "GHCND:US10york035",
      "longitude": -97.62198
    },
    {
      "mindate": "2010-07-01",
      "maxdate": "2024-11-13",
      "latitude": 40.734039,
      "name": "MCCOOL JUNCTION 0.7 S, NE US",
      "datacoverage": 0.7844,
      "id": "GHCND:US10york036",
      "longitude": -97.598011
    },
    {
      "mindate": "2010-07-01",
      "maxdate": "2012-04-16",
      "latitude": 40.858674,
      "name": "YORK 1.0 WSW, NE US",
      "datacoverage": 0.8455,
      "id": "GHCND:US10york037",
      "longitude": -97.607463
    },
    {
      "mindate": "2011-02-01",
      "maxdate": "2016-05-11",
      "latitude": 41.007875,
      "name": "BENEDICT 0.2 NE, NE US",
      "datacoverage": 1,
      "id": "GHCND:US10york039",
      "longitude": -97.605011
    },
    {
      "mindate": "2011-07-01",
      "maxdate": "2014-06-02",
      "latitude": 40.858674,
      "name": "YORK 1.0 WSW, NE US",
      "datacoverage": 0.5451,
      "id": "GHCND:US10york040",
      "longitude": -97.607463
    },
    {
      "mindate": "2013-09-01",
      "maxdate": "2017-03-25",
      "latitude": 40.898748,
      "name": "YORK 2.1 N, NE US",
      "datacoverage": 0.6788,
      "id": "GHCND:US10york041",
      "longitude": -97.592758
    },
    {
      "mindate": "2014-05-01",
      "maxdate": "2024-11-09",
      "latitude": 40.930286,
      "name": "BRADSHAW 4.1 NW, NE US",
      "datacoverage": 0.7381,
      "id": "GHCND:US10york042",
      "longitude": -97.79734
    },
    {
      "mindate": "2017-05-16",
      "maxdate": "2024-11-19",
      "latitude": 40.876687,
      "name": "YORK 1.1 ENE, NE US",
      "datacoverage": 0.1362,
      "id": "GHCND:US10york044",
      "longitude": -97.573797
    },
    {
      "mindate": "2017-05-11",
      "maxdate": "2025-03-07",
      "latitude": 40.887974,
      "name": "YORK 1.4 N, NE US",
      "datacoverage": 0.6477,
      "id": "GHCND:US10york045",
      "longitude": -97.589361
    },
    {
      "elevation": 70.1,
      "mindate": "2007-04-01",
      "maxdate": "2010-08-31",
      "latitude": 61.20468,
      "name": "ANCHORAGE 4.8 E, AK US",
      "datacoverage": 0.838,
      "id": "GHCND:US1AKAB0001",
      "elevationUnit": "METERS",
      "longitude": -149.75633
    },
    {
      "elevation": 80.8,
      "mindate": "2007-04-01",
      "maxdate": "2008-05-16",
      "latitude": 61.192639,
      "name": "ANCHORAGE 5.2 SE, AK US",
      "datacoverage": 0.9267,
      "id": "GHCND:US1AKAB0003",
      "elevationUnit": "METERS",
      "longitude": -149.754219
    },
    {
      "mindate": "2007-05-01",
      "maxdate": "2008-07-11",
      "latitude": 61.109394,
      "name": "ANCHORAGE 8.7 SSE, AK US",
      "datacoverage": 0.6617,
      "id": "GHCND:US1AKAB0004",
      "longitude": -149.770071
    },
    {
      "elevation": 12.5,
      "mindate": "2007-05-01",
      "maxdate": "2008-03-11",
      "latitude": 61.193417,
      "name": "ANCHORAGE 2.8 SW, AK US",
      "datacoverage": 0.9965,
      "id": "GHCND:US1AKAB0006",
      "elevationUnit": "METERS",
      "longitude": -149.968175
    },
    {
      "mindate": "2007-05-01",
      "maxdate": "2010-07-20",
      "latitude": 61.1,
      "name": "ANCHORAGE 8.6 SSE, AK US",
      "datacoverage": 0.9992,
      "id": "GHCND:US1AKAB0007",
      "longitude": -149.82
    },
    {
      "mindate": "2007-06-01",
      "maxdate": "2015-10-01",
      "latitude": 61.417625,
      "name": "KNIK 10.0 ESE, AK US",
      "datacoverage": 0.915,
      "id": "GHCND:US1AKAB0008",
      "longitude": -149.447744
    },
    {
      "mindate": "2007-05-01",
      "maxdate": "2011-06-11",
      "latitude": 61.185228,
      "name": "ANCHORAGE 6.4 ESE, AK US",
      "datacoverage": 0.9566,
      "id": "GHCND:US1AKAB0009",
      "longitude": -149.720464
    },
    {
      "elevation": 88.1,
      "mindate": "2007-06-01",
      "maxdate": "2011-08-25",
      "latitude": 60.95117,
      "name": "ANCHORAGE 31.7 SE, AK US",
      "datacoverage": 0.9996,
      "id": "GHCND:US1AKAB0012",
      "elevationUnit": "METERS",
      "longitude": -149.12782
    },
    {
      "elevation": 60,
      "mindate": "2007-07-01",
      "maxdate": "2008-10-31",
      "latitude": 61.1606,
      "name": "ANCHORAGE 5.1 SE, AK US",
      "datacoverage": 0.998,
      "id": "GHCND:US1AKAB0014",
      "elevationUnit": "METERS",
      "longitude": -149.8067
    },
    {
      "elevation": 68.9,
      "mindate": "2007-07-19",
      "maxdate": "2023-07-20",
      "latitude": 61.194492,
      "name": "ANCHORAGE 5.0 ESE, AK US",
      "datacoverage": 0.2502,
      "id": "GHCND:US1AKAB0015",
      "elevationUnit": "METERS",
      "longitude": -149.757292
    },
    {
      "elevation": 243.5,
      "mindate": "2008-03-01",
      "maxdate": "2025-03-04",
      "latitude": 61.312243,
      "name": "EAGLE RIVER 2.6 ESE, AK US",
      "datacoverage": 0.9998,
      "id": "GHCND:US1AKAB0021",
      "elevationUnit": "METERS",
      "longitude": -149.495798
    },
    {
      "elevation": 193.2,
      "mindate": "1998-06-01",
      "maxdate": "2014-09-06",
      "latitude": 61.28687,
      "name": "EAGLE RIVER 6.2 ESE, AK US",
      "datacoverage": 0.5537,
      "id": "GHCND:US1AKAB0022",
      "elevationUnit": "METERS",
      "longitude": -149.39447
    },
    {
      "elevation": 583.4,
      "mindate": "2008-08-01",
      "maxdate": "2011-02-12",
      "latitude": 61.23777,
      "name": "EAGLE RIVER 7.0 SE, AK US",
      "datacoverage": 0.9693,
      "id": "GHCND:US1AKAB0023",
      "elevationUnit": "METERS",
      "longitude": -149.454312
    },
    {
      "elevation": 349.6,
      "mindate": "2008-11-01",
      "maxdate": "2009-06-18",
      "latitude": 61.103893,
      "name": "ANCHORAGE 9.7 SE, AK US",
      "datacoverage": 1,
      "id": "GHCND:US1AKAB0027",
      "elevationUnit": "METERS",
      "longitude": -149.729597
    },
    {
      "elevation": 417.9,
      "mindate": "2008-11-01",
      "maxdate": "2016-12-01",
      "latitude": 61.061381,
      "name": "ANCHORAGE 11.9 SSE, AK US",
      "datacoverage": 0.9891,
      "id": "GHCND:US1AKAB0028",
      "elevationUnit": "METERS",
      "longitude": -149.752435
    },
    {
      "elevation": 40.8,
      "mindate": "2008-11-01",
      "maxdate": "2012-10-02",
      "latitude": 61.205909,
      "name": "ANCHORAGE 3.1 ESE, AK US",
      "datacoverage": 0.9792,
      "id": "GHCND:US1AKAB0030",
      "elevationUnit": "METERS",
      "longitude": -149.811173
    },
    {
      "elevation": 78,
      "mindate": "2008-12-01",
      "maxdate": "2013-01-18",
      "latitude": 61.365941,
      "name": "EAGLE RIVER 3.1 NNE, AK US",
      "datacoverage": 0.8993,
      "id": "GHCND:US1AKAB0034",
      "elevationUnit": "METERS",
      "longitude": -149.550082
    },
    {
      "mindate": "2009-01-01",
      "maxdate": "2012-05-02",
      "latitude": 61.192498,
      "name": "ANCHORAGE 5.0 ESE, AK US",
      "datacoverage": 1,
      "id": "GHCND:US1AKAB0036",
      "longitude": -149.759966
    },
    {
      "elevation": 657.1,
      "mindate": "2009-07-01",
      "maxdate": "2025-03-06",
      "latitude": 61.22724,
      "name": "EAGLE RIVER 7.8 SE, AK US",
      "datacoverage": 0.8644,
      "id": "GHCND:US1AKAB0038",
      "elevationUnit": "METERS",
      "longitude": -149.44008
    },
    {
      "elevation": 58.2,
      "mindate": "2013-01-01",
      "maxdate": "2018-12-28",
      "latitude": 61.4069175720215,
      "name": "CHUGIAK 0.8, AK US",
      "datacoverage": 0.9496,
      "id": "GHCND:US1AKAB0048",
      "elevationUnit": "METERS",
      "longitude": -149.487243652344
    },
    {
      "elevation": 68.3,
      "mindate": "2014-10-20",
      "maxdate": "2025-01-09",
      "latitude": 61.2130247801542,
      "name": "ANCHORAGE 4.5 E, AK US",
      "datacoverage": 0.1154,
      "id": "GHCND:US1AKAB0051",
      "elevationUnit": "METERS",
      "longitude": -149.764878675342
    },
    {
      "elevation": 35.4,
      "mindate": "2015-09-01",
      "maxdate": "2025-03-06",
      "latitude": 61.1529,
      "name": "ANCHORAGE 4.7 SSW, AK US",
      "datacoverage": 1,
      "id": "GHCND:US1AKAB0052",
      "elevationUnit": "METERS",
      "longitude": -149.9346
    },
    {
      "elevation": 67.1,
      "mindate": "2016-06-19",
      "maxdate": "2023-06-06",
      "latitude": 61.111287,
      "name": "ANCHORAGE 7.6 SSE, AK US",
      "datacoverage": 0.9045,
      "id": "GHCND:US1AKAB0055",
      "elevationUnit": "METERS",
      "longitude": -149.845998
    },
    {
      "elevation": 20.1,
      "mindate": "2018-03-10",
      "maxdate": "2019-01-03",
      "latitude": 61.189801,
      "name": "ANCHORAGE 2.6 SW, AK US",
      "datacoverage": 0.8067,
      "id": "GHCND:US1AKAB0058",
      "elevationUnit": "METERS",
      "longitude": -149.949212
    }
  ]
}
