{
  "metadata": {
    "resultset": {
      "offset": 120100,
      "count": 154115,
      "limit": 100
    }
  },
  "results": [
    {
      "elevation": 22.3,
      "mindate": "2023-12-26",
      "maxdate": "2025-03-07",
      "latitude": 37.28097,
      "name": "WILLIAMSBURG 0.8 NNW, VA US",
      "datacoverage": 0.8402,
      "id": "GHCND:US1VAYR0032",
      "elevationUnit": "METERS",
      "longitude": -76.71101
    },
    {
      "elevation": 18.3,
      "mindate": "2004-05-12",
      "maxdate": "2025-03-07",
      "latitude": 37.36774,
      "name": "WILLIAMSBURG 6.8 N, VA US",
      "datacoverage": 0.9819,
      "id": "GHCND:US1VAYR0033",
      "elevationUnit": "METERS",
      "longitude": -76.72271
    },
    {
      "elevation": 66.1,
      "mindate": "2009-04-01",
      "maxdate": "2021-06-04",
      "latitude": 44.0468,
      "name": "ADDISON 3.6 SW, VT US",
      "datacoverage": 0.9819,
      "id": "GHCND:US1VTAD0001",
      "elevationUnit": "METERS",
      "longitude": -73.3441
    },
    {
      "elevation": 407.8,
      "mindate": "2009-04-01",
      "maxdate": "2012-01-22",
      "latitude": 44.13254,
      "name": "LINCOLN 2.2 NW, VT US",
      "datacoverage": 0.9989,
      "id": "GHCND:US1VTAD0002",
      "elevationUnit": "METERS",
      "longitude": -73.02003
    },
    {
      "elevation": 85.3,
      "mindate": "2009-04-01",
      "maxdate": "2025-03-06",
      "latitude": 43.811889,
      "name": "ORWELL 1.2 WNW, VT US",
      "datacoverage": 0.9166,
      "id": "GHCND:US1VTAD0005",
      "elevationUnit": "METERS",
      "longitude": -73.319709
    },
    {
      "elevation": 31.7,
      "mindate": "2009-04-01",
      "maxdate": "2010-12-14",
      "latitude": 44.0788963,
      "name": "ADDISON 5.5 W, VT US",
      "datacoverage": 0.9987,
      "id": "GHCND:US1VTAD0006",
      "elevationUnit": "METERS",
      "longitude": -73.4128666
    },
    {
      "elevation": 325.2,
      "mindate": "2009-08-01",
      "maxdate": "2017-04-30",
      "latitude": 44.086667,
      "name": "LINCOLN 1.6 SE, VT US",
      "datacoverage": 1,
      "id": "GHCND:US1VTAD0007",
      "elevationUnit": "METERS",
      "longitude": -72.980233
    },
    {
      "elevation": 355.4,
      "mindate": "2013-06-01",
      "maxdate": "2014-09-08",
      "latitude": 44.2836799,
      "name": "STARKSBORO 4.7 NNE, VT US",
      "datacoverage": 0.6617,
      "id": "GHCND:US1VTAD0008",
      "elevationUnit": "METERS",
      "longitude": -73.004822
    },
    {
      "elevation": 161.5,
      "mindate": "2013-04-01",
      "maxdate": "2017-08-02",
      "latitude": 43.943,
      "name": "SALISBURY 3.3 N, VT US",
      "datacoverage": 0.7145,
      "id": "GHCND:US1VTAD0010",
      "elevationUnit": "METERS",
      "longitude": -73.088
    },
    {
      "elevation": 90.2,
      "mindate": "2016-09-23",
      "maxdate": "2017-12-13",
      "latitude": 44.047791,
      "name": "ADDISON 2.9 S, VT US",
      "datacoverage": 0.2975,
      "id": "GHCND:US1VTAD0015",
      "elevationUnit": "METERS",
      "longitude": -73.293308
    },
    {
      "elevation": 151.5,
      "mindate": "2016-09-17",
      "maxdate": "2025-03-07",
      "latitude": 44.10056,
      "name": "NEW HAVEN 2.4 SE, VT US",
      "datacoverage": 0.7586,
      "id": "GHCND:US1VTAD0019",
      "elevationUnit": "METERS",
      "longitude": -73.117169
    },
    {
      "elevation": 274.9,
      "mindate": "2016-09-27",
      "maxdate": "2024-03-13",
      "latitude": 43.921666,
      "name": "HANCOCK 0.3 S, VT US",
      "datacoverage": 0.8664,
      "id": "GHCND:US1VTAD0020",
      "elevationUnit": "METERS",
      "longitude": -72.840424
    },
    {
      "elevation": 128,
      "mindate": "2016-10-31",
      "maxdate": "2024-09-08",
      "latitude": 44.01763,
      "name": "MIDDLEBURY 0.4 NE, VT US",
      "datacoverage": 0.385,
      "id": "GHCND:US1VTAD0021",
      "elevationUnit": "METERS",
      "longitude": -73.16466
    },
    {
      "elevation": 113.1,
      "mindate": "2016-10-05",
      "maxdate": "2025-03-06",
      "latitude": 44.018089,
      "name": "MIDDLEBURY 0.3 N, VT US",
      "datacoverage": 0.7281,
      "id": "GHCND:US1VTAD0024",
      "elevationUnit": "METERS",
      "longitude": -73.168445
    },
    {
      "elevation": 147.8,
      "mindate": "2017-12-01",
      "maxdate": "2019-01-01",
      "latitude": 44.026,
      "name": "MIDDLEBURY 3.6 ENE, VT US",
      "datacoverage": 0.3426,
      "id": "GHCND:US1VTAD0026",
      "elevationUnit": "METERS",
      "longitude": -73.098
    },
    {
      "elevation": 157,
      "mindate": "2020-10-20",
      "maxdate": "2024-11-03",
      "latitude": 44.2676,
      "name": "MONKTON 1.5 NE, VT US",
      "datacoverage": 0.7114,
      "id": "GHCND:US1VTAD0028",
      "elevationUnit": "METERS",
      "longitude": -73.0994
    },
    {
      "elevation": 417,
      "mindate": "2022-07-08",
      "maxdate": "2024-08-21",
      "latitude": 43.97331,
      "name": "RIPTON 1.0 E, VT US",
      "datacoverage": 0.538,
      "id": "GHCND:US1VTAD0030",
      "elevationUnit": "METERS",
      "longitude": -73.01454
    },
    {
      "elevation": 155.1,
      "mindate": "2022-08-09",
      "maxdate": "2023-07-23",
      "latitude": 44.253925,
      "name": "MONKTON 0.7 W, VT US",
      "datacoverage": 1,
      "id": "GHCND:US1VTAD0031",
      "elevationUnit": "METERS",
      "longitude": -73.137779
    },
    {
      "elevation": 331.9,
      "mindate": "2022-02-11",
      "maxdate": "2025-03-07",
      "latitude": 44.244617,
      "name": "STARKSBORO 4.4 ENE, VT US",
      "datacoverage": 0.9998,
      "id": "GHCND:US1VTAD0032",
      "elevationUnit": "METERS",
      "longitude": -72.970855
    },
    {
      "elevation": 28,
      "mindate": "2022-08-31",
      "maxdate": "2024-10-21",
      "latitude": 44.179429,
      "name": "VERGENNES 6.0 W, VT US",
      "datacoverage": 0.4623,
      "id": "GHCND:US1VTAD0034",
      "elevationUnit": "METERS",
      "longitude": -73.370927
    },
    {
      "elevation": 83.8,
      "mindate": "2022-10-01",
      "maxdate": "2025-03-07",
      "latitude": 43.9418167,
      "name": "SHOREHAM 3.5 NNE, VT US",
      "datacoverage": 0.6052,
      "id": "GHCND:US1VTAD0036",
      "elevationUnit": "METERS",
      "longitude": -73.2832017
    },
    {
      "elevation": 251.5,
      "mindate": "2024-05-20",
      "maxdate": "2024-12-18",
      "latitude": 44.184137,
      "name": "BRISTOL 3.9 NNW, VT US",
      "datacoverage": 0.9947,
      "id": "GHCND:US1VTAD0038",
      "elevationUnit": "METERS",
      "longitude": -73.12005
    },
    {
      "elevation": 551.4,
      "mindate": "2013-04-01",
      "maxdate": "2025-03-07",
      "latitude": 43.29092,
      "name": "LANDGROVE 1.1 NNE, VT US",
      "datacoverage": 0.9998,
      "id": "GHCND:US1VTBN0003",
      "elevationUnit": "METERS",
      "longitude": -72.832596
    },
    {
      "elevation": 207.6,
      "mindate": "2013-06-01",
      "maxdate": "2014-10-17",
      "latitude": 43.0625659,
      "name": "ARLINGTON 0.9 SSW, VT US",
      "datacoverage": 0.9989,
      "id": "GHCND:US1VTBN0004",
      "elevationUnit": "METERS",
      "longitude": -73.157735
    },
    {
      "elevation": 245.4,
      "mindate": "2015-10-18",
      "maxdate": "2016-10-05",
      "latitude": 43.163879,
      "name": "MANCHESTER 1.9 E, VT US",
      "datacoverage": 0.998,
      "id": "GHCND:US1VTBN0005",
      "elevationUnit": "METERS",
      "longitude": -73.035727
    },
    {
      "elevation": 274,
      "mindate": "2016-01-11",
      "maxdate": "2017-01-18",
      "latitude": 42.96241,
      "name": "SHAFTSBURY 1.9 SW, VT US",
      "datacoverage": 0.7914,
      "id": "GHCND:US1VTBN0006",
      "elevationUnit": "METERS",
      "longitude": -73.233631
    },
    {
      "elevation": 283.5,
      "mindate": "2016-10-06",
      "maxdate": "2025-03-07",
      "latitude": 43.172748,
      "name": "MANCHESTER 2.8 ENE, VT US",
      "datacoverage": 0.8182,
      "id": "GHCND:US1VTBN0007",
      "elevationUnit": "METERS",
      "longitude": -73.018112
    },
    {
      "elevation": 288.6,
      "mindate": "2017-03-14",
      "maxdate": "2019-06-30",
      "latitude": 43.00556,
      "name": "SHAFTSBURY 2.6 W, VT US",
      "datacoverage": 0.7748,
      "id": "GHCND:US1VTBN0008",
      "elevationUnit": "METERS",
      "longitude": -73.247434
    },
    {
      "elevation": 212.1,
      "mindate": "2018-03-27",
      "maxdate": "2024-11-22",
      "latitude": 42.94538,
      "name": "SOUTH SHAFTSBURY 0.1 W, VT US",
      "datacoverage": 0.3128,
      "id": "GHCND:US1VTBN0010",
      "elevationUnit": "METERS",
      "longitude": -73.21244
    },
    {
      "elevation": 682.1,
      "mindate": "2019-10-01",
      "maxdate": "2025-03-06",
      "latitude": 42.82,
      "name": "STAMFORD 5.0 NNE, VT US",
      "datacoverage": 0.9395,
      "id": "GHCND:US1VTBN0012",
      "elevationUnit": "METERS",
      "longitude": -73.02
    },
    {
      "elevation": 217.6,
      "mindate": "2020-06-17",
      "maxdate": "2021-05-06",
      "latitude": 42.93714,
      "name": "NORTH BENNINGTON 0.5 N, VT US",
      "datacoverage": 0.669,
      "id": "GHCND:US1VTBN0013",
      "elevationUnit": "METERS",
      "longitude": -73.24389
    },
    {
      "elevation": 345.9,
      "mindate": "2020-05-15",
      "maxdate": "2025-03-07",
      "latitude": 43.0065,
      "name": "SHAFTSBURY 0.4 WNW, VT US",
      "datacoverage": 0.9634,
      "id": "GHCND:US1VTBN0014",
      "elevationUnit": "METERS",
      "longitude": -73.20214
    },
    {
      "elevation": 106.1,
      "mindate": "2009-04-01",
      "maxdate": "2025-03-03",
      "latitude": 44.349185,
      "name": "CHARLOTTE 2.9 NNE, VT US",
      "datacoverage": 0.9404,
      "id": "GHCND:US1VTCH0003",
      "elevationUnit": "METERS",
      "longitude": -73.24443
    },
    {
      "elevation": 285.3,
      "mindate": "1998-06-01",
      "maxdate": "2025-03-07",
      "latitude": 44.587739,
      "name": "UNDERHILL 4.4 NNE, VT US",
      "datacoverage": 1,
      "id": "GHCND:US1VTCH0004",
      "elevationUnit": "METERS",
      "longitude": -72.922508
    },
    {
      "elevation": 66.4,
      "mindate": "2009-04-01",
      "maxdate": "2014-07-29",
      "latitude": 44.48228,
      "name": "BURLINGTON 0.5 NW, VT US",
      "datacoverage": 0.9531,
      "id": "GHCND:US1VTCH0005",
      "elevationUnit": "METERS",
      "longitude": -73.21908
    },
    {
      "elevation": 112.8,
      "mindate": "2009-05-01",
      "maxdate": "2012-05-16",
      "latitude": 44.427691,
      "name": "SOUTH BURLINGTON 2.5 SE, VT US",
      "datacoverage": 0.9993,
      "id": "GHCND:US1VTCH0006",
      "elevationUnit": "METERS",
      "longitude": -73.150152
    },
    {
      "elevation": 302.1,
      "mindate": "2009-04-01",
      "maxdate": "2025-03-07",
      "latitude": 44.324882,
      "name": "HUNTINGTON 1.1 E, VT US",
      "datacoverage": 0.4731,
      "id": "GHCND:US1VTCH0007",
      "elevationUnit": "METERS",
      "longitude": -72.965698
    },
    {
      "elevation": 315.5,
      "mindate": "2009-05-01",
      "maxdate": "2012-12-12",
      "latitude": 44.5413,
      "name": "UNDERHILL CENTER 2.8 NE, VT US",
      "datacoverage": 0.7263,
      "id": "GHCND:US1VTCH0009",
      "elevationUnit": "METERS",
      "longitude": -72.8683
    },
    {
      "elevation": 277.1,
      "mindate": "2009-06-01",
      "maxdate": "2025-03-07",
      "latitude": 44.598107,
      "name": "UNDERHILL 5.1 NNE, VT US",
      "datacoverage": 0.939,
      "id": "GHCND:US1VTCH0011",
      "elevationUnit": "METERS",
      "longitude": -72.918762
    },
    {
      "elevation": 229.2,
      "mindate": "2009-08-01",
      "maxdate": "2025-03-06",
      "latitude": 44.288735,
      "name": "HINESBURG 5.4 ESE, VT US",
      "datacoverage": 0.575,
      "id": "GHCND:US1VTCH0012",
      "elevationUnit": "METERS",
      "longitude": -73.099519
    },
    {
      "elevation": 223.4,
      "mindate": "2009-01-01",
      "maxdate": "2025-03-02",
      "latitude": 44.360837,
      "name": "RICHMOND 3.4 SSE, VT US",
      "datacoverage": 0.9774,
      "id": "GHCND:US1VTCH0013",
      "elevationUnit": "METERS",
      "longitude": -72.963986
    },
    {
      "elevation": 216.7,
      "mindate": "2010-08-01",
      "maxdate": "2022-05-17",
      "latitude": 44.33583333,
      "name": "HUNTINGTON 0.7 NNE, VT US",
      "datacoverage": 0.9999,
      "id": "GHCND:US1VTCH0015",
      "elevationUnit": "METERS",
      "longitude": -72.98416667
    },
    {
      "elevation": 195.4,
      "mindate": "2011-09-01",
      "maxdate": "2019-03-22",
      "latitude": 44.515239,
      "name": "JERICHO 1.0 NNW, VT US",
      "datacoverage": 1,
      "id": "GHCND:US1VTCH0019",
      "elevationUnit": "METERS",
      "longitude": -72.9925559
    },
    {
      "elevation": 31.7,
      "mindate": "2012-01-01",
      "maxdate": "2014-12-16",
      "latitude": 44.476605,
      "name": "BURLINGTON 0.4 W, VT US",
      "datacoverage": 0.9998,
      "id": "GHCND:US1VTCH0020",
      "elevationUnit": "METERS",
      "longitude": -73.22098
    },
    {
      "elevation": 148.1,
      "mindate": "2013-09-01",
      "maxdate": "2015-09-09",
      "latitude": 44.4396212,
      "name": "WILLISTON 0.3 WNW, VT US",
      "datacoverage": 0.841,
      "id": "GHCND:US1VTCH0027",
      "elevationUnit": "METERS",
      "longitude": -73.0738033
    },
    {
      "elevation": 38.1,
      "mindate": "2013-06-30",
      "maxdate": "2024-08-24",
      "latitude": 44.5638017356396,
      "name": "COLCHESTER 4.4 WNW, VT US",
      "datacoverage": 0.9819,
      "id": "GHCND:US1VTCH0028",
      "elevationUnit": "METERS",
      "longitude": -73.2336710393429
    },
    {
      "elevation": 93.3,
      "mindate": "2014-10-16",
      "maxdate": "2019-06-27",
      "latitude": 44.522519,
      "name": "COLCHESTER 1.6 SSW, VT US",
      "datacoverage": 0.0787,
      "id": "GHCND:US1VTCH0031",
      "elevationUnit": "METERS",
      "longitude": -73.162318
    },
    {
      "elevation": 255.1,
      "mindate": "2016-10-01",
      "maxdate": "2019-11-13",
      "latitude": 44.53941,
      "name": "JERICHO 2.6 N, VT US",
      "datacoverage": 0.5435,
      "id": "GHCND:US1VTCH0037",
      "elevationUnit": "METERS",
      "longitude": -72.98686
    },
    {
      "elevation": 157.9,
      "mindate": "2013-01-17",
      "maxdate": "2025-03-06",
      "latitude": 44.436697,
      "name": "WILLISTON 0.2 WSW, VT US",
      "datacoverage": 0.9993,
      "id": "GHCND:US1VTCH0038",
      "elevationUnit": "METERS",
      "longitude": -73.071548
    },
    {
      "elevation": 105.5,
      "mindate": "2016-10-02",
      "maxdate": "2018-11-27",
      "latitude": 44.4908,
      "name": "ESSEX JUNCTION 0.1 E, VT US",
      "datacoverage": 0.8412,
      "id": "GHCND:US1VTCH0040",
      "elevationUnit": "METERS",
      "longitude": -73.1086
    },
    {
      "elevation": 111.9,
      "mindate": "2019-08-11",
      "maxdate": "2025-03-07",
      "latitude": 44.422105,
      "name": "SOUTH BURLINGTON 2.6 SSW, VT US",
      "datacoverage": 1,
      "id": "GHCND:US1VTCH0047",
      "elevationUnit": "METERS",
      "longitude": -73.191145
    },
    {
      "elevation": 64,
      "mindate": "2021-05-26",
      "maxdate": "2025-03-07",
      "latitude": 44.382596,
      "name": "SHELBURNE 0.5 ENE, VT US",
      "datacoverage": 0.8893,
      "id": "GHCND:US1VTCH0050",
      "elevationUnit": "METERS",
      "longitude": -73.217655
    },
    {
      "elevation": 56.7,
      "mindate": "2020-08-30",
      "maxdate": "2023-11-05",
      "latitude": 44.603019,
      "name": "COLCHESTER 4.8 NNW, VT US",
      "datacoverage": 0.0997,
      "id": "GHCND:US1VTCH0051",
      "elevationUnit": "METERS",
      "longitude": -73.197563
    },
    {
      "elevation": 46,
      "mindate": "2024-07-06",
      "maxdate": "2025-03-06",
      "latitude": 44.289544,
      "name": "CHARLOTTE 1.8 SW, VT US",
      "datacoverage": 1,
      "id": "GHCND:US1VTCH0052",
      "elevationUnit": "METERS",
      "longitude": -73.273547
    },
    {
      "elevation": 132.6,
      "mindate": "2022-07-31",
      "maxdate": "2025-03-07",
      "latitude": 44.31655,
      "name": "HINESBURG 1.5 SW, VT US",
      "datacoverage": 0.9159,
      "id": "GHCND:US1VTCH0053",
      "elevationUnit": "METERS",
      "longitude": -73.13531
    },
    {
      "elevation": 249,
      "mindate": "2022-07-10",
      "maxdate": "2024-11-27",
      "latitude": 44.545378,
      "name": "UNDERHILL 1.3 NNW, VT US",
      "datacoverage": 0.1548,
      "id": "GHCND:US1VTCH0054",
      "elevationUnit": "METERS",
      "longitude": -72.950919
    },
    {
      "elevation": 96,
      "mindate": "2022-07-01",
      "maxdate": "2023-12-19",
      "latitude": 44.408184,
      "name": "RICHMOND 0.3 NW, VT US",
      "datacoverage": 0.8658,
      "id": "GHCND:US1VTCH0055",
      "elevationUnit": "METERS",
      "longitude": -72.99708
    },
    {
      "elevation": 105.8,
      "mindate": "2022-08-29",
      "maxdate": "2025-03-07",
      "latitude": 44.46112,
      "name": "WILLISTON 2.9 NW, VT US",
      "datacoverage": 0.5271,
      "id": "GHCND:US1VTCH0056",
      "elevationUnit": "METERS",
      "longitude": -73.11737
    },
    {
      "elevation": 337.4,
      "mindate": "2022-08-17",
      "maxdate": "2025-02-12",
      "latitude": 44.501129,
      "name": "UNDERHILL 3.6 ESE, VT US",
      "datacoverage": 0.5752,
      "id": "GHCND:US1VTCH0057",
      "elevationUnit": "METERS",
      "longitude": -72.88108
    },
    {
      "elevation": 225.9,
      "mindate": "2022-08-22",
      "maxdate": "2025-03-05",
      "latitude": 44.39489,
      "name": "WILLISTON 3.2 SSW, VT US",
      "datacoverage": 0.9991,
      "id": "GHCND:US1VTCH0058",
      "elevationUnit": "METERS",
      "longitude": -73.09315
    },
    {
      "elevation": 158.2,
      "mindate": "2023-04-15",
      "maxdate": "2025-03-07",
      "latitude": 44.3414,
      "name": "HINESBURG 0.9 N, VT US",
      "datacoverage": 0.7951,
      "id": "GHCND:US1VTCH0062",
      "elevationUnit": "METERS",
      "longitude": -73.1117
    },
    {
      "elevation": 71.3,
      "mindate": "2023-07-11",
      "maxdate": "2025-03-07",
      "latitude": 44.494749,
      "name": "WINOOSKI 0.2 N, VT US",
      "datacoverage": 0.9479,
      "id": "GHCND:US1VTCH0063",
      "elevationUnit": "METERS",
      "longitude": -73.186652
    },
    {
      "elevation": 61.3,
      "mindate": "2023-06-25",
      "maxdate": "2025-03-03",
      "latitude": 44.39011,
      "name": "SHELBURNE 1.1 NE, VT US",
      "datacoverage": 0.665,
      "id": "GHCND:US1VTCH0064",
      "elevationUnit": "METERS",
      "longitude": -73.20886
    },
    {
      "elevation": 114.6,
      "mindate": "2023-07-01",
      "maxdate": "2024-12-17",
      "latitude": 44.389854,
      "name": "SHELBURNE 2.6 ENE, VT US",
      "datacoverage": 0.9898,
      "id": "GHCND:US1VTCH0065",
      "elevationUnit": "METERS",
      "longitude": -73.176824
    },
    {
      "elevation": 53.9,
      "mindate": "2023-08-07",
      "maxdate": "2025-03-07",
      "latitude": 44.518199,
      "name": "BURLINGTON 3.8 NW, VT US",
      "datacoverage": 0.8347,
      "id": "GHCND:US1VTCH0066",
      "elevationUnit": "METERS",
      "longitude": -73.261375
    },
    {
      "elevation": 139.6,
      "mindate": "2024-05-30",
      "maxdate": "2025-03-06",
      "latitude": 44.3120981,
      "name": "CHARLOTTE 1.1 E, VT US",
      "datacoverage": 1,
      "id": "GHCND:US1VTCH0067",
      "elevationUnit": "METERS",
      "longitude": -73.2317092
    },
    {
      "elevation": 203.6,
      "mindate": "2024-04-19",
      "maxdate": "2024-12-30",
      "latitude": 44.39057,
      "name": "RICHMOND 1.7 SW, VT US",
      "datacoverage": 0.9925,
      "id": "GHCND:US1VTCH0069",
      "elevationUnit": "METERS",
      "longitude": -73.02119
    },
    {
      "elevation": 155.8,
      "mindate": "2024-06-04",
      "maxdate": "2025-03-06",
      "latitude": 44.58295,
      "name": "MILTON 2.9 SSE, VT US",
      "datacoverage": 0.5435,
      "id": "GHCND:US1VTCH0072",
      "elevationUnit": "METERS",
      "longitude": -73.10172
    },
    {
      "elevation": 59.7,
      "mindate": "2024-08-14",
      "maxdate": "2024-11-30",
      "latitude": 44.473952,
      "name": "BURLINGTON 0.2 SSE, VT US",
      "datacoverage": 1,
      "id": "GHCND:US1VTCH0073",
      "elevationUnit": "METERS",
      "longitude": -73.211058
    },
    {
      "elevation": 415.1,
      "mindate": "2009-04-01",
      "maxdate": "2016-11-18",
      "latitude": 44.636769,
      "name": "SHEFFIELD 2.8 NNW, VT US",
      "datacoverage": 0.9999,
      "id": "GHCND:US1VTCL0001",
      "elevationUnit": "METERS",
      "longitude": -72.143257
    },
    {
      "elevation": 234.7,
      "mindate": "2002-06-02",
      "maxdate": "2025-02-28",
      "latitude": 44.1944,
      "name": "GROTON 4.4 WSW, VT US",
      "datacoverage": 0.9762,
      "id": "GHCND:US1VTCL0003",
      "elevationUnit": "METERS",
      "longitude": -72.2824
    },
    {
      "elevation": 579.7,
      "mindate": "2009-05-01",
      "maxdate": "2009-11-01",
      "latitude": 44.5665,
      "name": "WHEELOCK 6.5 SW, VT US",
      "datacoverage": 0.998,
      "id": "GHCND:US1VTCL0004",
      "elevationUnit": "METERS",
      "longitude": -72.22
    },
    {
      "elevation": 471.5,
      "mindate": "2009-05-01",
      "maxdate": "2015-07-26",
      "latitude": 44.545962,
      "name": "STANNARD 0.9 WNW, VT US",
      "datacoverage": 0.9999,
      "id": "GHCND:US1VTCL0005",
      "elevationUnit": "METERS",
      "longitude": -72.232913
    },
    {
      "elevation": 367.3,
      "mindate": "2009-04-01",
      "maxdate": "2024-08-10",
      "latitude": 44.412179,
      "name": "DANVILLE 2.0 E, VT US",
      "datacoverage": 0.9994,
      "id": "GHCND:US1VTCL0006",
      "elevationUnit": "METERS",
      "longitude": -72.100123
    },
    {
      "elevation": 424.9,
      "mindate": "2009-05-01",
      "maxdate": "2010-11-06",
      "latitude": 44.549941,
      "name": "STANNARD 1.9 WNW, VT US",
      "datacoverage": 1,
      "id": "GHCND:US1VTCL0009",
      "elevationUnit": "METERS",
      "longitude": -72.252014
    },
    {
      "elevation": 253,
      "mindate": "2009-05-01",
      "maxdate": "2023-09-16",
      "latitude": 44.5046,
      "name": "HARDWICK 0.1 ENE, VT US",
      "datacoverage": 0.8672,
      "id": "GHCND:US1VTCL0010",
      "elevationUnit": "METERS",
      "longitude": -72.3655
    },
    {
      "elevation": 268.2,
      "mindate": "2009-07-01",
      "maxdate": "2012-01-04",
      "latitude": 44.601631,
      "name": "SHEFFIELD 0.1 SE, VT US",
      "datacoverage": 0.9985,
      "id": "GHCND:US1VTCL0011",
      "elevationUnit": "METERS",
      "longitude": -72.11383
    },
    {
      "elevation": 309.1,
      "mindate": "2010-01-01",
      "maxdate": "2025-03-07",
      "latitude": 44.53582,
      "name": "LYNDONVILLE 1.1 W, VT US",
      "datacoverage": 0.6679,
      "id": "GHCND:US1VTCL0014",
      "elevationUnit": "METERS",
      "longitude": -72.02867
    },
    {
      "elevation": 279.5,
      "mindate": "2010-11-01",
      "maxdate": "2013-09-22",
      "latitude": 44.4921392419464,
      "name": "HARDWICK 0.8 S, VT US",
      "datacoverage": 0.8574,
      "id": "GHCND:US1VTCL0017",
      "elevationUnit": "METERS",
      "longitude": -72.3673805594444
    },
    {
      "elevation": 353.3,
      "mindate": "2013-07-01",
      "maxdate": "2025-03-06",
      "latitude": 44.56491089,
      "name": "WHEELOCK 1.6 S, VT US",
      "datacoverage": 1,
      "id": "GHCND:US1VTCL0018",
      "elevationUnit": "METERS",
      "longitude": -72.088333
    },
    {
      "elevation": 335.6,
      "mindate": "2013-10-01",
      "maxdate": "2025-02-12",
      "latitude": 44.51865,
      "name": "EAST HARDWICK 0.4 SE, VT US",
      "datacoverage": 0.9278,
      "id": "GHCND:US1VTCL0019",
      "elevationUnit": "METERS",
      "longitude": -72.30285
    },
    {
      "elevation": 287.4,
      "mindate": "2017-06-19",
      "maxdate": "2021-10-28",
      "latitude": 44.615972222,
      "name": "WEST BURKE 2.2 SE, VT US",
      "datacoverage": 0.2994,
      "id": "GHCND:US1VTCL0020",
      "elevationUnit": "METERS",
      "longitude": -71.953486111
    },
    {
      "elevation": 367.6,
      "mindate": "2016-07-11",
      "maxdate": "2025-03-07",
      "latitude": 44.230243,
      "name": "RYEGATE 1.5 N, VT US",
      "datacoverage": 0.9989,
      "id": "GHCND:US1VTCL0023",
      "elevationUnit": "METERS",
      "longitude": -72.105236
    },
    {
      "elevation": 428.5,
      "mindate": "2016-09-01",
      "maxdate": "2025-03-06",
      "latitude": 44.417692,
      "name": "DANVILLE 0.4 N, VT US",
      "datacoverage": 0.9319,
      "id": "GHCND:US1VTCL0027",
      "elevationUnit": "METERS",
      "longitude": -72.139367
    },
    {
      "elevation": 488.3,
      "mindate": "2016-10-23",
      "maxdate": "2019-03-23",
      "latitude": 44.636228,
      "name": "SHEFFIELD 4.5 WNW, VT US",
      "datacoverage": 0.9592,
      "id": "GHCND:US1VTCL0028",
      "elevationUnit": "METERS",
      "longitude": -72.192795
    },
    {
      "elevation": 313,
      "mindate": "2016-09-01",
      "maxdate": "2025-03-07",
      "latitude": 44.484906,
      "name": "ST. JOHNSBURY 5.2 NNW, VT US",
      "datacoverage": 0.9986,
      "id": "GHCND:US1VTCL0029",
      "elevationUnit": "METERS",
      "longitude": -72.070127
    },
    {
      "elevation": 563.6,
      "mindate": "2016-10-04",
      "maxdate": "2022-01-07",
      "latitude": 44.431729,
      "name": "DANVILLE 2.2 NW, VT US",
      "datacoverage": 0.8543,
      "id": "GHCND:US1VTCL0030",
      "elevationUnit": "METERS",
      "longitude": -72.174307
    },
    {
      "elevation": 368.2,
      "mindate": "2017-07-13",
      "maxdate": "2019-10-20",
      "latitude": 44.249503,
      "name": "GROTON 4.4 NW, VT US",
      "datacoverage": 0.3434,
      "id": "GHCND:US1VTCL0033",
      "elevationUnit": "METERS",
      "longitude": -72.264894
    },
    {
      "elevation": 389.8,
      "mindate": "2017-10-28",
      "maxdate": "2019-02-28",
      "latitude": 44.6366,
      "name": "SHEFFIELD 2.8 NNW, VT US",
      "datacoverage": 0.8241,
      "id": "GHCND:US1VTCL0034",
      "elevationUnit": "METERS",
      "longitude": -72.1453
    },
    {
      "elevation": 304.5,
      "mindate": "2018-05-30",
      "maxdate": "2024-12-25",
      "latitude": 44.5603158,
      "name": "LYNDONVILLE 1.8 N, VT US",
      "datacoverage": 0.9986,
      "id": "GHCND:US1VTCL0035",
      "elevationUnit": "METERS",
      "longitude": -72.0084437
    },
    {
      "elevation": 487.1,
      "mindate": "2018-11-16",
      "maxdate": "2024-12-11",
      "latitude": 44.3398,
      "name": "PEACHAM 1.3 NW, VT US",
      "datacoverage": 0.9819,
      "id": "GHCND:US1VTCL0038",
      "elevationUnit": "METERS",
      "longitude": -72.1916
    },
    {
      "elevation": 428.9,
      "mindate": "2019-05-10",
      "maxdate": "2020-10-27",
      "latitude": 44.594404,
      "name": "LYNDONVILLE 4.2 NNW, VT US",
      "datacoverage": 1,
      "id": "GHCND:US1VTCL0040",
      "elevationUnit": "METERS",
      "longitude": -72.023891
    },
    {
      "elevation": 271,
      "mindate": "2019-04-20",
      "maxdate": "2021-11-12",
      "latitude": 44.36968,
      "name": "DANVILLE 4.0 SE, VT US",
      "datacoverage": 0.6662,
      "id": "GHCND:US1VTCL0041",
      "elevationUnit": "METERS",
      "longitude": -72.08255
    },
    {
      "elevation": 318.5,
      "mindate": "2021-10-24",
      "maxdate": "2025-03-07",
      "latitude": 44.30015,
      "name": "BARNET 3.5 W, VT US",
      "datacoverage": 0.7847,
      "id": "GHCND:US1VTCL0042",
      "elevationUnit": "METERS",
      "longitude": -72.11945
    },
    {
      "elevation": 200.9,
      "mindate": "2021-08-14",
      "maxdate": "2024-12-19",
      "latitude": 44.420457,
      "name": "ST JOHNSBURY 0.2 NW, VT US",
      "datacoverage": 0.3363,
      "id": "GHCND:US1VTCL0043",
      "elevationUnit": "METERS",
      "longitude": -72.024547
    },
    {
      "mindate": "2021-08-01",
      "maxdate": "2024-06-09",
      "latitude": 44.454692,
      "name": "DANVILLE 3.1 NNE, VT US",
      "datacoverage": 0.9462,
      "id": "GHCND:US1VTCL0044",
      "longitude": -72.12516
    },
    {
      "elevation": 387.7,
      "mindate": "2023-08-09",
      "maxdate": "2023-11-22",
      "latitude": 44.258026,
      "name": "RYEGATE 4.3 NW, VT US",
      "datacoverage": 0.998,
      "id": "GHCND:US1VTCL0045",
      "elevationUnit": "METERS",
      "longitude": -72.156013
    },
    {
      "elevation": 506.9,
      "mindate": "2023-07-18",
      "maxdate": "2024-11-22",
      "latitude": 44.63172,
      "name": "SHEFFIELD 3.4 NW, VT US",
      "datacoverage": 0.6842,
      "id": "GHCND:US1VTCL0046",
      "elevationUnit": "METERS",
      "longitude": -72.17026
    },
    {
      "elevation": 214.3,
      "mindate": "2023-10-01",
      "maxdate": "2025-03-07",
      "latitude": 44.42423,
      "name": "ST. JOHNSBURY 0.4 N, VT US",
      "datacoverage": 0.9561,
      "id": "GHCND:US1VTCL0047",
      "elevationUnit": "METERS",
      "longitude": -72.02189
    },
    {
      "elevation": 430.7,
      "mindate": "2009-03-01",
      "maxdate": "2024-11-27",
      "latitude": 44.5833,
      "name": "GRANBY 1.4 NW, VT US",
      "datacoverage": 0.666,
      "id": "GHCND:US1VTES0001",
      "elevationUnit": "METERS",
      "longitude": -71.7787
    }
  ]
}
