{
  "metadata": {
    "resultset": {
      "offset": 67600,
      "count": 154115,
      "limit": 100
    }
  },
  "results": [
    {
      "elevation": 11,
      "mindate": "1956-05-01",
      "maxdate": "1980-06-30",
      "latitude": 18.5333,
      "name": "EL BARRIO, MX",
      "datacoverage": 0.9768,
      "id": "GHCND:MXN00030045",
      "elevationUnit": "METERS",
      "longitude": -96.0833
    },
    {
      "elevation": 100.9,
      "mindate": "1960-09-01",
      "maxdate": "2011-12-31",
      "latitude": 21.4,
      "name": "CARDON, MX",
      "datacoverage": 0.8458,
      "id": "GHCND:MXN00030046",
      "elevationUnit": "METERS",
      "longitude": -98.4833
    },
    {
      "elevation": 545,
      "mindate": "1964-03-11",
      "maxdate": "2009-01-31",
      "latitude": 19.1667,
      "name": "EL COYOL CFE, MX",
      "datacoverage": 0.974,
      "id": "GHCND:MXN00030047",
      "elevationUnit": "METERS",
      "longitude": -96.6833
    },
    {
      "elevation": 13.7,
      "mindate": "1961-05-18",
      "maxdate": "2011-12-31",
      "latitude": 18.9667,
      "name": "EL COPITAL, MX",
      "datacoverage": 0.9401,
      "id": "GHCND:MXN00030048",
      "elevationUnit": "METERS",
      "longitude": -96.2
    },
    {
      "elevation": 29,
      "mindate": "1958-06-01",
      "maxdate": "2011-12-31",
      "latitude": 21.7667,
      "name": "EL HIGO, MX",
      "datacoverage": 0.8325,
      "id": "GHCND:MXN00030049",
      "elevationUnit": "METERS",
      "longitude": -98.4333
    },
    {
      "elevation": 134.7,
      "mindate": "1958-06-01",
      "maxdate": "1989-04-30",
      "latitude": 19.3167,
      "name": "EL FAISAN, MX",
      "datacoverage": 0.9626,
      "id": "GHCND:MXN00030050",
      "elevationUnit": "METERS",
      "longitude": -96.3667
    },
    {
      "elevation": 22.9,
      "mindate": "1968-07-12",
      "maxdate": "2011-12-31",
      "latitude": 21.8167,
      "name": "EL OLIVO, MX",
      "datacoverage": 0.9021,
      "id": "GHCND:MXN00030051",
      "elevationUnit": "METERS",
      "longitude": -98.5
    },
    {
      "elevation": 1029.9,
      "mindate": "1964-03-14",
      "maxdate": "1997-05-31",
      "latitude": 19.1833,
      "name": "ELOTEPEC CFE, MX",
      "datacoverage": 0.9319,
      "id": "GHCND:MXN00030052",
      "elevationUnit": "METERS",
      "longitude": -97.0333
    },
    {
      "elevation": 102.7,
      "mindate": "1956-11-01",
      "maxdate": "1991-05-31",
      "latitude": 18.5333,
      "name": "EL PALMAR, MX",
      "datacoverage": 0.8583,
      "id": "GHCND:MXN00030053",
      "elevationUnit": "METERS",
      "longitude": -96.7833
    },
    {
      "elevation": 9.8,
      "mindate": "1961-01-01",
      "maxdate": "2011-12-31",
      "latitude": 20.15,
      "name": "EL RAUDAL, MX",
      "datacoverage": 0.9412,
      "id": "GHCND:MXN00030054",
      "elevationUnit": "METERS",
      "longitude": -96.7167
    },
    {
      "elevation": 118.9,
      "mindate": "1961-01-01",
      "maxdate": "2011-12-31",
      "latitude": 20.3833,
      "name": "EL REMOLINO CFE, MX",
      "datacoverage": 0.9785,
      "id": "GHCND:MXN00030055",
      "elevationUnit": "METERS",
      "longitude": -97.2333
    },
    {
      "elevation": 9.8,
      "mindate": "1961-01-01",
      "maxdate": "2011-12-31",
      "latitude": 19.0667,
      "name": "EL TEJAR, MX",
      "datacoverage": 0.9998,
      "id": "GHCND:MXN00030056",
      "elevationUnit": "METERS",
      "longitude": -96.15
    },
    {
      "elevation": 347.8,
      "mindate": "1961-01-01",
      "maxdate": "1968-09-30",
      "latitude": 19.5167,
      "name": "EL ZETAL CFE, MX",
      "datacoverage": 1,
      "id": "GHCND:MXN00030057",
      "elevationUnit": "METERS",
      "longitude": -96.6667
    },
    {
      "elevation": 61.9,
      "mindate": "1961-01-01",
      "maxdate": "2011-01-31",
      "latitude": 20.25,
      "name": "ESPINAL CFE, MX",
      "datacoverage": 0.9517,
      "id": "GHCND:MXN00030058",
      "elevationUnit": "METERS",
      "longitude": -97.4167
    },
    {
      "elevation": 11.9,
      "mindate": "1972-01-13",
      "maxdate": "2011-12-31",
      "latitude": 22.0333,
      "name": "PAIJA, MX",
      "datacoverage": 0.84,
      "id": "GHCND:MXN00030059",
      "elevationUnit": "METERS",
      "longitude": -98.4
    },
    {
      "elevation": 2.7,
      "mindate": "1961-01-01",
      "maxdate": "1989-05-30",
      "latitude": 20.2,
      "name": "FANAL DE NAUTLA, MX",
      "datacoverage": 0.9913,
      "id": "GHCND:MXN00030060",
      "elevationUnit": "METERS",
      "longitude": -96.7667
    },
    {
      "elevation": 1019.9,
      "mindate": "1961-01-01",
      "maxdate": "1989-12-31",
      "latitude": 18.9,
      "name": "FORTIN DE LAS FLORES, MX",
      "datacoverage": 0.9311,
      "id": "GHCND:MXN00030061",
      "elevationUnit": "METERS",
      "longitude": -96.9833
    },
    {
      "elevation": 77.7,
      "mindate": "1970-10-24",
      "maxdate": "1979-02-28",
      "latitude": 20.0167,
      "name": "FRANCISCO SARABIA, MX",
      "datacoverage": 0.9991,
      "id": "GHCND:MXN00030062",
      "elevationUnit": "METERS",
      "longitude": -96.9667
    },
    {
      "elevation": 136.9,
      "mindate": "1964-09-25",
      "maxdate": "1982-03-31",
      "latitude": 17.5,
      "name": "FRANCISCO VILLA, MX",
      "datacoverage": 0.9477,
      "id": "GHCND:MXN00030063",
      "elevationUnit": "METERS",
      "longitude": -94.0333
    },
    {
      "elevation": 12.8,
      "mindate": "1961-01-01",
      "maxdate": "1983-03-31",
      "latitude": 17.7667,
      "name": "HIDALGOTITLAN, MX",
      "datacoverage": 0.8942,
      "id": "GHCND:MXN00030064",
      "elevationUnit": "METERS",
      "longitude": -94.6333
    },
    {
      "elevation": 446.8,
      "mindate": "1961-01-01",
      "maxdate": "1980-06-30",
      "latitude": 18.15,
      "name": "HUAZUNTLAN, MX",
      "datacoverage": 0.9931,
      "id": "GHCND:MXN00030065",
      "elevationUnit": "METERS",
      "longitude": -94.7833
    },
    {
      "elevation": 1283.8,
      "mindate": "1907-07-01",
      "maxdate": "2001-12-31",
      "latitude": 19.15,
      "name": "HUATUSCO DE CHICUELLAR, MX",
      "datacoverage": 0.8562,
      "id": "GHCND:MXN00030066",
      "elevationUnit": "METERS",
      "longitude": -96.95
    },
    {
      "elevation": 2167.7,
      "mindate": "1961-11-01",
      "maxdate": "2011-12-31",
      "latitude": 20.5333,
      "name": "HUAYACOCOTLA, MX",
      "datacoverage": 0.6311,
      "id": "GHCND:MXN00030067",
      "elevationUnit": "METERS",
      "longitude": -98.4667
    },
    {
      "elevation": 100,
      "mindate": "1963-04-24",
      "maxdate": "2011-12-31",
      "latitude": 19.4,
      "name": "LOS IDOLOS, MX",
      "datacoverage": 0.916,
      "id": "GHCND:MXN00030068",
      "elevationUnit": "METERS",
      "longitude": -96.5
    },
    {
      "elevation": 12.8,
      "mindate": "1961-01-01",
      "maxdate": "1980-05-31",
      "latitude": 18.7167,
      "name": "IGNACIO DE LA LLAVE, MX",
      "datacoverage": 0.9726,
      "id": "GHCND:MXN00030069",
      "elevationUnit": "METERS",
      "longitude": -95.9833
    },
    {
      "elevation": 96.9,
      "mindate": "1961-01-01",
      "maxdate": "2001-06-30",
      "latitude": 17.7833,
      "name": "INDEPENDENCIA, MX",
      "datacoverage": 0.6949,
      "id": "GHCND:MXN00030070",
      "elevationUnit": "METERS",
      "longitude": -95.4167
    },
    {
      "elevation": 172.8,
      "mindate": "1961-01-01",
      "maxdate": "2011-12-31",
      "latitude": 21.2333,
      "name": "IXCATEPEC, MX",
      "datacoverage": 0.8365,
      "id": "GHCND:MXN00030071",
      "elevationUnit": "METERS",
      "longitude": -98
    },
    {
      "elevation": 1350,
      "mindate": "1945-07-01",
      "maxdate": "2011-12-31",
      "latitude": 19.05,
      "name": "IXHUATLAN DEL CAFE, MX",
      "datacoverage": 0.9652,
      "id": "GHCND:MXN00030072",
      "elevationUnit": "METERS",
      "longitude": -96.9833
    },
    {
      "elevation": 353,
      "mindate": "1948-02-01",
      "maxdate": "1974-01-30",
      "latitude": 19.8333,
      "name": "JUCHIQUE DE FERRER, MX",
      "datacoverage": 0.9994,
      "id": "GHCND:MXN00030073",
      "elevationUnit": "METERS",
      "longitude": -96.6833
    },
    {
      "elevation": 1879.7,
      "mindate": "1925-05-01",
      "maxdate": "2011-12-31",
      "latitude": 19.8,
      "name": "JALACINGO, MX",
      "datacoverage": 0.6481,
      "id": "GHCND:MXN00030074",
      "elevationUnit": "METERS",
      "longitude": -97.3
    },
    {
      "elevation": 335,
      "mindate": "1961-01-01",
      "maxdate": "2010-03-31",
      "latitude": 19.3167,
      "name": "JALCOMULCO CFE, MX",
      "datacoverage": 0.9832,
      "id": "GHCND:MXN00030076",
      "elevationUnit": "METERS",
      "longitude": -96.75
    },
    {
      "elevation": 65.8,
      "mindate": "1961-01-01",
      "maxdate": "2007-12-31",
      "latitude": 17.95,
      "name": "JALTIPAN DE MORELOS, MX",
      "datacoverage": 0.8901,
      "id": "GHCND:MXN00030077",
      "elevationUnit": "METERS",
      "longitude": -94.7167
    },
    {
      "elevation": 44.8,
      "mindate": "1964-06-01",
      "maxdate": "1990-07-31",
      "latitude": 18.6333,
      "name": "JOACHIN, MX",
      "datacoverage": 0.9333,
      "id": "GHCND:MXN00030078",
      "elevationUnit": "METERS",
      "longitude": -96.2333
    },
    {
      "elevation": 46.9,
      "mindate": "1961-04-13",
      "maxdate": "2011-02-28",
      "latitude": 20.2333,
      "name": "JOLOAPAN CFE, MX",
      "datacoverage": 0.9481,
      "id": "GHCND:MXN00030079",
      "elevationUnit": "METERS",
      "longitude": -97.2667
    },
    {
      "elevation": 29,
      "mindate": "1944-03-01",
      "maxdate": "1972-12-21",
      "latitude": 18.7167,
      "name": "RIO BLANCO, MX",
      "datacoverage": 0.9359,
      "id": "GHCND:MXN00030080",
      "elevationUnit": "METERS",
      "longitude": -96.1
    },
    {
      "elevation": 108.8,
      "mindate": "1954-01-09",
      "maxdate": "2011-12-31",
      "latitude": 17.5667,
      "name": "LA FLORENCIA, MX",
      "datacoverage": 0.9564,
      "id": "GHCND:MXN00030081",
      "elevationUnit": "METERS",
      "longitude": -95.1667
    },
    {
      "elevation": 50,
      "mindate": "1949-03-09",
      "maxdate": "1989-11-30",
      "latitude": 18.35,
      "name": "LA GRANJA, MX",
      "datacoverage": 0.967,
      "id": "GHCND:MXN00030082",
      "elevationUnit": "METERS",
      "longitude": -96.25
    },
    {
      "elevation": 29.9,
      "mindate": "1956-06-18",
      "maxdate": "1980-06-30",
      "latitude": 17.9167,
      "name": "LA LIMA, MX",
      "datacoverage": 1,
      "id": "GHCND:MXN00030083",
      "elevationUnit": "METERS",
      "longitude": -95.15
    },
    {
      "elevation": 25,
      "mindate": "1972-01-01",
      "maxdate": "2011-12-31",
      "latitude": 22.35,
      "name": "LA MICHOACANA, MX",
      "datacoverage": 0.8896,
      "id": "GHCND:MXN00030084",
      "elevationUnit": "METERS",
      "longitude": -98.2667
    },
    {
      "elevation": 3126.9,
      "mindate": "1964-10-08",
      "maxdate": "1997-05-31",
      "latitude": 19.5,
      "name": "LA TEMBLADERA CFE, MX",
      "datacoverage": 0.9975,
      "id": "GHCND:MXN00030085",
      "elevationUnit": "METERS",
      "longitude": -97.1167
    },
    {
      "elevation": 44.8,
      "mindate": "1966-09-24",
      "maxdate": "1980-05-31",
      "latitude": 18.7667,
      "name": "LA VICTORIA, MX",
      "datacoverage": 0.9999,
      "id": "GHCND:MXN00030086",
      "elevationUnit": "METERS",
      "longitude": -96.25
    },
    {
      "elevation": 1280.8,
      "mindate": "1953-06-01",
      "maxdate": "2011-12-31",
      "latitude": 19.5,
      "name": "LAS ANIMAS, MX",
      "datacoverage": 0.722,
      "id": "GHCND:MXN00030087",
      "elevationUnit": "METERS",
      "longitude": -96.8833
    },
    {
      "elevation": 4.9,
      "mindate": "1956-05-01",
      "maxdate": "1984-07-31",
      "latitude": 18.55,
      "name": "LAS CHARCAS, MX",
      "datacoverage": 0.9516,
      "id": "GHCND:MXN00030088",
      "elevationUnit": "METERS",
      "longitude": -96.0167
    },
    {
      "elevation": 1414.9,
      "mindate": "1949-09-08",
      "maxdate": "2000-09-30",
      "latitude": 19.6833,
      "name": "LAS MINAS CFE, MX",
      "datacoverage": 0.9899,
      "id": "GHCND:MXN00030089",
      "elevationUnit": "METERS",
      "longitude": -97.1333
    },
    {
      "elevation": 21.9,
      "mindate": "1962-09-01",
      "maxdate": "2011-12-31",
      "latitude": 17.4167,
      "name": "LAS PERLAS, MX",
      "datacoverage": 0.969,
      "id": "GHCND:MXN00030090",
      "elevationUnit": "METERS",
      "longitude": -94.9
    },
    {
      "elevation": 25.9,
      "mindate": "1948-10-01",
      "maxdate": "1982-02-28",
      "latitude": 18.5,
      "name": "LAS PRIETAS, MX",
      "datacoverage": 0.9649,
      "id": "GHCND:MXN00030091",
      "elevationUnit": "METERS",
      "longitude": -96.4
    },
    {
      "elevation": 18,
      "mindate": "1955-12-01",
      "maxdate": "1988-04-30",
      "latitude": 18.7333,
      "name": "LAS VIGAS, MX",
      "datacoverage": 0.9758,
      "id": "GHCND:MXN00030092",
      "elevationUnit": "METERS",
      "longitude": -96.0667
    },
    {
      "elevation": 29.9,
      "mindate": "1951-04-12",
      "maxdate": "2011-12-31",
      "latitude": 19.25,
      "name": "LOMA FINA, MX",
      "datacoverage": 0.9772,
      "id": "GHCND:MXN00030093",
      "elevationUnit": "METERS",
      "longitude": -96.3833
    },
    {
      "elevation": 53.9,
      "mindate": "1955-01-01",
      "maxdate": "2007-08-31",
      "latitude": 18.85,
      "name": "LOS CAPULINES, MX",
      "datacoverage": 0.9515,
      "id": "GHCND:MXN00030094",
      "elevationUnit": "METERS",
      "longitude": -96.2833
    },
    {
      "elevation": 33.8,
      "mindate": "1956-03-20",
      "maxdate": "1986-03-31",
      "latitude": 18.2333,
      "name": "LOS MANGOS, MX",
      "datacoverage": 0.9915,
      "id": "GHCND:MXN00030095",
      "elevationUnit": "METERS",
      "longitude": -95.1167
    },
    {
      "elevation": 27.7,
      "mindate": "1969-01-01",
      "maxdate": "1983-06-30",
      "latitude": 18.3667,
      "name": "LOS NARANJOS, MX",
      "datacoverage": 0.8804,
      "id": "GHCND:MXN00030096",
      "elevationUnit": "METERS",
      "longitude": -96.2
    },
    {
      "elevation": 2394.8,
      "mindate": "1964-03-09",
      "maxdate": "2011-03-31",
      "latitude": 19.55,
      "name": "LOS PESCADOS CFE, MX",
      "datacoverage": 0.976,
      "id": "GHCND:MXN00030097",
      "elevationUnit": "METERS",
      "longitude": -97.1333
    },
    {
      "elevation": 75,
      "mindate": "1960-08-01",
      "maxdate": "2011-12-31",
      "latitude": 21.1667,
      "name": "LOS HULES, MX",
      "datacoverage": 0.8487,
      "id": "GHCND:MXN00030098",
      "elevationUnit": "METERS",
      "longitude": -98.2667
    },
    {
      "elevation": 23.8,
      "mindate": "1948-10-01",
      "maxdate": "1982-01-31",
      "latitude": 18.7333,
      "name": "MADEREROS, MX",
      "datacoverage": 0.9846,
      "id": "GHCND:MXN00030099",
      "elevationUnit": "METERS",
      "longitude": -96.1833
    },
    {
      "elevation": 1713,
      "mindate": "1969-07-24",
      "maxdate": "2001-11-30",
      "latitude": 18.8,
      "name": "MALTRATA DGE, MX",
      "datacoverage": 0.916,
      "id": "GHCND:MXN00030100",
      "elevationUnit": "METERS",
      "longitude": -97.2667
    },
    {
      "elevation": 43.9,
      "mindate": "1945-01-01",
      "maxdate": "2011-12-31",
      "latitude": 19.0833,
      "name": "MANLIO FABIO ALTAMIRAMO, MX",
      "datacoverage": 0.7945,
      "id": "GHCND:MXN00030101",
      "elevationUnit": "METERS",
      "longitude": -96.3333
    },
    {
      "elevation": 88.7,
      "mindate": "1954-12-01",
      "maxdate": "2011-12-31",
      "latitude": 20.0667,
      "name": "MARTINEZ DE LA TORRE DGE, MX",
      "datacoverage": 0.9808,
      "id": "GHCND:MXN00030102",
      "elevationUnit": "METERS",
      "longitude": -97.05
    },
    {
      "elevation": 57.9,
      "mindate": "1956-06-01",
      "maxdate": "1996-08-31",
      "latitude": 18.1,
      "name": "MATA DE LIMONES, MX",
      "datacoverage": 1,
      "id": "GHCND:MXN00030103",
      "elevationUnit": "METERS",
      "longitude": -95.5167
    },
    {
      "elevation": 214,
      "mindate": "1964-03-11",
      "maxdate": "1997-05-31",
      "latitude": 19.15,
      "name": "MATA ANONA CFE, MX",
      "datacoverage": 1,
      "id": "GHCND:MXN00030104",
      "elevationUnit": "METERS",
      "longitude": -96.4833
    },
    {
      "elevation": 255.7,
      "mindate": "1956-06-01",
      "maxdate": "1988-01-31",
      "latitude": 18.7167,
      "name": "MATA TENATITO, MX",
      "datacoverage": 0.9654,
      "id": "GHCND:MXN00030105",
      "elevationUnit": "METERS",
      "longitude": -96.65
    },
    {
      "elevation": 139,
      "mindate": "1961-05-01",
      "maxdate": "1997-04-30",
      "latitude": 20.3333,
      "name": "MELCHOR OCAMPO CFE, MX",
      "datacoverage": 0.9868,
      "id": "GHCND:MXN00030106",
      "elevationUnit": "METERS",
      "longitude": -97.5333
    },
    {
      "elevation": 34.7,
      "mindate": "1922-02-01",
      "maxdate": "2011-12-31",
      "latitude": 17.9833,
      "name": "MINATITLAN, MX",
      "datacoverage": 0.7296,
      "id": "GHCND:MXN00030107",
      "elevationUnit": "METERS",
      "longitude": -94.55
    },
    {
      "elevation": 310,
      "mindate": "1925-10-01",
      "maxdate": "2011-12-31",
      "latitude": 19.9167,
      "name": "MISANTLA, MX",
      "datacoverage": 0.8043,
      "id": "GHCND:MXN00030108",
      "elevationUnit": "METERS",
      "longitude": -96.85
    },
    {
      "elevation": 43.9,
      "mindate": "1954-03-01",
      "maxdate": "1980-05-31",
      "latitude": 18.5667,
      "name": "MORENO SUR, MX",
      "datacoverage": 0.9796,
      "id": "GHCND:MXN00030109",
      "elevationUnit": "METERS",
      "longitude": -96.2333
    },
    {
      "elevation": 36.9,
      "mindate": "1956-06-01",
      "maxdate": "1980-06-30",
      "latitude": 18.2833,
      "name": "MORILLO, MX",
      "datacoverage": 1,
      "id": "GHCND:MXN00030110",
      "elevationUnit": "METERS",
      "longitude": -95.4167
    },
    {
      "elevation": 267.9,
      "mindate": "1951-09-01",
      "maxdate": "1980-02-29",
      "latitude": 18.6333,
      "name": "MOTZORONGO, MX",
      "datacoverage": 0.9987,
      "id": "GHCND:MXN00030111",
      "elevationUnit": "METERS",
      "longitude": -96.7167
    },
    {
      "elevation": 69.8,
      "mindate": "1960-04-18",
      "maxdate": "2001-07-31",
      "latitude": 19.5,
      "name": "MOZOMBOA, MX",
      "datacoverage": 0.9827,
      "id": "GHCND:MXN00030112",
      "elevationUnit": "METERS",
      "longitude": -96.4667
    },
    {
      "elevation": 19.8,
      "mindate": "1939-03-08",
      "maxdate": "1983-12-31",
      "latitude": 18.0667,
      "name": "NANCHITAL SMN",
      "datacoverage": 0.6798,
      "id": "GHCND:MXN00030113",
      "elevationUnit": "METERS",
      "longitude": -94.4167
    },
    {
      "elevation": 1542,
      "mindate": "1955-07-18",
      "maxdate": "2011-12-31",
      "latitude": 19.65,
      "name": "NAOLINCO DE VICTORIA, MX",
      "datacoverage": 0.9861,
      "id": "GHCND:MXN00030114",
      "elevationUnit": "METERS",
      "longitude": -96.8667
    },
    {
      "elevation": 696.8,
      "mindate": "1958-07-01",
      "maxdate": "2011-03-31",
      "latitude": 18.8,
      "name": "NARANJAL CFE, MX",
      "datacoverage": 0.9839,
      "id": "GHCND:MXN00030115",
      "elevationUnit": "METERS",
      "longitude": -96.95
    },
    {
      "elevation": 27.7,
      "mindate": "1944-05-17",
      "maxdate": "1982-12-31",
      "latitude": 18.1,
      "name": "NOPALAPAN, MX",
      "datacoverage": 0.9279,
      "id": "GHCND:MXN00030116",
      "elevationUnit": "METERS",
      "longitude": -95.3167
    },
    {
      "elevation": 7.9,
      "mindate": "1953-03-01",
      "maxdate": "2011-12-31",
      "latitude": 18.25,
      "name": "PARAISO NOVILLERO, MX",
      "datacoverage": 0.9868,
      "id": "GHCND:MXN00030117",
      "elevationUnit": "METERS",
      "longitude": -95.9333
    },
    {
      "elevation": 47.9,
      "mindate": "1956-06-16",
      "maxdate": "1987-10-31",
      "latitude": 17.6333,
      "name": "NUEVO IXCATLAN, MX",
      "datacoverage": 0.9512,
      "id": "GHCND:MXN00030118",
      "elevationUnit": "METERS",
      "longitude": -95.4333
    },
    {
      "elevation": 422.8,
      "mindate": "1951-12-14",
      "maxdate": "1980-05-31",
      "latitude": 18.7333,
      "name": "OMEALCA, MX",
      "datacoverage": 0.9231,
      "id": "GHCND:MXN00030119",
      "elevationUnit": "METERS",
      "longitude": -96.7833
    },
    {
      "elevation": 18.9,
      "mindate": "1934-03-01",
      "maxdate": "2002-11-30",
      "latitude": 18.1667,
      "name": "OTATITLAN, MX",
      "datacoverage": 0.8446,
      "id": "GHCND:MXN00030121",
      "elevationUnit": "METERS",
      "longitude": -96.0333
    },
    {
      "elevation": 164.9,
      "mindate": "1925-08-08",
      "maxdate": "2011-12-31",
      "latitude": 21.65,
      "name": "OZULUAMA, MX",
      "datacoverage": 0.8394,
      "id": "GHCND:MXN00030122",
      "elevationUnit": "METERS",
      "longitude": -97.85
    },
    {
      "elevation": 66.8,
      "mindate": "1961-01-01",
      "maxdate": "1980-05-31",
      "latitude": 18.7333,
      "name": "PALO GACHO, MX",
      "datacoverage": 0.9873,
      "id": "GHCND:MXN00030123",
      "elevationUnit": "METERS",
      "longitude": -96.3167
    },
    {
      "elevation": 11,
      "mindate": "1942-11-01",
      "maxdate": "1988-06-30",
      "latitude": 22.0667,
      "name": "PANUCO SMN, MX",
      "datacoverage": 0.9867,
      "id": "GHCND:MXN00030124",
      "elevationUnit": "METERS",
      "longitude": -98.1833
    },
    {
      "elevation": 189.9,
      "mindate": "1961-01-01",
      "maxdate": "2011-12-31",
      "latitude": 20.4333,
      "name": "PAPANTLA, MX",
      "datacoverage": 0.89,
      "id": "GHCND:MXN00030125",
      "elevationUnit": "METERS",
      "longitude": -97.3167
    },
    {
      "elevation": 19.8,
      "mindate": "1961-01-01",
      "maxdate": "1988-02-22",
      "latitude": 19.5,
      "name": "PASO DEL CEDRO, MX",
      "datacoverage": 0.9423,
      "id": "GHCND:MXN00030126",
      "elevationUnit": "METERS",
      "longitude": -96.3833
    },
    {
      "elevation": 4,
      "mindate": "2003-01-01",
      "maxdate": "2011-12-31",
      "latitude": 22.8,
      "name": "TAMPICO ALTO",
      "datacoverage": 0.1296,
      "id": "GHCND:MXN00030127",
      "elevationUnit": "METERS",
      "longitude": -97.7833
    },
    {
      "elevation": 2391.8,
      "mindate": "1965-05-01",
      "maxdate": "2011-12-31",
      "latitude": 19.5667,
      "name": "PEROTE, MX",
      "datacoverage": 0.9687,
      "id": "GHCND:MXN00030128",
      "elevationUnit": "METERS",
      "longitude": -97.2333
    },
    {
      "elevation": 27.7,
      "mindate": "1963-01-01",
      "maxdate": "1988-10-31",
      "latitude": 18.75,
      "name": "PIEDRAS NEGRAS, MX",
      "datacoverage": 0.9242,
      "id": "GHCND:MXN00030129",
      "elevationUnit": "METERS",
      "longitude": -96.1667
    },
    {
      "elevation": 57,
      "mindate": "1960-05-01",
      "maxdate": "2011-12-31",
      "latitude": 21.2667,
      "name": "PLATON SANCHEZ, MX",
      "datacoverage": 0.9113,
      "id": "GHCND:MXN00030130",
      "elevationUnit": "METERS",
      "longitude": -98.3667
    },
    {
      "elevation": 48.8,
      "mindate": "1961-01-01",
      "maxdate": "2011-12-31",
      "latitude": 17.8167,
      "name": "PLAYA VICENTE, MX",
      "datacoverage": 0.9758,
      "id": "GHCND:MXN00030131",
      "elevationUnit": "METERS",
      "longitude": -95.8
    },
    {
      "elevation": 50,
      "mindate": "1955-04-19",
      "maxdate": "2011-12-31",
      "latitude": 20.5333,
      "name": "POZA RICA, MX",
      "datacoverage": 0.9945,
      "id": "GHCND:MXN00030132",
      "elevationUnit": "METERS",
      "longitude": -97.4667
    },
    {
      "elevation": 70.7,
      "mindate": "1967-10-11",
      "maxdate": "1982-01-31",
      "latitude": 18.6833,
      "name": "PRESA OTAPA, MX",
      "datacoverage": 1,
      "id": "GHCND:MXN00030133",
      "elevationUnit": "METERS",
      "longitude": -96.4333
    },
    {
      "elevation": 183.8,
      "mindate": "1961-01-01",
      "maxdate": "2010-11-30",
      "latitude": 20.2667,
      "name": "PROGRESO DE ZARAGOZA, MX",
      "datacoverage": 0.8638,
      "id": "GHCND:MXN00030134",
      "elevationUnit": "METERS",
      "longitude": -97.7
    },
    {
      "elevation": 1137.8,
      "mindate": "2005-07-01",
      "maxdate": "2011-12-31",
      "latitude": 19.55,
      "name": "XALAPA CFE, MX",
      "datacoverage": 0.9995,
      "id": "GHCND:MXN00030135",
      "elevationUnit": "METERS",
      "longitude": -96.85
    },
    {
      "elevation": 62.8,
      "mindate": "1951-04-12",
      "maxdate": "2011-03-31",
      "latitude": 19.1833,
      "name": "PUENTE JULA, MX",
      "datacoverage": 0.9492,
      "id": "GHCND:MXN00030136",
      "elevationUnit": "METERS",
      "longitude": -96.3333
    },
    {
      "elevation": 86.9,
      "mindate": "1964-03-10",
      "maxdate": "2010-11-30",
      "latitude": 19.3167,
      "name": "PUENTE NACIONAL CFE, MX",
      "datacoverage": 0.9728,
      "id": "GHCND:MXN00030137",
      "elevationUnit": "METERS",
      "longitude": -96.4667
    },
    {
      "elevation": 19.8,
      "mindate": "1969-02-01",
      "maxdate": "1972-09-30",
      "latitude": 19.8667,
      "name": "PUNTA LIMON CFE, MX",
      "datacoverage": 1,
      "id": "GHCND:MXN00030139",
      "elevationUnit": "METERS",
      "longitude": -96.5
    },
    {
      "elevation": 913.8,
      "mindate": "1969-01-01",
      "maxdate": "2011-12-31",
      "latitude": 19.4333,
      "name": "RANCHO VIEJO, MX",
      "datacoverage": 0.9994,
      "id": "GHCND:MXN00030140",
      "elevationUnit": "METERS",
      "longitude": -96.7833
    },
    {
      "elevation": 262.7,
      "mindate": "1921-01-01",
      "maxdate": "2011-12-31",
      "latitude": 19.35,
      "name": "RINCONADA, MX",
      "datacoverage": 0.7377,
      "id": "GHCND:MXN00030141",
      "elevationUnit": "METERS",
      "longitude": -96.55
    },
    {
      "elevation": 13.7,
      "mindate": "1951-01-01",
      "maxdate": "1988-10-31",
      "latitude": 18.3667,
      "name": "RINCON PACHECO, MX",
      "datacoverage": 0.9233,
      "id": "GHCND:MXN00030142",
      "elevationUnit": "METERS",
      "longitude": -96.1667
    },
    {
      "elevation": 147.8,
      "mindate": "1953-12-21",
      "maxdate": "2011-12-31",
      "latitude": 17.9833,
      "name": "JUAN RODRIGUEZ CLARA, MX",
      "datacoverage": 0.9082,
      "id": "GHCND:MXN00030143",
      "elevationUnit": "METERS",
      "longitude": -95.4
    },
    {
      "elevation": 109.7,
      "mindate": "1969-01-01",
      "maxdate": "1986-04-30",
      "latitude": 18.6167,
      "name": "RODRIGUEZ TEJEDA, MX",
      "datacoverage": 0.9949,
      "id": "GHCND:MXN00030144",
      "elevationUnit": "METERS",
      "longitude": -96.4167
    },
    {
      "elevation": 453.8,
      "mindate": "1970-05-29",
      "maxdate": "1988-12-31",
      "latitude": 18.9333,
      "name": "SAN ALEJO, MX",
      "datacoverage": 0.905,
      "id": "GHCND:MXN00030145",
      "elevationUnit": "METERS",
      "longitude": -96.75
    },
    {
      "elevation": 287.7,
      "mindate": "1923-05-01",
      "maxdate": "1989-11-30",
      "latitude": 18.4333,
      "name": "SAN ANDRES, MX",
      "datacoverage": 0.8978,
      "id": "GHCND:MXN00030146",
      "elevationUnit": "METERS",
      "longitude": -95.2
    },
    {
      "elevation": 18,
      "mindate": "1970-09-01",
      "maxdate": "2011-12-31",
      "latitude": 17.8833,
      "name": "SAN JUAN EVANGELISTA DGE, MX",
      "datacoverage": 0.9628,
      "id": "GHCND:MXN00030147",
      "elevationUnit": "METERS",
      "longitude": -95.1333
    }
  ]
}
