{
  "metadata": {
    "resultset": {
      "offset": 137100,
      "count": 154115,
      "limit": 100
    }
  },
  "results": [
    {
      "elevation": 587.3,
      "mindate": "1917-01-01",
      "maxdate": "2025-03-03",
      "latitude": 47.48277,
      "name": "MC CLUSKY, ND US",
      "datacoverage": 1,
      "id": "GHCND:USC00325710",
      "elevationUnit": "METERS",
      "longitude": -100.445
    },
    {
      "elevation": 677,
      "mindate": "1948-08-01",
      "maxdate": "1951-09-30",
      "latitude": 48.5969,
      "name": "MC GREGOR, ND US",
      "datacoverage": 0.8162,
      "id": "GHCND:USC00325720",
      "elevationUnit": "METERS",
      "longitude": -102.9283
    },
    {
      "elevation": 474,
      "mindate": "1909-12-01",
      "maxdate": "2025-01-31",
      "latitude": 47.5808,
      "name": "MC HENRY 3 W, ND US",
      "datacoverage": 1,
      "id": "GHCND:USC00325730",
      "elevationUnit": "METERS",
      "longitude": -98.6422
    },
    {
      "elevation": 327.7,
      "mindate": "1912-04-01",
      "maxdate": "2025-03-06",
      "latitude": 46.3911,
      "name": "MC LEOD 3 E, ND US",
      "datacoverage": 1,
      "id": "GHCND:USC00325754",
      "elevationUnit": "METERS",
      "longitude": -97.2391
    },
    {
      "elevation": 447.1,
      "mindate": "1941-05-01",
      "maxdate": "2010-12-31",
      "latitude": 47.76194,
      "name": "MC VILLE, ND US",
      "datacoverage": 1,
      "id": "GHCND:USC00325764",
      "elevationUnit": "METERS",
      "longitude": -98.18167
    },
    {
      "elevation": 551.7,
      "mindate": "1905-06-01",
      "maxdate": "2010-12-31",
      "latitude": 46.8927,
      "name": "MEDINA, ND US",
      "datacoverage": 1,
      "id": "GHCND:USC00325798",
      "elevationUnit": "METERS",
      "longitude": -99.2897
    },
    {
      "elevation": 691.9,
      "mindate": "1893-01-01",
      "maxdate": "1952-12-31",
      "latitude": 46.91667,
      "name": "MEDORA, ND US",
      "datacoverage": 0.5181,
      "id": "GHCND:USC00325803",
      "elevationUnit": "METERS",
      "longitude": -103.51667
    },
    {
      "elevation": 691.9,
      "mindate": "1948-07-01",
      "maxdate": "1949-12-31",
      "latitude": 46.91667,
      "name": "MEDORA STATE PARK, ND US",
      "datacoverage": 0.998,
      "id": "GHCND:USC00325808",
      "elevationUnit": "METERS",
      "longitude": -103.55
    },
    {
      "elevation": 691.3,
      "mindate": "1948-01-01",
      "maxdate": "2025-02-28",
      "latitude": 46.9161,
      "name": "MEDORA, ND US",
      "datacoverage": 1,
      "id": "GHCND:USC00325813",
      "elevationUnit": "METERS",
      "longitude": -103.5263
    },
    {
      "elevation": 688.8,
      "mindate": "1951-01-01",
      "maxdate": "1970-10-31",
      "latitude": 47.23333,
      "name": "MEDORA 22 NNW, ND US",
      "datacoverage": 0.883,
      "id": "GHCND:USC00325818",
      "elevationUnit": "METERS",
      "longitude": -103.6
    },
    {
      "elevation": 494.1,
      "mindate": "1898-01-01",
      "maxdate": "1952-12-31",
      "latitude": 47.33333,
      "name": "MELVILLE, ND US",
      "datacoverage": 0.6303,
      "id": "GHCND:USC00325833",
      "elevationUnit": "METERS",
      "longitude": -99.03333
    },
    {
      "elevation": 448.1,
      "mindate": "1992-01-01",
      "maxdate": "2024-09-30",
      "latitude": 48.078,
      "name": "MINNEWAUKAN, ND US",
      "datacoverage": 1,
      "id": "GHCND:USC00325848",
      "elevationUnit": "METERS",
      "longitude": -99.2655
    },
    {
      "mindate": "1908-04-01",
      "maxdate": "1953-02-28",
      "latitude": 46.26667,
      "name": "MILNOR, ND US",
      "datacoverage": 0.379,
      "id": "GHCND:USC00325933",
      "longitude": -97.46667
    },
    {
      "elevation": 483.4,
      "mindate": "1893-01-01",
      "maxdate": "1906-05-31",
      "latitude": 48.633333,
      "name": "MILTON, ND US",
      "datacoverage": 0.9694,
      "id": "GHCND:USC00325940",
      "elevationUnit": "METERS",
      "longitude": -98.033333
    },
    {
      "elevation": 539.2,
      "mindate": "1905-01-01",
      "maxdate": "2025-03-06",
      "latitude": 48.1802,
      "name": "MINOT EXPERIMENTAL STATION, ND US",
      "datacoverage": 1,
      "id": "GHCND:USC00325993",
      "elevationUnit": "METERS",
      "longitude": -101.2963
    },
    {
      "elevation": 249.9,
      "mindate": "1893-01-01",
      "maxdate": "1928-10-31",
      "latitude": 48.3,
      "name": "MINTO, ND US",
      "datacoverage": 0.9559,
      "id": "GHCND:USC00326007",
      "elevationUnit": "METERS",
      "longitude": -97.366667
    },
    {
      "elevation": 529.4,
      "mindate": "1943-06-01",
      "maxdate": "2025-03-07",
      "latitude": 46.6705,
      "name": "MOFFIT 3 SE, ND US",
      "datacoverage": 1,
      "id": "GHCND:USC00326015",
      "elevationUnit": "METERS",
      "longitude": -100.22948
    },
    {
      "elevation": 500.2,
      "mindate": "1893-09-01",
      "maxdate": "2023-10-31",
      "latitude": 48.7602,
      "name": "MOHALL, ND US",
      "datacoverage": 1,
      "id": "GHCND:USC00326025",
      "elevationUnit": "METERS",
      "longitude": -101.509
    },
    {
      "elevation": 726.9,
      "mindate": "2023-05-01",
      "maxdate": "2024-01-02",
      "latitude": 46.1275,
      "name": "LEITH 21 S, ND US",
      "datacoverage": 0.8374,
      "id": "GHCND:USC00326050",
      "elevationUnit": "METERS",
      "longitude": -101.6763
    },
    {
      "elevation": 428.2,
      "mindate": "1948-01-01",
      "maxdate": "2025-03-06",
      "latitude": 46.7005,
      "name": "MONTPELIER, ND US",
      "datacoverage": 1,
      "id": "GHCND:USC00326105",
      "elevationUnit": "METERS",
      "longitude": -98.5839
    },
    {
      "elevation": 739.4,
      "mindate": "1907-07-01",
      "maxdate": "2021-08-31",
      "latitude": 46.3747,
      "name": "MOTT, ND US",
      "datacoverage": 1,
      "id": "GHCND:USC00326155",
      "elevationUnit": "METERS",
      "longitude": -102.32111
    },
    {
      "elevation": 747.7,
      "mindate": "2008-06-01",
      "maxdate": "2012-12-31",
      "latitude": 46.393,
      "name": "MOTT 1 N, ND US",
      "datacoverage": 0.9631,
      "id": "GHCND:USC00326158",
      "elevationUnit": "METERS",
      "longitude": -102.3186
    },
    {
      "elevation": 467,
      "mindate": "1947-05-01",
      "maxdate": "1982-12-31",
      "latitude": 48.51667,
      "name": "MUNICH 11 SSW, ND US",
      "datacoverage": 0.9695,
      "id": "GHCND:USC00326195",
      "elevationUnit": "METERS",
      "longitude": -98.91667
    },
    {
      "elevation": 603.5,
      "mindate": "1893-01-01",
      "maxdate": "2025-03-07",
      "latitude": 46.51111,
      "name": "NAPOLEON, ND US",
      "datacoverage": 1,
      "id": "GHCND:USC00326255",
      "elevationUnit": "METERS",
      "longitude": -99.7725
    },
    {
      "elevation": 792.5,
      "mindate": "1894-03-01",
      "maxdate": "2025-01-30",
      "latitude": 46.54055,
      "name": "NEW ENGLAND, ND US",
      "datacoverage": 1,
      "id": "GHCND:USC00326315",
      "elevationUnit": "METERS",
      "longitude": -102.86916
    },
    {
      "elevation": 850.4,
      "mindate": "1941-09-01",
      "maxdate": "1947-11-30",
      "latitude": 47,
      "name": "NEW HRADEC, ND US",
      "datacoverage": 0.867,
      "id": "GHCND:USC00326320",
      "elevationUnit": "METERS",
      "longitude": -102.883333
    },
    {
      "elevation": 476.1,
      "mindate": "1949-01-01",
      "maxdate": "1950-10-31",
      "latitude": 47.68333,
      "name": "NEW ROCKFORD, ND US",
      "datacoverage": 1,
      "id": "GHCND:USC00326350",
      "elevationUnit": "METERS",
      "longitude": -99.13333
    },
    {
      "elevation": 473,
      "mindate": "1948-01-01",
      "maxdate": "1958-06-30",
      "latitude": 47.71667,
      "name": "NEW ROCKFORD 7 WNW, ND US",
      "datacoverage": 1,
      "id": "GHCND:USC00326355",
      "elevationUnit": "METERS",
      "longitude": -99.26667
    },
    {
      "elevation": 655.3,
      "mindate": "1893-06-01",
      "maxdate": "2025-03-06",
      "latitude": 46.8925,
      "name": "NEW SALEM 5 NW, ND US",
      "datacoverage": 1,
      "id": "GHCND:USC00326365",
      "elevationUnit": "METERS",
      "longitude": -101.4897
    },
    {
      "elevation": 580,
      "mindate": "1952-01-01",
      "maxdate": "1985-03-31",
      "latitude": 47.97777,
      "name": "NEW TOWN 4 W, ND US",
      "datacoverage": 0.8614,
      "id": "GHCND:USC00326383",
      "elevationUnit": "METERS",
      "longitude": -102.57833
    },
    {
      "elevation": 598,
      "mindate": "1950-06-01",
      "maxdate": "1958-06-30",
      "latitude": 48.88333,
      "name": "NOONAN, ND US",
      "datacoverage": 1,
      "id": "GHCND:USC00326455",
      "elevationUnit": "METERS",
      "longitude": -103.01667
    },
    {
      "elevation": 563.9,
      "mindate": "1950-06-01",
      "maxdate": "1952-12-31",
      "latitude": 49,
      "name": "NORTHGATE, CA",
      "datacoverage": 0.9341,
      "id": "GHCND:USC00326535",
      "elevationUnit": "METERS",
      "longitude": -102.26667
    },
    {
      "elevation": 460.9,
      "mindate": "1951-04-01",
      "maxdate": "1958-06-30",
      "latitude": 46.55,
      "name": "NORTONVILLE, ND US",
      "datacoverage": 0.9989,
      "id": "GHCND:USC00326565",
      "elevationUnit": "METERS",
      "longitude": -98.73333
    },
    {
      "elevation": 403.6,
      "mindate": "1922-09-01",
      "maxdate": "2019-08-30",
      "latitude": 46.1458,
      "name": "OAKES, ND US",
      "datacoverage": 1,
      "id": "GHCND:USC00326620",
      "elevationUnit": "METERS",
      "longitude": -98.0919
    },
    {
      "mindate": "1948-08-01",
      "maxdate": "1949-12-31",
      "latitude": 48.65,
      "name": "OMEMEE 3 SE, ND US",
      "datacoverage": 0.8814,
      "id": "GHCND:USC00326703",
      "longitude": -100.33333
    },
    {
      "elevation": 387.7,
      "mindate": "1905-05-01",
      "maxdate": "1918-01-31",
      "latitude": 46.9,
      "name": "ORISKA, ND US",
      "datacoverage": 0.8624,
      "id": "GHCND:USC00326743",
      "elevationUnit": "METERS",
      "longitude": -97.8
    },
    {
      "elevation": 295.7,
      "mindate": "1903-11-01",
      "maxdate": "2013-06-01",
      "latitude": 48.4,
      "name": "PARK RIVER, ND US",
      "datacoverage": 1,
      "id": "GHCND:USC00326857",
      "elevationUnit": "METERS",
      "longitude": -97.75
    },
    {
      "elevation": 594.4,
      "mindate": "1916-06-01",
      "maxdate": "1979-08-31",
      "latitude": 47.95,
      "name": "PARSHALL, ND US",
      "datacoverage": 0.9657,
      "id": "GHCND:USC00326867",
      "elevationUnit": "METERS",
      "longitude": -102.13333
    },
    {
      "elevation": 467,
      "mindate": "1930-06-01",
      "maxdate": "2025-01-30",
      "latitude": 48.0356,
      "name": "PETERSBURG 2 N, ND US",
      "datacoverage": 1,
      "id": "GHCND:USC00327027",
      "elevationUnit": "METERS",
      "longitude": -98.0096
    },
    {
      "elevation": 563.9,
      "mindate": "1919-04-01",
      "maxdate": "2010-12-31",
      "latitude": 47.11667,
      "name": "PETTIBONE, ND US",
      "datacoverage": 1,
      "id": "GHCND:USC00327047",
      "elevationUnit": "METERS",
      "longitude": -99.53333
    },
    {
      "elevation": 479.1,
      "mindate": "1951-01-01",
      "maxdate": "1957-09-30",
      "latitude": 47.16667,
      "name": "PINGREE, ND US",
      "datacoverage": 0.9992,
      "id": "GHCND:USC00327117",
      "elevationUnit": "METERS",
      "longitude": -98.9
    },
    {
      "elevation": 638.3,
      "mindate": "2015-12-01",
      "maxdate": "2018-09-30",
      "latitude": 48.0267,
      "name": "PLAZA, ND US",
      "datacoverage": 1,
      "id": "GHCND:USC00327120",
      "elevationUnit": "METERS",
      "longitude": -101.9625
    },
    {
      "elevation": 595,
      "mindate": "1893-12-01",
      "maxdate": "1973-11-30",
      "latitude": 49,
      "name": "PORTAL, CA",
      "datacoverage": 0.7438,
      "id": "GHCND:USC00327201",
      "elevationUnit": "METERS",
      "longitude": -102.55
    },
    {
      "elevation": 310.9,
      "mindate": "1893-02-01",
      "maxdate": "1930-12-31",
      "latitude": 46.616667,
      "name": "POWER, ND US",
      "datacoverage": 0.9078,
      "id": "GHCND:USC00327270",
      "elevationUnit": "METERS",
      "longitude": -97.266667
    },
    {
      "elevation": 672.1,
      "mindate": "1914-08-01",
      "maxdate": "2010-12-31",
      "latitude": 48.5722,
      "name": "POWERS LAKE 1 N, ND US",
      "datacoverage": 1,
      "id": "GHCND:USC00327281",
      "elevationUnit": "METERS",
      "longitude": -102.6466
    },
    {
      "elevation": 755.9,
      "mindate": "1948-01-01",
      "maxdate": "2025-02-28",
      "latitude": 46.1758,
      "name": "PRETTY ROCK, ND US",
      "datacoverage": 1,
      "id": "GHCND:USC00327311",
      "elevationUnit": "METERS",
      "longitude": -101.8561
    },
    {
      "elevation": 602,
      "mindate": "1948-08-01",
      "maxdate": "1951-09-03",
      "latitude": 47.8133,
      "name": "RAUB 5 NNE, ND US",
      "datacoverage": 0.8952,
      "id": "GHCND:USC00327405",
      "elevationUnit": "METERS",
      "longitude": -102.0233
    },
    {
      "elevation": 598,
      "mindate": "1954-01-01",
      "maxdate": "1977-11-10",
      "latitude": 47.6,
      "name": "RAUB 12 SSW, ND US",
      "datacoverage": 0.8267,
      "id": "GHCND:USC00327408",
      "elevationUnit": "METERS",
      "longitude": -102.1
    },
    {
      "elevation": 864.1,
      "mindate": "1950-01-01",
      "maxdate": "2023-05-31",
      "latitude": 46.1088,
      "name": "REEDER, ND US",
      "datacoverage": 1,
      "id": "GHCND:USC00327450",
      "elevationUnit": "METERS",
      "longitude": -102.9447
    },
    {
      "elevation": 839.7,
      "mindate": "1949-01-01",
      "maxdate": "2010-12-31",
      "latitude": 46.28556,
      "name": "REEDER 13 N, ND US",
      "datacoverage": 1,
      "id": "GHCND:USC00327452",
      "elevationUnit": "METERS",
      "longitude": -102.95111
    },
    {
      "elevation": 624.8,
      "mindate": "1989-01-01",
      "maxdate": "1998-10-31",
      "latitude": 47.23333,
      "name": "REGAN 6 NE, ND US",
      "datacoverage": 0.9998,
      "id": "GHCND:USC00327461",
      "elevationUnit": "METERS",
      "longitude": -100.43333
    },
    {
      "elevation": 743.7,
      "mindate": "2002-11-01",
      "maxdate": "2013-01-31",
      "latitude": 46.4199,
      "name": "REGENT, ND US",
      "datacoverage": 1,
      "id": "GHCND:USC00327465",
      "elevationUnit": "METERS",
      "longitude": -102.5611
    },
    {
      "elevation": 977.8,
      "mindate": "2018-01-10",
      "maxdate": "2019-07-31",
      "latitude": 46.0044,
      "name": "RHAME 16 S, ND US",
      "datacoverage": 0.4454,
      "id": "GHCND:USC00327491",
      "elevationUnit": "METERS",
      "longitude": -103.7
    },
    {
      "elevation": 752.9,
      "mindate": "1916-02-01",
      "maxdate": "2025-02-28",
      "latitude": 46.8886,
      "name": "RICHARDTON ABBEY, ND US",
      "datacoverage": 1,
      "id": "GHCND:USC00327530",
      "elevationUnit": "METERS",
      "longitude": -102.3191
    },
    {
      "elevation": 602.6,
      "mindate": "1948-01-01",
      "maxdate": "2025-02-27",
      "latitude": 47.49805,
      "name": "RIVERDALE, ND US",
      "datacoverage": 1,
      "id": "GHCND:USC00327585",
      "elevationUnit": "METERS",
      "longitude": -101.375
    },
    {
      "elevation": 493.8,
      "mindate": "1949-11-01",
      "maxdate": "2025-02-16",
      "latitude": 48.6297,
      "name": "ROLETTE 3 SE, ND US",
      "datacoverage": 1,
      "id": "GHCND:USC00327655",
      "elevationUnit": "METERS",
      "longitude": -99.8069
    },
    {
      "elevation": 558.7,
      "mindate": "1904-04-01",
      "maxdate": "2010-12-31",
      "latitude": 48.8811,
      "name": "ROLLA 1 NE, ND US",
      "datacoverage": 1,
      "id": "GHCND:USC00327664",
      "elevationUnit": "METERS",
      "longitude": -99.5861
    },
    {
      "elevation": 472.4,
      "mindate": "1904-05-01",
      "maxdate": "2025-01-31",
      "latitude": 48.3541,
      "name": "RUGBY, ND US",
      "datacoverage": 1,
      "id": "GHCND:USC00327704",
      "elevationUnit": "METERS",
      "longitude": -99.9925
    },
    {
      "elevation": 644,
      "mindate": "1948-01-01",
      "maxdate": "1973-06-30",
      "latitude": 47.93333,
      "name": "RYDER 1 NNW, ND US",
      "datacoverage": 0.9634,
      "id": "GHCND:USC00327749",
      "elevationUnit": "METERS",
      "longitude": -101.68333
    },
    {
      "elevation": 592.8,
      "mindate": "1893-01-01",
      "maxdate": "1900-08-31",
      "latitude": 48.933333,
      "name": "ST. JOHN, ND US",
      "datacoverage": 0.8373,
      "id": "GHCND:USC00327810",
      "elevationUnit": "METERS",
      "longitude": -99.683333
    },
    {
      "elevation": 586.1,
      "mindate": "1951-01-01",
      "maxdate": "1986-02-28",
      "latitude": 48.83333,
      "name": "SAN HAVEN, ND US",
      "datacoverage": 0.9976,
      "id": "GHCND:USC00327824",
      "elevationUnit": "METERS",
      "longitude": -100.03333
    },
    {
      "elevation": 561.1,
      "mindate": "1948-01-01",
      "maxdate": "1952-09-30",
      "latitude": 47.98333,
      "name": "SANISH, ND US",
      "datacoverage": 0.9999,
      "id": "GHCND:USC00327834",
      "elevationUnit": "METERS",
      "longitude": -102.53333
    },
    {
      "elevation": 483.7,
      "mindate": "1948-08-01",
      "maxdate": "1951-08-31",
      "latitude": 48.945,
      "name": "SARLES, ND US",
      "datacoverage": 0.9461,
      "id": "GHCND:USC00327844",
      "elevationUnit": "METERS",
      "longitude": -98.9947
    },
    {
      "elevation": 848,
      "mindate": "1951-01-01",
      "maxdate": "1957-09-30",
      "latitude": 46.15,
      "name": "SCRANTON, ND US",
      "datacoverage": 0.9994,
      "id": "GHCND:USC00327932",
      "elevationUnit": "METERS",
      "longitude": -103.15
    },
    {
      "mindate": "1948-08-01",
      "maxdate": "1949-10-18",
      "latitude": 47.56667,
      "name": "SEARING, ND US",
      "datacoverage": 0.5328,
      "id": "GHCND:USC00327944",
      "longitude": -103.8
    },
    {
      "elevation": 665.1,
      "mindate": "1919-01-01",
      "maxdate": "1975-04-30",
      "latitude": 46.06667,
      "name": "SELFRIDGE, ND US",
      "datacoverage": 0.6391,
      "id": "GHCND:USC00327952",
      "elevationUnit": "METERS",
      "longitude": -100.91667
    },
    {
      "elevation": 811.1,
      "mindate": "1951-01-01",
      "maxdate": "1975-11-30",
      "latitude": 46.61667,
      "name": "SENTINEL BUTTE 20 S, ND US",
      "datacoverage": 0.9353,
      "id": "GHCND:USC00327976",
      "elevationUnit": "METERS",
      "longitude": -103.81667
    },
    {
      "elevation": 464.8,
      "mindate": "1923-01-01",
      "maxdate": "2010-12-31",
      "latitude": 47.59833,
      "name": "SHARON, ND US",
      "datacoverage": 1,
      "id": "GHCND:USC00327986",
      "elevationUnit": "METERS",
      "longitude": -97.9
    },
    {
      "elevation": 500.5,
      "mindate": "1948-01-01",
      "maxdate": "2022-02-26",
      "latitude": 48.9623,
      "name": "SHERWOOD, ND US",
      "datacoverage": 1,
      "id": "GHCND:USC00328047",
      "elevationUnit": "METERS",
      "longitude": -101.631
    },
    {
      "elevation": 488,
      "mindate": "1979-02-01",
      "maxdate": "1981-07-31",
      "latitude": 48.98333,
      "name": "SHERWOOD 15 W, ND US",
      "datacoverage": 0.9986,
      "id": "GHCND:USC00328049",
      "elevationUnit": "METERS",
      "longitude": -101.96667
    },
    {
      "elevation": 451.1,
      "mindate": "1893-07-01",
      "maxdate": "1984-10-31",
      "latitude": 47.83333,
      "name": "SHEYENNE, ND US",
      "datacoverage": 0.3038,
      "id": "GHCND:USC00328057",
      "elevationUnit": "METERS",
      "longitude": -99.11667
    },
    {
      "elevation": 550.5,
      "mindate": "1950-07-01",
      "maxdate": "2025-02-28",
      "latitude": 46.233,
      "name": "SHIELDS, ND US",
      "datacoverage": 1,
      "id": "GHCND:USC00328065",
      "elevationUnit": "METERS",
      "longitude": -101.1291
    },
    {
      "elevation": 694.9,
      "mindate": "1938-01-01",
      "maxdate": "2017-02-28",
      "latitude": 48.3566,
      "name": "STANLEY 3 NNW, ND US",
      "datacoverage": 1,
      "id": "GHCND:USC00328276",
      "elevationUnit": "METERS",
      "longitude": -102.4116
    },
    {
      "elevation": 519.1,
      "mindate": "1923-09-01",
      "maxdate": "1936-04-30",
      "latitude": 47.31667,
      "name": "STANTON, ND US",
      "datacoverage": 0.9991,
      "id": "GHCND:USC00328298",
      "elevationUnit": "METERS",
      "longitude": -101.38333
    },
    {
      "elevation": 564.8,
      "mindate": "1894-04-01",
      "maxdate": "2021-10-03",
      "latitude": 46.8948,
      "name": "STEELE 4 N, ND US",
      "datacoverage": 1,
      "id": "GHCND:USC00328366",
      "elevationUnit": "METERS",
      "longitude": -99.9482
    },
    {
      "elevation": 708.7,
      "mindate": "1907-04-01",
      "maxdate": "1934-08-31",
      "latitude": 46.05,
      "name": "STOWERS, ND US",
      "datacoverage": 0.6504,
      "id": "GHCND:USC00328396",
      "elevationUnit": "METERS",
      "longitude": -102.083333
    },
    {
      "elevation": 597.7,
      "mindate": "1987-01-01",
      "maxdate": "2025-02-27",
      "latitude": 46.7154,
      "name": "STREETER 5 NW, ND US",
      "datacoverage": 1,
      "id": "GHCND:USC00328415",
      "elevationUnit": "METERS",
      "longitude": -99.4475
    },
    {
      "elevation": 498,
      "mindate": "1951-04-01",
      "maxdate": "2025-01-31",
      "latitude": 47.4647,
      "name": "SYKESTON, ND US",
      "datacoverage": 1,
      "id": "GHCND:USC00328608",
      "elevationUnit": "METERS",
      "longitude": -99.3983
    },
    {
      "elevation": 661.4,
      "mindate": "1928-08-01",
      "maxdate": "2011-09-30",
      "latitude": 48.3475,
      "name": "TAGUS, ND US",
      "datacoverage": 1,
      "id": "GHCND:USC00328627",
      "elevationUnit": "METERS",
      "longitude": -101.9325
    },
    {
      "elevation": 676.7,
      "mindate": "2001-01-01",
      "maxdate": "2022-09-02",
      "latitude": 46.9988,
      "name": "TAYLOR 7 NNW, ND US",
      "datacoverage": 1,
      "id": "GHCND:USC00328660",
      "elevationUnit": "METERS",
      "longitude": -102.4761
    },
    {
      "elevation": 684.3,
      "mindate": "1905-01-01",
      "maxdate": "2014-07-31",
      "latitude": 48.3988,
      "name": "TIOGA 1 E, ND US",
      "datacoverage": 1,
      "id": "GHCND:USC00328737",
      "elevationUnit": "METERS",
      "longitude": -102.918
    },
    {
      "elevation": 563.3,
      "mindate": "1950-01-01",
      "maxdate": "1958-06-30",
      "latitude": 48.76667,
      "name": "TOLLEY, ND US",
      "datacoverage": 0.9994,
      "id": "GHCND:USC00328764",
      "elevationUnit": "METERS",
      "longitude": -101.75
    },
    {
      "elevation": 451.1,
      "mindate": "1896-02-01",
      "maxdate": "2025-02-28",
      "latitude": 48.3706,
      "name": "TOWNER 2 NE, ND US",
      "datacoverage": 1,
      "id": "GHCND:USC00328792",
      "elevationUnit": "METERS",
      "longitude": -100.3907
    },
    {
      "elevation": 741,
      "mindate": "1926-01-01",
      "maxdate": "1958-10-31",
      "latitude": 47.3,
      "name": "TROTTERS 6 SE, ND US",
      "datacoverage": 0.9873,
      "id": "GHCND:USC00328807",
      "elevationUnit": "METERS",
      "longitude": -103.86667
    },
    {
      "elevation": 737.6,
      "mindate": "1949-12-01",
      "maxdate": "2011-08-19",
      "latitude": 47.2841,
      "name": "TROTTERS 3 SSE, ND US",
      "datacoverage": 1,
      "id": "GHCND:USC00328812",
      "elevationUnit": "METERS",
      "longitude": -103.9005
    },
    {
      "elevation": 577,
      "mindate": "1912-09-01",
      "maxdate": "2025-03-06",
      "latitude": 47.5213,
      "name": "TURTLE LAKE, ND US",
      "datacoverage": 1,
      "id": "GHCND:USC00328840",
      "elevationUnit": "METERS",
      "longitude": -100.8883
    },
    {
      "elevation": 572.7,
      "mindate": "1930-01-01",
      "maxdate": "2010-12-31",
      "latitude": 47.13333,
      "name": "TUTTLE, ND US",
      "datacoverage": 1,
      "id": "GHCND:USC00328850",
      "elevationUnit": "METERS",
      "longitude": -100
    },
    {
      "elevation": 640.1,
      "mindate": "1998-01-01",
      "maxdate": "2013-01-31",
      "latitude": 47.3013,
      "name": "TUTTLE 12 NNE, ND US",
      "datacoverage": 1,
      "id": "GHCND:USC00328853",
      "elevationUnit": "METERS",
      "longitude": -99.9188
    },
    {
      "elevation": 623.3,
      "mindate": "1954-01-01",
      "maxdate": "2025-03-07",
      "latitude": 47.455,
      "name": "UNDERWOOD, ND US",
      "datacoverage": 1,
      "id": "GHCND:USC00328872",
      "elevationUnit": "METERS",
      "longitude": -101.1461
    },
    {
      "elevation": 534,
      "mindate": "1912-02-01",
      "maxdate": "1954-06-30",
      "latitude": 47.43333,
      "name": "UNDERWOOD 12 W, ND US",
      "datacoverage": 0.9628,
      "id": "GHCND:USC00328877",
      "elevationUnit": "METERS",
      "longitude": -101.4
    },
    {
      "elevation": 439.8,
      "mindate": "1940-07-01",
      "maxdate": "2024-12-10",
      "latitude": 48.61388,
      "name": "UPHAM 3 N, ND US",
      "datacoverage": 1,
      "id": "GHCND:USC00328913",
      "elevationUnit": "METERS",
      "longitude": -100.72694
    },
    {
      "elevation": 438.9,
      "mindate": "1953-04-01",
      "maxdate": "1953-07-31",
      "latitude": 48.58333,
      "name": "UPHAM 3 W, ND US",
      "datacoverage": 1,
      "id": "GHCND:USC00328918",
      "elevationUnit": "METERS",
      "longitude": -100.78333
    },
    {
      "elevation": 368.8,
      "mindate": "1893-04-01",
      "maxdate": "2014-06-01",
      "latitude": 46.9558,
      "name": "VALLEY CITY 3 NNW, ND US",
      "datacoverage": 1,
      "id": "GHCND:USC00328937",
      "elevationUnit": "METERS",
      "longitude": -98.0203
    },
    {
      "elevation": 566.9,
      "mindate": "1915-06-01",
      "maxdate": "1952-08-31",
      "latitude": 47.95,
      "name": "VAN HOOK, ND US",
      "datacoverage": 0.8176,
      "id": "GHCND:USC00328970",
      "elevationUnit": "METERS",
      "longitude": -102.35
    },
    {
      "elevation": 460.2,
      "mindate": "1926-11-01",
      "maxdate": "2025-03-07",
      "latitude": 48.06,
      "name": "VELVA, ND US",
      "datacoverage": 1,
      "id": "GHCND:USC00328990",
      "elevationUnit": "METERS",
      "longitude": -100.9413
    },
    {
      "elevation": 417.6,
      "mindate": "1948-08-01",
      "maxdate": "2014-02-05",
      "latitude": 46.3638,
      "name": "VERONA, ND US",
      "datacoverage": 1,
      "id": "GHCND:USC00329035",
      "elevationUnit": "METERS",
      "longitude": -98.0758
    },
    {
      "elevation": 292.9,
      "mindate": "1948-08-01",
      "maxdate": "1951-09-30",
      "latitude": 46.28333,
      "name": "WAHPETON POWER PLANT, ND US",
      "datacoverage": 0.8952,
      "id": "GHCND:USC00329095",
      "elevationUnit": "METERS",
      "longitude": -96.6
    },
    {
      "elevation": 291.4,
      "mindate": "1893-01-01",
      "maxdate": "2010-12-31",
      "latitude": 46.32333,
      "name": "WAHPETON 3 N, ND US",
      "datacoverage": 1,
      "id": "GHCND:USC00329100",
      "elevationUnit": "METERS",
      "longitude": -96.61083
    },
    {
      "elevation": 286.5,
      "mindate": "1904-05-01",
      "maxdate": "2010-12-31",
      "latitude": 48.91333,
      "name": "WALHALLA 1 SW, ND US",
      "datacoverage": 1,
      "id": "GHCND:USC00329155",
      "elevationUnit": "METERS",
      "longitude": -97.91806
    },
    {
      "elevation": 451.1,
      "mindate": "1951-06-01",
      "maxdate": "1981-12-31",
      "latitude": 47.85,
      "name": "WARWICK, ND US",
      "datacoverage": 0.9181,
      "id": "GHCND:USC00329185",
      "elevationUnit": "METERS",
      "longitude": -98.7
    }
  ]
}
