{
  "metadata": {
    "resultset": {
      "offset": 52500,
      "count": 154115,
      "limit": 100
    }
  },
  "results": [
    {
      "elevation": 5,
      "mindate": "1993-09-01",
      "maxdate": "2024-04-28",
      "latitude": 47.8,
      "name": "BAS CARAQUET, CA",
      "datacoverage": 1,
      "id": "GHCND:CA008100467",
      "elevationUnit": "METERS",
      "longitude": -64.8333
    },
    {
      "elevation": 11,
      "mindate": "1933-10-01",
      "maxdate": "2024-04-28",
      "latitude": 47.8,
      "name": "BAS CARAQUET, CA",
      "datacoverage": 0.7535,
      "id": "GHCND:CA008100468",
      "elevationUnit": "METERS",
      "longitude": -64.8667
    },
    {
      "elevation": 12,
      "mindate": "1872-07-01",
      "maxdate": "1972-01-31",
      "latitude": 47.6167,
      "name": "BATHURST, CA",
      "datacoverage": 0.8084,
      "id": "GHCND:CA008100500",
      "elevationUnit": "METERS",
      "longitude": -65.65
    },
    {
      "elevation": 5,
      "mindate": "1964-07-01",
      "maxdate": "1992-06-30",
      "latitude": 47.6167,
      "name": "BATHURST, CA",
      "datacoverage": 0.997,
      "id": "GHCND:CA008100502",
      "elevationUnit": "METERS",
      "longitude": -65.65
    },
    {
      "elevation": 59,
      "mindate": "1992-07-01",
      "maxdate": "2013-10-09",
      "latitude": 47.6333,
      "name": "BATHURST A, CA",
      "datacoverage": 0.9491,
      "id": "GHCND:CA008100503",
      "elevationUnit": "METERS",
      "longitude": -65.75
    },
    {
      "elevation": 91,
      "mindate": "1966-04-01",
      "maxdate": "1997-04-30",
      "latitude": 46.5333,
      "name": "BEECHWOOD, CA",
      "datacoverage": 0.8767,
      "id": "GHCND:CA008100512",
      "elevationUnit": "METERS",
      "longitude": -67.6667
    },
    {
      "elevation": 8,
      "mindate": "1971-01-01",
      "maxdate": "1990-06-30",
      "latitude": 47.9,
      "name": "BELLEDUNE, CA",
      "datacoverage": 0.9788,
      "id": "GHCND:CA008100514",
      "elevationUnit": "METERS",
      "longitude": -65.8333
    },
    {
      "elevation": 8,
      "mindate": "1991-11-01",
      "maxdate": "2002-08-31",
      "latitude": 47.9,
      "name": "BELLEDUNE CS, CA",
      "datacoverage": 0.9538,
      "id": "GHCND:CA008100515",
      "elevationUnit": "METERS",
      "longitude": -65.8333
    },
    {
      "elevation": 107,
      "mindate": "1964-07-01",
      "maxdate": "1965-12-31",
      "latitude": 45.9167,
      "name": "BERRYTON, CA",
      "datacoverage": 0.998,
      "id": "GHCND:CA008100516",
      "elevationUnit": "METERS",
      "longitude": -64.8833
    },
    {
      "elevation": 23,
      "mindate": "1964-02-01",
      "maxdate": "2011-12-30",
      "latitude": 47.75,
      "name": "BERTRAND, CA",
      "datacoverage": 0.6383,
      "id": "GHCND:CA008100518",
      "elevationUnit": "METERS",
      "longitude": -65.0667
    },
    {
      "elevation": 23,
      "mindate": "1935-06-01",
      "maxdate": "1946-07-31",
      "latitude": 47.2,
      "name": "BIG BALD MOUNTAIN, CA",
      "datacoverage": 0.3442,
      "id": "GHCND:CA008100525",
      "elevationUnit": "METERS",
      "longitude": -66.4333
    },
    {
      "elevation": 22,
      "mindate": "1940-01-01",
      "maxdate": "1951-04-05",
      "latitude": 45.6167,
      "name": "BLISSVILLE, CA",
      "datacoverage": 1,
      "id": "GHCND:CA008100550",
      "elevationUnit": "METERS",
      "longitude": -66.55
    },
    {
      "elevation": 160,
      "mindate": "1935-06-01",
      "maxdate": "1951-06-30",
      "latitude": 47.8,
      "name": "BLUE MOUNTAIN TOWER, CA",
      "datacoverage": 0.3575,
      "id": "GHCND:CA008100558",
      "elevationUnit": "METERS",
      "longitude": -66.3
    },
    {
      "elevation": 450,
      "mindate": "1966-07-01",
      "maxdate": "2011-08-11",
      "latitude": 46.65,
      "name": "BON ACCORD, CA",
      "datacoverage": 0.9557,
      "id": "GHCND:CA008100566",
      "elevationUnit": "METERS",
      "longitude": -67.5833
    },
    {
      "elevation": 84,
      "mindate": "1958-02-01",
      "maxdate": "1966-12-31",
      "latitude": 45.5,
      "name": "BROCKWAY, CA",
      "datacoverage": 0.9629,
      "id": "GHCND:CA008100570",
      "elevationUnit": "METERS",
      "longitude": -67.1167
    },
    {
      "elevation": 213,
      "mindate": "1973-01-01",
      "maxdate": "1981-03-31",
      "latitude": 47.4833,
      "name": "BRUNSWICK MINES, CA",
      "datacoverage": 0.96,
      "id": "GHCND:CA008100583",
      "elevationUnit": "METERS",
      "longitude": -65.8833
    },
    {
      "elevation": 11,
      "mindate": "1965-10-01",
      "maxdate": "1999-07-31",
      "latitude": 46.5167,
      "name": "BUCTOUCHE, CA",
      "datacoverage": 0.9927,
      "id": "GHCND:CA008100590",
      "elevationUnit": "METERS",
      "longitude": -64.7167
    },
    {
      "elevation": 36,
      "mindate": "1982-07-01",
      "maxdate": "1991-10-31",
      "latitude": 46.4333,
      "name": "BUCTOUCHE CDA, CA",
      "datacoverage": 0.9997,
      "id": "GHCND:CA008100592",
      "elevationUnit": "METERS",
      "longitude": -64.7667
    },
    {
      "elevation": 36,
      "mindate": "1991-08-01",
      "maxdate": "2021-10-03",
      "latitude": 46.4333,
      "name": "BUCTOUCHE CDA CS, CA",
      "datacoverage": 0.9831,
      "id": "GHCND:CA008100593",
      "elevationUnit": "METERS",
      "longitude": -64.7667
    },
    {
      "elevation": 8,
      "mindate": "1934-05-01",
      "maxdate": "1958-02-28",
      "latitude": 47.2,
      "name": "BURNT CHURCH, CA",
      "datacoverage": 0.9685,
      "id": "GHCND:CA008100600",
      "elevationUnit": "METERS",
      "longitude": -65.1333
    },
    {
      "elevation": 15,
      "mindate": "1974-02-01",
      "maxdate": "1976-06-30",
      "latitude": 47.2333,
      "name": "BURNT CHURCH, CA",
      "datacoverage": 0.9674,
      "id": "GHCND:CA008100601",
      "elevationUnit": "METERS",
      "longitude": -65.1333
    },
    {
      "elevation": 8,
      "mindate": "1945-07-01",
      "maxdate": "1966-11-30",
      "latitude": 48,
      "name": "CAMPBELLTON, CA",
      "datacoverage": 0.9883,
      "id": "GHCND:CA008100700",
      "elevationUnit": "METERS",
      "longitude": -66.6667
    },
    {
      "elevation": 26,
      "mindate": "1937-05-01",
      "maxdate": "1978-05-31",
      "latitude": 48,
      "name": "CAMPBELLTON POWER ST, CA",
      "datacoverage": 0.8316,
      "id": "GHCND:CA008100701",
      "elevationUnit": "METERS",
      "longitude": -66.6833
    },
    {
      "elevation": 34,
      "mindate": "1977-09-01",
      "maxdate": "1978-02-28",
      "latitude": 47.6833,
      "name": "CANOBIE, CA",
      "datacoverage": 1,
      "id": "GHCND:CA008100770",
      "elevationUnit": "METERS",
      "longitude": -65.3833
    },
    {
      "elevation": 174,
      "mindate": "1970-06-01",
      "maxdate": "1990-06-30",
      "latitude": 45.8833,
      "name": "CANTERBURY, CA",
      "datacoverage": 0.9918,
      "id": "GHCND:CA008100775",
      "elevationUnit": "METERS",
      "longitude": -67.4667
    },
    {
      "elevation": 31,
      "mindate": "1971-11-01",
      "maxdate": "1978-03-31",
      "latitude": 46.1833,
      "name": "CAP PELE, CA",
      "datacoverage": 1,
      "id": "GHCND:CA008100779",
      "elevationUnit": "METERS",
      "longitude": -64.2333
    },
    {
      "elevation": 18,
      "mindate": "1980-04-01",
      "maxdate": "1984-06-30",
      "latitude": 47.8,
      "name": "CARAQUET",
      "datacoverage": 1,
      "id": "GHCND:CA008100785",
      "elevationUnit": "METERS",
      "longitude": -64.9333
    },
    {
      "elevation": 143,
      "mindate": "1965-11-01",
      "maxdate": "1993-09-30",
      "latitude": 46.3833,
      "name": "CENTREVILLE, CA",
      "datacoverage": 0.9762,
      "id": "GHCND:CA008100850",
      "elevationUnit": "METERS",
      "longitude": -67.7
    },
    {
      "elevation": 40,
      "mindate": "1966-12-01",
      "maxdate": "2003-03-19",
      "latitude": 47.9833,
      "name": "CHARLO A, CA",
      "datacoverage": 1,
      "id": "GHCND:CA008100880",
      "elevationUnit": "METERS",
      "longitude": -66.3333
    },
    {
      "elevation": 42,
      "mindate": "2003-11-01",
      "maxdate": "2025-03-06",
      "latitude": 47.9833,
      "name": "CHARLO AUTO, CA",
      "datacoverage": 1,
      "id": "GHCND:CA008100885",
      "elevationUnit": "METERS",
      "longitude": -66.3333
    },
    {
      "elevation": 17,
      "mindate": "1934-01-01",
      "maxdate": "1958-12-31",
      "latitude": 47.9667,
      "name": "CHARLO FALLS, CA",
      "datacoverage": 0.9534,
      "id": "GHCND:CA008100900",
      "elevationUnit": "METERS",
      "longitude": -66.4833
    },
    {
      "elevation": 33,
      "mindate": "2005-09-01",
      "maxdate": "2025-03-06",
      "latitude": 47.0167,
      "name": "MIRAMICHI RCS, CA",
      "datacoverage": 1,
      "id": "GHCND:CA008100989",
      "elevationUnit": "METERS",
      "longitude": -65.4667
    },
    {
      "elevation": 30,
      "mindate": "1873-01-01",
      "maxdate": "1947-04-30",
      "latitude": 47.05,
      "name": "CHATHAM, CA",
      "datacoverage": 1,
      "id": "GHCND:CA008100990",
      "elevationUnit": "METERS",
      "longitude": -65.4833
    },
    {
      "elevation": 33,
      "mindate": "1943-01-01",
      "maxdate": "2005-08-31",
      "latitude": 47.0167,
      "name": "MIRAMICHI A, CA",
      "datacoverage": 0.9987,
      "id": "GHCND:CA008101000",
      "elevationUnit": "METERS",
      "longitude": -65.4667
    },
    {
      "elevation": 4,
      "mindate": "1960-05-01",
      "maxdate": "1980-11-30",
      "latitude": 47.05,
      "name": "CHATHAM NBEPC",
      "datacoverage": 0.9328,
      "id": "GHCND:CA008101020",
      "elevationUnit": "METERS",
      "longitude": -65.4667
    },
    {
      "elevation": 11,
      "mindate": "1919-10-01",
      "maxdate": "1932-01-31",
      "latitude": 46.1833,
      "name": "CHIPMAN, CA",
      "datacoverage": 0.7836,
      "id": "GHCND:CA008101098",
      "elevationUnit": "METERS",
      "longitude": -65.8667
    },
    {
      "elevation": 11,
      "mindate": "1931-05-01",
      "maxdate": "1967-06-30",
      "latitude": 46.1833,
      "name": "CHIPMAN, CA",
      "datacoverage": 0.9816,
      "id": "GHCND:CA008101100",
      "elevationUnit": "METERS",
      "longitude": -65.8667
    },
    {
      "elevation": 4,
      "mindate": "1956-01-01",
      "maxdate": "1962-04-30",
      "latitude": 45.3167,
      "name": "COLDBROOK, CA",
      "datacoverage": 0.9874,
      "id": "GHCND:CA008101150",
      "elevationUnit": "METERS",
      "longitude": -66.0333
    },
    {
      "elevation": 31,
      "mindate": "1972-11-01",
      "maxdate": "2001-05-31",
      "latitude": 45.15,
      "name": "COLESON COVE",
      "datacoverage": 0.968,
      "id": "GHCND:CA008101151",
      "elevationUnit": "METERS",
      "longitude": -66.2
    },
    {
      "elevation": 250,
      "mindate": "1998-10-01",
      "maxdate": "1999-06-30",
      "latitude": 45.8,
      "name": "COLLINA, CA",
      "datacoverage": 1,
      "id": "GHCND:CA008101152",
      "elevationUnit": "METERS",
      "longitude": -65.65
    },
    {
      "elevation": 37,
      "mindate": "1988-05-01",
      "maxdate": "1988-09-30",
      "latitude": 46.0333,
      "name": "COOKVILLE, CA",
      "datacoverage": 1,
      "id": "GHCND:CA008101153",
      "elevationUnit": "METERS",
      "longitude": -64.3333
    },
    {
      "elevation": 12,
      "mindate": "1872-09-01",
      "maxdate": "1916-12-31",
      "latitude": 48.0667,
      "name": "DALHOUSIE, CA",
      "datacoverage": 0.9455,
      "id": "GHCND:CA008101170",
      "elevationUnit": "METERS",
      "longitude": -66.3667
    },
    {
      "elevation": 152,
      "mindate": "1964-07-01",
      "maxdate": "1979-12-25",
      "latitude": 45.9333,
      "name": "DAWSON SETTLEMENT, CA",
      "datacoverage": 0.9838,
      "id": "GHCND:CA008101178",
      "elevationUnit": "METERS",
      "longitude": -64.7833
    },
    {
      "elevation": 57,
      "mindate": "1934-06-01",
      "maxdate": "2009-06-30",
      "latitude": 46.55,
      "name": "DOAKTOWN, CA",
      "datacoverage": 0.9279,
      "id": "GHCND:CA008101200",
      "elevationUnit": "METERS",
      "longitude": -66.1333
    },
    {
      "elevation": 6,
      "mindate": "1871-11-01",
      "maxdate": "1938-10-31",
      "latitude": 45.9167,
      "name": "DORCHESTER, CA",
      "datacoverage": 0.3719,
      "id": "GHCND:CA008101230",
      "elevationUnit": "METERS",
      "longitude": -64.5167
    },
    {
      "elevation": 317,
      "mindate": "1986-10-01",
      "maxdate": "1987-04-30",
      "latitude": 46.8167,
      "name": "DUNGARVON RIVER, CA",
      "datacoverage": 1,
      "id": "GHCND:CA008101272",
      "elevationUnit": "METERS",
      "longitude": -66.65
    },
    {
      "elevation": 15,
      "mindate": "1973-01-01",
      "maxdate": "1979-06-30",
      "latitude": 46.0667,
      "name": "EAST CANAAN, CA",
      "datacoverage": 1,
      "id": "GHCND:CA008101280",
      "elevationUnit": "METERS",
      "longitude": -65.3667
    },
    {
      "elevation": 174,
      "mindate": "1913-12-01",
      "maxdate": "1957-04-30",
      "latitude": 47.3667,
      "name": "EDMUNDSTON, CA",
      "datacoverage": 0.9693,
      "id": "GHCND:CA008101300",
      "elevationUnit": "METERS",
      "longitude": -68.3333
    },
    {
      "elevation": 152,
      "mindate": "1949-07-01",
      "maxdate": "1979-10-06",
      "latitude": 47.3667,
      "name": "EDMUNDSTON FRASER CO, CA",
      "datacoverage": 0.9973,
      "id": "GHCND:CA008101301",
      "elevationUnit": "METERS",
      "longitude": -68.3333
    },
    {
      "elevation": 154,
      "mindate": "2004-08-01",
      "maxdate": "2025-03-06",
      "latitude": 47.4167,
      "name": "EDMUNDSTON, CA",
      "datacoverage": 1,
      "id": "GHCND:CA008101303",
      "elevationUnit": "METERS",
      "longitude": -68.3167
    },
    {
      "elevation": 145,
      "mindate": "1983-05-01",
      "maxdate": "1989-09-30",
      "latitude": 47.0667,
      "name": "EVERETT, CA",
      "datacoverage": 1,
      "id": "GHCND:CA008101348",
      "elevationUnit": "METERS",
      "longitude": -67.3
    },
    {
      "elevation": 21,
      "mindate": "1951-04-01",
      "maxdate": "2012-01-11",
      "latitude": 45.8667,
      "name": "FREDERICTON A, CA",
      "datacoverage": 0.9999,
      "id": "GHCND:CA008101500",
      "elevationUnit": "METERS",
      "longitude": -66.5333
    },
    {
      "elevation": 8,
      "mindate": "1994-10-01",
      "maxdate": "2019-12-19",
      "latitude": 45.9667,
      "name": "FREDERICTON AQUATIC CENTRE C S",
      "datacoverage": 0.9936,
      "id": "GHCND:CA008101507",
      "elevationUnit": "METERS",
      "longitude": -66.65
    },
    {
      "elevation": 40,
      "mindate": "1913-08-01",
      "maxdate": "2000-09-30",
      "latitude": 45.9167,
      "name": "FREDERICTON CDA, CA",
      "datacoverage": 0.999,
      "id": "GHCND:CA008101600",
      "elevationUnit": "METERS",
      "longitude": -66.6167
    },
    {
      "elevation": 35,
      "mindate": "2000-06-01",
      "maxdate": "2024-04-28",
      "latitude": 45.9167,
      "name": "FREDERICTON CDA CS, CA",
      "datacoverage": 0.9895,
      "id": "GHCND:CA008101605",
      "elevationUnit": "METERS",
      "longitude": -66.6167
    },
    {
      "elevation": 50,
      "mindate": "1871-12-01",
      "maxdate": "1952-09-30",
      "latitude": 45.95,
      "name": "FREDERICTON UNB, CA",
      "datacoverage": 0.9753,
      "id": "GHCND:CA008101700",
      "elevationUnit": "METERS",
      "longitude": -66.6
    },
    {
      "elevation": 43,
      "mindate": "1993-07-01",
      "maxdate": "2024-04-28",
      "latitude": 45.6,
      "name": "FUNDY PARK ALMA CS, CA",
      "datacoverage": 0.9926,
      "id": "GHCND:CA008101746",
      "elevationUnit": "METERS",
      "longitude": -64.95
    },
    {
      "elevation": 51,
      "mindate": "2011-02-01",
      "maxdate": "2014-12-01",
      "latitude": 45.8333,
      "name": "GAGETOWN A, CA",
      "datacoverage": 1,
      "id": "GHCND:CA008101792",
      "elevationUnit": "METERS",
      "longitude": -66.4333
    },
    {
      "elevation": 51,
      "mindate": "2000-02-01",
      "maxdate": "2022-01-05",
      "latitude": 45.8333,
      "name": "GAGETOWN AWOS A, CA",
      "datacoverage": 0.8099,
      "id": "GHCND:CA008101794",
      "elevationUnit": "METERS",
      "longitude": -66.45
    },
    {
      "elevation": 34,
      "mindate": "1897-03-01",
      "maxdate": "2011-04-27",
      "latitude": 45.7833,
      "name": "GAGETOWN 2, CA",
      "datacoverage": 0.8948,
      "id": "GHCND:CA008101800",
      "elevationUnit": "METERS",
      "longitude": -66.15
    },
    {
      "elevation": 297,
      "mindate": "1981-06-01",
      "maxdate": "1984-10-31",
      "latitude": 47.6667,
      "name": "GOUNAMITZ RIVER, CA",
      "datacoverage": 0.658,
      "id": "GHCND:CA008101850",
      "elevationUnit": "METERS",
      "longitude": -67.9333
    },
    {
      "elevation": 24,
      "mindate": "1984-07-01",
      "maxdate": "1990-10-31",
      "latitude": 46.3167,
      "name": "GRANDE DIGUE, CA",
      "datacoverage": 0.4209,
      "id": "GHCND:CA008101880",
      "elevationUnit": "METERS",
      "longitude": -64.5667
    },
    {
      "elevation": 152,
      "mindate": "1913-05-01",
      "maxdate": "1966-03-31",
      "latitude": 47.05,
      "name": "GRAND FALLS, CA",
      "datacoverage": 0.9433,
      "id": "GHCND:CA008101900",
      "elevationUnit": "METERS",
      "longitude": -67.7333
    },
    {
      "elevation": 229,
      "mindate": "1965-12-01",
      "maxdate": "1992-10-31",
      "latitude": 47.0333,
      "name": "GRAND FALLS DRUMMOND, CA",
      "datacoverage": 0.9969,
      "id": "GHCND:CA008101904",
      "elevationUnit": "METERS",
      "longitude": -67.7
    },
    {
      "elevation": 8,
      "mindate": "1874-12-01",
      "maxdate": "1965-03-31",
      "latitude": 44.7333,
      "name": "GRAND MANAN, CA",
      "datacoverage": 0.3626,
      "id": "GHCND:CA008101920",
      "elevationUnit": "METERS",
      "longitude": -66.7667
    },
    {
      "elevation": 78,
      "mindate": "2000-11-01",
      "maxdate": "2024-04-28",
      "latitude": 44.7167,
      "name": "GRAND MANAN SAR CS, CA",
      "datacoverage": 0.9894,
      "id": "GHCND:CA008101925",
      "elevationUnit": "METERS",
      "longitude": -66.8
    },
    {
      "elevation": 183,
      "mindate": "1934-03-01",
      "maxdate": "1959-12-31",
      "latitude": 47.4667,
      "name": "GREEN RIVER, CA",
      "datacoverage": 0.9805,
      "id": "GHCND:CA008102000",
      "elevationUnit": "METERS",
      "longitude": -68.2333
    },
    {
      "elevation": 16,
      "mindate": "1950-07-01",
      "maxdate": "1965-05-31",
      "latitude": 45.5333,
      "name": "HAMPTON, CA",
      "datacoverage": 0.8993,
      "id": "GHCND:CA008102100",
      "elevationUnit": "METERS",
      "longitude": -65.8333
    },
    {
      "elevation": 244,
      "mindate": "1973-02-01",
      "maxdate": "1989-03-31",
      "latitude": 46.1167,
      "name": "HAMTOWN CORNER, CA",
      "datacoverage": 0.9992,
      "id": "GHCND:CA008102110",
      "elevationUnit": "METERS",
      "longitude": -66.7833
    },
    {
      "elevation": 46,
      "mindate": "1957-04-01",
      "maxdate": "1966-05-31",
      "latitude": 46.5167,
      "name": "HARCOURT, CA",
      "datacoverage": 0.9546,
      "id": "GHCND:CA008102150",
      "elevationUnit": "METERS",
      "longitude": -65.2833
    },
    {
      "elevation": 40,
      "mindate": "1981-07-01",
      "maxdate": "2004-05-31",
      "latitude": 46.5,
      "name": "HARCOURT, CA",
      "datacoverage": 0.9999,
      "id": "GHCND:CA008102151",
      "elevationUnit": "METERS",
      "longitude": -65.2667
    },
    {
      "elevation": 46,
      "mindate": "1920-02-01",
      "maxdate": "1942-11-30",
      "latitude": 46.1667,
      "name": "HARDWOOD RIDGE, CA",
      "datacoverage": 0.9965,
      "id": "GHCND:CA008102160",
      "elevationUnit": "METERS",
      "longitude": -65.9167
    },
    {
      "elevation": 152,
      "mindate": "1920-07-01",
      "maxdate": "1976-09-30",
      "latitude": 45.7333,
      "name": "HARVEY STATION, CA",
      "datacoverage": 0.9955,
      "id": "GHCND:CA008102200",
      "elevationUnit": "METERS",
      "longitude": -67
    },
    {
      "elevation": 183,
      "mindate": "1976-11-01",
      "maxdate": "1996-09-30",
      "latitude": 45.6667,
      "name": "HARVEY STATION, CA",
      "datacoverage": 0.9457,
      "id": "GHCND:CA008102201",
      "elevationUnit": "METERS",
      "longitude": -67.0333
    },
    {
      "elevation": 194,
      "mindate": "1997-11-01",
      "maxdate": "2004-03-31",
      "latitude": 45.7333,
      "name": "HARVEY STATION, CA",
      "datacoverage": 1,
      "id": "GHCND:CA008102202",
      "elevationUnit": "METERS",
      "longitude": -67.0167
    },
    {
      "elevation": 6,
      "mindate": "1986-10-01",
      "maxdate": "2010-12-31",
      "latitude": 47.75,
      "name": "HAUT SHIPPAGAN, CA",
      "datacoverage": 0.9993,
      "id": "GHCND:CA008102206",
      "elevationUnit": "METERS",
      "longitude": -64.7667
    },
    {
      "elevation": 91,
      "mindate": "1979-07-01",
      "maxdate": "1993-05-31",
      "latitude": 46.0333,
      "name": "HAVELOCK, CA",
      "datacoverage": 0.9938,
      "id": "GHCND:CA008102210",
      "elevationUnit": "METERS",
      "longitude": -65.35
    },
    {
      "elevation": 99,
      "mindate": "1994-12-01",
      "maxdate": "2003-12-31",
      "latitude": 46,
      "name": "HAVELOCK, CA",
      "datacoverage": 0.9449,
      "id": "GHCND:CA008102212",
      "elevationUnit": "METERS",
      "longitude": -65.3167
    },
    {
      "elevation": 41,
      "mindate": "1961-06-01",
      "maxdate": "1962-06-30",
      "latitude": 45.95,
      "name": "HILLSBOROUGH, CA",
      "datacoverage": 0.9247,
      "id": "GHCND:CA008102220",
      "elevationUnit": "METERS",
      "longitude": -64.6833
    },
    {
      "elevation": 189,
      "mindate": "1971-10-01",
      "maxdate": "1974-04-30",
      "latitude": 46.5833,
      "name": "HOLMESVILLE, CA",
      "datacoverage": 1,
      "id": "GHCND:CA008102226",
      "elevationUnit": "METERS",
      "longitude": -67.6
    },
    {
      "elevation": 122,
      "mindate": "1978-10-01",
      "maxdate": "1981-07-31",
      "latitude": 45.55,
      "name": "HOYT, CA",
      "datacoverage": 0.8528,
      "id": "GHCND:CA008102230",
      "elevationUnit": "METERS",
      "longitude": -66.5333
    },
    {
      "elevation": 15,
      "mindate": "1981-06-01",
      "maxdate": "2001-04-30",
      "latitude": 45.6,
      "name": "HOYT BLISSVILLE, CA",
      "datacoverage": 1,
      "id": "GHCND:CA008102234",
      "elevationUnit": "METERS",
      "longitude": -66.5667
    },
    {
      "elevation": 259,
      "mindate": "1969-07-01",
      "maxdate": "2017-10-31",
      "latitude": 46.55,
      "name": "JUNIPER, CA",
      "datacoverage": 0.877,
      "id": "GHCND:CA008102275",
      "elevationUnit": "METERS",
      "longitude": -67.1667
    },
    {
      "elevation": 274,
      "mindate": "1931-06-01",
      "maxdate": "1994-09-30",
      "latitude": 47.65,
      "name": "KEDGWICK, CA",
      "datacoverage": 0.675,
      "id": "GHCND:CA008102300",
      "elevationUnit": "METERS",
      "longitude": -67.35
    },
    {
      "elevation": 122,
      "mindate": "1964-06-01",
      "maxdate": "1968-01-31",
      "latitude": 46,
      "name": "KESWICK RIDGE, CA",
      "datacoverage": 0.159,
      "id": "GHCND:CA008102308",
      "elevationUnit": "METERS",
      "longitude": -66.8833
    },
    {
      "elevation": 8,
      "mindate": "1965-06-01",
      "maxdate": "1978-08-31",
      "latitude": 45.9667,
      "name": "KESWICK RIDGE MACTAQUAC, CA",
      "datacoverage": 0.9119,
      "id": "GHCND:CA008102312",
      "elevationUnit": "METERS",
      "longitude": -66.8667
    },
    {
      "elevation": 67,
      "mindate": "1975-12-01",
      "maxdate": "1978-10-31",
      "latitude": 45.85,
      "name": "KINGS LANDING, CA",
      "datacoverage": 0.9994,
      "id": "GHCND:CA008102314",
      "elevationUnit": "METERS",
      "longitude": -66.95
    },
    {
      "elevation": 165,
      "mindate": "1973-02-01",
      "maxdate": "1981-10-31",
      "latitude": 46.0667,
      "name": "KINGSLEY IHD, CA",
      "datacoverage": 0.9717,
      "id": "GHCND:CA008102316",
      "elevationUnit": "METERS",
      "longitude": -66.7333
    },
    {
      "elevation": 35,
      "mindate": "1972-08-01",
      "maxdate": "1995-12-31",
      "latitude": 46.7667,
      "name": "KOUCHIBOUGUAC, CA",
      "datacoverage": 0.9518,
      "id": "GHCND:CA008102325",
      "elevationUnit": "METERS",
      "longitude": -65
    },
    {
      "elevation": 34,
      "mindate": "1995-10-01",
      "maxdate": "2018-05-08",
      "latitude": 46.7667,
      "name": "KOUCHIBOUGUAC CS, CA",
      "datacoverage": 0.9674,
      "id": "GHCND:CA008102328",
      "elevationUnit": "METERS",
      "longitude": -65
    },
    {
      "elevation": 15,
      "mindate": "1976-04-01",
      "maxdate": "1976-08-29",
      "latitude": 47.8333,
      "name": "LAMEQUE, CA",
      "datacoverage": 0.9947,
      "id": "GHCND:CA008102335",
      "elevationUnit": "METERS",
      "longitude": -64.6
    },
    {
      "elevation": 6,
      "mindate": "1980-04-01",
      "maxdate": "1982-06-30",
      "latitude": 47.8,
      "name": "LAMEQUE, CA",
      "datacoverage": 0.9268,
      "id": "GHCND:CA008102336",
      "elevationUnit": "METERS",
      "longitude": -64.65
    },
    {
      "elevation": 341,
      "mindate": "1956-04-01",
      "maxdate": "1992-02-29",
      "latitude": 47.2833,
      "name": "LITTLE RIVER MINE, CA",
      "datacoverage": 0.9254,
      "id": "GHCND:CA008102350",
      "elevationUnit": "METERS",
      "longitude": -66.0667
    },
    {
      "elevation": 18,
      "mindate": "1986-05-01",
      "maxdate": "1993-10-31",
      "latitude": 46.1167,
      "name": "LITTLE SHEMOGUE, CA",
      "datacoverage": 0.9994,
      "id": "GHCND:CA008102369",
      "elevationUnit": "METERS",
      "longitude": -64.0333
    },
    {
      "elevation": 381,
      "mindate": "1954-09-01",
      "maxdate": "1957-02-28",
      "latitude": 47.0667,
      "name": "LONG LAKE, CA",
      "datacoverage": 0.7009,
      "id": "GHCND:CA008102500",
      "elevationUnit": "METERS",
      "longitude": -66.9333
    },
    {
      "elevation": 145,
      "mindate": "1971-10-01",
      "maxdate": "1972-12-31",
      "latitude": 46.5667,
      "name": "LOWER HOLMESVILLE, CA",
      "datacoverage": 0.9304,
      "id": "GHCND:CA008102522",
      "elevationUnit": "METERS",
      "longitude": -67.5833
    },
    {
      "elevation": 110,
      "mindate": "1973-12-01",
      "maxdate": "2024-04-06",
      "latitude": 45.95,
      "name": "MACTAQUAC PROV PARK, CA",
      "datacoverage": 0.8931,
      "id": "GHCND:CA008102536",
      "elevationUnit": "METERS",
      "longitude": -66.9
    },
    {
      "elevation": 107,
      "mindate": "1958-01-01",
      "maxdate": "1967-12-31",
      "latitude": 45.7333,
      "name": "MAGAGUADAVIC LAKE, CA",
      "datacoverage": 0.9835,
      "id": "GHCND:CA008102550",
      "elevationUnit": "METERS",
      "longitude": -67.2
    },
    {
      "elevation": 168,
      "mindate": "1972-02-01",
      "maxdate": "2011-08-07",
      "latitude": 46.1833,
      "name": "MAPLETON, CA",
      "datacoverage": 0.9649,
      "id": "GHCND:CA008102566",
      "elevationUnit": "METERS",
      "longitude": -67.2333
    },
    {
      "elevation": 140,
      "mindate": "1872-05-01",
      "maxdate": "1976-06-30",
      "latitude": 45.5833,
      "name": "MCADAM, CA",
      "datacoverage": 0.8415,
      "id": "GHCND:CA008102600",
      "elevationUnit": "METERS",
      "longitude": -67.3333
    }
  ]
}
