{
  "metadata": {
    "resultset": {
      "offset": 54800,
      "count": 154115,
      "limit": 100
    }
  },
  "results": [
    {
      "elevation": 1140,
      "mindate": "1951-01-01",
      "maxdate": "2023-04-27",
      "latitude": 40.15,
      "name": "DUNHUANG, CH",
      "datacoverage": 1,
      "id": "GHCND:CHM00052418",
      "elevationUnit": "METERS",
      "longitude": 94.683
    },
    {
      "elevation": 1527,
      "mindate": "1952-01-01",
      "maxdate": "2025-03-06",
      "latitude": 40.267,
      "name": "YUMENZHEN, CH",
      "datacoverage": 1,
      "id": "GHCND:CHM00052436",
      "elevationUnit": "METERS",
      "longitude": 97.033
    },
    {
      "elevation": 1329,
      "mindate": "1957-01-01",
      "maxdate": "2025-03-06",
      "latitude": 40.75,
      "name": "BAYAN MOD, CH",
      "datacoverage": 1,
      "id": "GHCND:CHM00052495",
      "elevationUnit": "METERS",
      "longitude": 104.5
    },
    {
      "elevation": 1478,
      "mindate": "1946-04-01",
      "maxdate": "2025-03-06",
      "latitude": 39.767,
      "name": "JIUQUAN, CH",
      "datacoverage": 1,
      "id": "GHCND:CHM00052533",
      "elevationUnit": "METERS",
      "longitude": 98.483
    },
    {
      "elevation": 2771,
      "mindate": "1956-01-01",
      "maxdate": "2025-03-06",
      "latitude": 38.833,
      "name": "LENGHU, CH",
      "datacoverage": 1,
      "id": "GHCND:CHM00052602",
      "elevationUnit": "METERS",
      "longitude": 93.383
    },
    {
      "elevation": 1367,
      "mindate": "1953-01-01",
      "maxdate": "2025-03-06",
      "latitude": 38.633,
      "name": "MINQIN, CH",
      "datacoverage": 1,
      "id": "GHCND:CHM00052681",
      "elevationUnit": "METERS",
      "longitude": 103.083
    },
    {
      "elevation": 3174,
      "mindate": "1956-01-01",
      "maxdate": "2025-03-06",
      "latitude": 37.85,
      "name": "DA QAIDAM, CH",
      "datacoverage": 1,
      "id": "GHCND:CHM00052713",
      "elevationUnit": "METERS",
      "longitude": 95.367
    },
    {
      "elevation": 3302,
      "mindate": "1957-01-01",
      "maxdate": "2025-03-06",
      "latitude": 37.333,
      "name": "GANGCA, CH",
      "datacoverage": 1,
      "id": "GHCND:CHM00052754",
      "elevationUnit": "METERS",
      "longitude": 100.133
    },
    {
      "elevation": 3044,
      "mindate": "1951-01-01",
      "maxdate": "2025-03-06",
      "latitude": 37.2,
      "name": "WUSHAOLING, CH",
      "datacoverage": 1,
      "id": "GHCND:CHM00052787",
      "elevationUnit": "METERS",
      "longitude": 102.867
    },
    {
      "elevation": 2809,
      "mindate": "1955-01-01",
      "maxdate": "2025-03-06",
      "latitude": 36.417,
      "name": "GOLMUD, CH",
      "datacoverage": 1,
      "id": "GHCND:CHM00052818",
      "elevationUnit": "METERS",
      "longitude": 94.9
    },
    {
      "elevation": 3192,
      "mindate": "1954-01-01",
      "maxdate": "2025-03-06",
      "latitude": 36.3,
      "name": "DULAN, CH",
      "datacoverage": 1,
      "id": "GHCND:CHM00052836",
      "elevationUnit": "METERS",
      "longitude": 98.1
    },
    {
      "elevation": 2296,
      "mindate": "1954-01-01",
      "maxdate": "2025-03-06",
      "latitude": 36.617,
      "name": "XINING, CH",
      "datacoverage": 1,
      "id": "GHCND:CHM00052866",
      "elevationUnit": "METERS",
      "longitude": 101.767
    },
    {
      "elevation": 1518,
      "mindate": "1951-01-01",
      "maxdate": "2015-01-30",
      "latitude": 36.05,
      "name": "LANZHOU, CH",
      "datacoverage": 1,
      "id": "GHCND:CHM00052889",
      "elevationUnit": "METERS",
      "longitude": 103.883
    },
    {
      "elevation": 3123,
      "mindate": "1999-01-01",
      "maxdate": "2025-03-06",
      "latitude": 35.583,
      "name": "GUINAN, CH",
      "datacoverage": 1,
      "id": "GHCND:CHM00052955",
      "elevationUnit": "METERS",
      "longitude": 100.75
    },
    {
      "elevation": 3289,
      "mindate": "1954-02-01",
      "maxdate": "1998-12-31",
      "latitude": 35.27,
      "name": "TONGDE, CH",
      "datacoverage": 1,
      "id": "GHCND:CHM00052957",
      "elevationUnit": "METERS",
      "longitude": 100.65
    },
    {
      "elevation": 1875,
      "mindate": "2004-05-01",
      "maxdate": "2025-03-06",
      "latitude": 35.867,
      "name": "YU ZHONG, CH",
      "datacoverage": 0.9929,
      "id": "GHCND:CHM00052983",
      "elevationUnit": "METERS",
      "longitude": 104.15
    },
    {
      "elevation": 966,
      "mindate": "1955-01-01",
      "maxdate": "2025-03-06",
      "latitude": 43.65,
      "name": "ERENHOT, CH",
      "datacoverage": 1,
      "id": "GHCND:CHM00053068",
      "elevationUnit": "METERS",
      "longitude": 112
    },
    {
      "elevation": 1128,
      "mindate": "1952-01-01",
      "maxdate": "2025-03-06",
      "latitude": 44.017,
      "name": "ABAG QI, CH",
      "datacoverage": 1,
      "id": "GHCND:CHM00053192",
      "elevationUnit": "METERS",
      "longitude": 114.95
    },
    {
      "elevation": 1510,
      "mindate": "1961-08-13",
      "maxdate": "2025-03-06",
      "latitude": 41.45,
      "name": "HAILS, CH",
      "datacoverage": 0.8923,
      "id": "GHCND:CHM00053231",
      "elevationUnit": "METERS",
      "longitude": 106.383
    },
    {
      "elevation": 1152,
      "mindate": "1952-01-01",
      "maxdate": "2023-04-27",
      "latitude": 42.4,
      "name": "JURH, CH",
      "datacoverage": 1,
      "id": "GHCND:CHM00053276",
      "elevationUnit": "METERS",
      "longitude": 112.9
    },
    {
      "elevation": 1290,
      "mindate": "1954-01-01",
      "maxdate": "2025-03-06",
      "latitude": 41.567,
      "name": "HALIUT, CH",
      "datacoverage": 1,
      "id": "GHCND:CHM00053336",
      "elevationUnit": "METERS",
      "longitude": 108.517
    },
    {
      "elevation": 1377,
      "mindate": "1953-01-01",
      "maxdate": "2025-03-06",
      "latitude": 41.7,
      "name": "BAILING MIAO, CH",
      "datacoverage": 1,
      "id": "GHCND:CHM00053352",
      "elevationUnit": "METERS",
      "longitude": 110.433
    },
    {
      "elevation": 1484,
      "mindate": "1952-01-01",
      "maxdate": "2025-03-06",
      "latitude": 41.9,
      "name": "HUADE, CH",
      "datacoverage": 1,
      "id": "GHCND:CHM00053391",
      "elevationUnit": "METERS",
      "longitude": 114
    },
    {
      "elevation": 1065,
      "mindate": "1951-01-01",
      "maxdate": "2025-03-06",
      "latitude": 40.817,
      "name": "HOHHOT, CH",
      "datacoverage": 0.9982,
      "id": "GHCND:CHM00053463",
      "elevationUnit": "METERS",
      "longitude": 111.683
    },
    {
      "elevation": 1069,
      "mindate": "1955-01-01",
      "maxdate": "2025-03-06",
      "latitude": 40.1,
      "name": "DATONG, CH",
      "datacoverage": 1,
      "id": "GHCND:CHM00053487",
      "elevationUnit": "METERS",
      "longitude": 113.333
    },
    {
      "elevation": 1143,
      "mindate": "1955-01-01",
      "maxdate": "2025-03-06",
      "latitude": 39.783,
      "name": "JARTAI, CH",
      "datacoverage": 1,
      "id": "GHCND:CHM00053502",
      "elevationUnit": "METERS",
      "longitude": 105.75
    },
    {
      "elevation": 1381,
      "mindate": "1954-01-01",
      "maxdate": "2025-03-06",
      "latitude": 39.1,
      "name": "OTOG QI, CH",
      "datacoverage": 0.9987,
      "id": "GHCND:CHM00053529",
      "elevationUnit": "METERS",
      "longitude": 107.983
    },
    {
      "elevation": 1112,
      "mindate": "1951-01-01",
      "maxdate": "2025-03-06",
      "latitude": 38.467,
      "name": "YINCHUAN, CH",
      "datacoverage": 1,
      "id": "GHCND:CHM00053614",
      "elevationUnit": "METERS",
      "longitude": 106.2
    },
    {
      "elevation": 1058,
      "mindate": "1951-01-01",
      "maxdate": "2025-03-06",
      "latitude": 38.233,
      "name": "YULIN, CH",
      "datacoverage": 0.9987,
      "id": "GHCND:CHM00053646",
      "elevationUnit": "METERS",
      "longitude": 109.7
    },
    {
      "elevation": 838,
      "mindate": "1954-01-01",
      "maxdate": "2025-03-06",
      "latitude": 38.75,
      "name": "YUANPING, CH",
      "datacoverage": 1,
      "id": "GHCND:CHM00053673",
      "elevationUnit": "METERS",
      "longitude": 112.7
    },
    {
      "elevation": 81,
      "mindate": "1955-01-01",
      "maxdate": "2025-03-06",
      "latitude": 38.033,
      "name": "SHIJIAZHUANG, CH",
      "datacoverage": 1,
      "id": "GHCND:CHM00053698",
      "elevationUnit": "METERS",
      "longitude": 114.417
    },
    {
      "elevation": 1356,
      "mindate": "1954-01-01",
      "maxdate": "2025-03-06",
      "latitude": 37.8,
      "name": "YANCHI, CH",
      "datacoverage": 1,
      "id": "GHCND:CHM00053723",
      "elevationUnit": "METERS",
      "longitude": 107.383
    },
    {
      "elevation": 779,
      "mindate": "1951-01-01",
      "maxdate": "2025-03-06",
      "latitude": 37.783,
      "name": "TAIYUAN, CH",
      "datacoverage": 1,
      "id": "GHCND:CHM00053772",
      "elevationUnit": "METERS",
      "longitude": 112.55
    },
    {
      "elevation": 959,
      "mindate": "1951-01-01",
      "maxdate": "2025-03-06",
      "latitude": 36.6,
      "name": "YAN AN, CH",
      "datacoverage": 1,
      "id": "GHCND:CHM00053845",
      "elevationUnit": "METERS",
      "longitude": 109.5
    },
    {
      "elevation": 745,
      "mindate": "1954-01-01",
      "maxdate": "2025-03-06",
      "latitude": 37.033,
      "name": "JIEXIU, CH",
      "datacoverage": 1,
      "id": "GHCND:CHM00053863",
      "elevationUnit": "METERS",
      "longitude": 111.917
    },
    {
      "elevation": 64,
      "mindate": "1951-01-01",
      "maxdate": "2025-03-06",
      "latitude": 36.05,
      "name": "ANYANG, CH",
      "datacoverage": 1,
      "id": "GHCND:CHM00053898",
      "elevationUnit": "METERS",
      "longitude": 114.4
    },
    {
      "elevation": 1348,
      "mindate": "1951-01-01",
      "maxdate": "2025-03-06",
      "latitude": 35.55,
      "name": "PINGLIANG, CH",
      "datacoverage": 1,
      "id": "GHCND:CHM00053915",
      "elevationUnit": "METERS",
      "longitude": 106.667
    },
    {
      "elevation": 365,
      "mindate": "1956-01-01",
      "maxdate": "2025-03-06",
      "latitude": 35.05,
      "name": "YUNCHENG, CH",
      "datacoverage": 1,
      "id": "GHCND:CHM00053959",
      "elevationUnit": "METERS",
      "longitude": 111.05
    },
    {
      "elevation": 997,
      "mindate": "1954-01-01",
      "maxdate": "2025-03-06",
      "latitude": 44.583,
      "name": "XI UJIMQIN QI, CH",
      "datacoverage": 1,
      "id": "GHCND:CHM00054012",
      "elevationUnit": "METERS",
      "longitude": 117.6
    },
    {
      "elevation": 266,
      "mindate": "1952-01-01",
      "maxdate": "2025-03-06",
      "latitude": 44.567,
      "name": "JARUD QI, CH",
      "datacoverage": 1,
      "id": "GHCND:CHM00054026",
      "elevationUnit": "METERS",
      "longitude": 120.9
    },
    {
      "elevation": 485,
      "mindate": "1953-01-01",
      "maxdate": "2025-03-06",
      "latitude": 43.983,
      "name": "LINDONG, CH",
      "datacoverage": 1,
      "id": "GHCND:CHM00054027",
      "elevationUnit": "METERS",
      "longitude": 119.4
    },
    {
      "elevation": 242,
      "mindate": "1951-01-01",
      "maxdate": "2025-03-06",
      "latitude": 44.567,
      "name": "MUDANJIANG, CH",
      "datacoverage": 1,
      "id": "GHCND:CHM00054094",
      "elevationUnit": "METERS",
      "longitude": 129.6
    },
    {
      "elevation": 498,
      "mindate": "1952-01-01",
      "maxdate": "2025-03-06",
      "latitude": 44.383,
      "name": "SUIFENHE, CH",
      "datacoverage": 1,
      "id": "GHCND:CHM00054096",
      "elevationUnit": "METERS",
      "longitude": 131.15
    },
    {
      "elevation": 1004,
      "mindate": "1952-01-01",
      "maxdate": "2025-03-06",
      "latitude": 43.95,
      "name": "XILIN HOT, CH",
      "datacoverage": 1,
      "id": "GHCND:CHM00054102",
      "elevationUnit": "METERS",
      "longitude": 116.117
    },
    {
      "elevation": 800,
      "mindate": "1952-01-01",
      "maxdate": "2025-03-06",
      "latitude": 43.6,
      "name": "LINXI, CH",
      "datacoverage": 1,
      "id": "GHCND:CHM00054115",
      "elevationUnit": "METERS",
      "longitude": 118.067
    },
    {
      "elevation": 180,
      "mindate": "1951-01-01",
      "maxdate": "2025-03-06",
      "latitude": 43.6,
      "name": "TONGLIAO, CH",
      "datacoverage": 1,
      "id": "GHCND:CHM00054135",
      "elevationUnit": "METERS",
      "longitude": 122.267
    },
    {
      "elevation": 167,
      "mindate": "1951-01-01",
      "maxdate": "2025-03-06",
      "latitude": 43.183,
      "name": "SIPING, CH",
      "datacoverage": 1,
      "id": "GHCND:CHM00054157",
      "elevationUnit": "METERS",
      "longitude": 124.333
    },
    {
      "elevation": 238,
      "mindate": "1951-01-01",
      "maxdate": "2025-03-06",
      "latitude": 43.9,
      "name": "CHANGCHUN, CH",
      "datacoverage": 1,
      "id": "GHCND:CHM00054161",
      "elevationUnit": "METERS",
      "longitude": 125.217
    },
    {
      "elevation": 1247,
      "mindate": "1952-01-01",
      "maxdate": "2025-03-06",
      "latitude": 42.183,
      "name": "DUOLUN, CH",
      "datacoverage": 1,
      "id": "GHCND:CHM00054208",
      "elevationUnit": "METERS",
      "longitude": 116.467
    },
    {
      "elevation": 567,
      "mindate": "1951-01-01",
      "maxdate": "2025-03-06",
      "latitude": 42.3,
      "name": "CHIFENG, CH",
      "datacoverage": 0.9987,
      "id": "GHCND:CHM00054218",
      "elevationUnit": "METERS",
      "longitude": 118.833
    },
    {
      "elevation": 84,
      "mindate": "1952-01-01",
      "maxdate": "2025-03-06",
      "latitude": 42.417,
      "name": "ZHANGWU, CH",
      "datacoverage": 1,
      "id": "GHCND:CHM00054236",
      "elevationUnit": "METERS",
      "longitude": 122.533
    },
    {
      "elevation": 178,
      "mindate": "1953-01-01",
      "maxdate": "2025-03-06",
      "latitude": 42.867,
      "name": "YANJI, CH",
      "datacoverage": 1,
      "id": "GHCND:CHM00054292",
      "elevationUnit": "METERS",
      "longitude": 129.5
    },
    {
      "elevation": 176,
      "mindate": "1952-01-01",
      "maxdate": "2025-03-06",
      "latitude": 41.55,
      "name": "CHAOYANG, CH",
      "datacoverage": 1,
      "id": "GHCND:CHM00054324",
      "elevationUnit": "METERS",
      "longitude": 120.45
    },
    {
      "elevation": 70,
      "mindate": "1951-01-01",
      "maxdate": "2025-03-06",
      "latitude": 41.133,
      "name": "JINZHOU, CH",
      "datacoverage": 1,
      "id": "GHCND:CHM00054337",
      "elevationUnit": "METERS",
      "longitude": 121.117
    },
    {
      "elevation": 43,
      "mindate": "1951-01-01",
      "maxdate": "2025-03-06",
      "latitude": 41.733,
      "name": "SHENYANG, CH",
      "datacoverage": 1,
      "id": "GHCND:CHM00054342",
      "elevationUnit": "METERS",
      "longitude": 123.517
    },
    {
      "elevation": 185,
      "mindate": "1955-01-01",
      "maxdate": "2025-03-06",
      "latitude": 41.317,
      "name": "BENXI, CH",
      "datacoverage": 1,
      "id": "GHCND:CHM00054346",
      "elevationUnit": "METERS",
      "longitude": 123.783
    },
    {
      "elevation": 333,
      "mindate": "1953-01-01",
      "maxdate": "2025-03-06",
      "latitude": 41.717,
      "name": "LINJIANG, KN",
      "datacoverage": 1,
      "id": "GHCND:CHM00054374",
      "elevationUnit": "METERS",
      "longitude": 126.917
    },
    {
      "elevation": 538,
      "mindate": "1954-01-01",
      "maxdate": "2025-03-06",
      "latitude": 40.417,
      "name": "HUAILAI, CH",
      "datacoverage": 1,
      "id": "GHCND:CHM00054405",
      "elevationUnit": "METERS",
      "longitude": 115.5
    },
    {
      "elevation": 423,
      "mindate": "1951-01-01",
      "maxdate": "2025-03-06",
      "latitude": 40.967,
      "name": "CHENGDE, CH",
      "datacoverage": 1,
      "id": "GHCND:CHM00054423",
      "elevationUnit": "METERS",
      "longitude": 117.917
    },
    {
      "elevation": 4,
      "mindate": "1951-01-01",
      "maxdate": "2025-03-06",
      "latitude": 40.667,
      "name": "YINGKOU, CH",
      "datacoverage": 1,
      "id": "GHCND:CHM00054471",
      "elevationUnit": "METERS",
      "longitude": 122.2
    },
    {
      "elevation": 235,
      "mindate": "1952-07-01",
      "maxdate": "1991-06-30",
      "latitude": 40.883,
      "name": "CAOHEKOU, CH",
      "datacoverage": 1,
      "id": "GHCND:CHM00054483",
      "elevationUnit": "METERS",
      "longitude": 123.9
    },
    {
      "elevation": 14,
      "mindate": "1951-01-01",
      "maxdate": "2025-03-06",
      "latitude": 40.05,
      "name": "DANDONG",
      "datacoverage": 1,
      "id": "GHCND:CHM00054497",
      "elevationUnit": "METERS",
      "longitude": 124.333
    },
    {
      "elevation": 55,
      "mindate": "1945-10-31",
      "maxdate": "2025-03-06",
      "latitude": 39.933,
      "name": "BEIJING, CH",
      "datacoverage": 1,
      "id": "GHCND:CHM00054511",
      "elevationUnit": "METERS",
      "longitude": 116.283
    },
    {
      "elevation": 5,
      "mindate": "1954-01-01",
      "maxdate": "2025-03-06",
      "latitude": 39.1,
      "name": "TIANJIN, CH",
      "datacoverage": 1,
      "id": "GHCND:CHM00054527",
      "elevationUnit": "METERS",
      "longitude": 117.167
    },
    {
      "elevation": 12,
      "mindate": "1957-01-01",
      "maxdate": "2025-03-06",
      "latitude": 39.433,
      "name": "LETING, CH",
      "datacoverage": 1,
      "id": "GHCND:CHM00054539",
      "elevationUnit": "METERS",
      "longitude": 118.9
    },
    {
      "elevation": 11,
      "mindate": "1954-01-01",
      "maxdate": "1995-12-31",
      "latitude": 38.333,
      "name": "CANGZHOU, CH",
      "datacoverage": 1,
      "id": "GHCND:CHM00054616",
      "elevationUnit": "METERS",
      "longitude": 116.833
    },
    {
      "elevation": 13,
      "mindate": "1996-01-01",
      "maxdate": "2025-03-06",
      "latitude": 38.083,
      "name": "POTOU, CH",
      "datacoverage": 1,
      "id": "GHCND:CHM00054618",
      "elevationUnit": "METERS",
      "longitude": 116.55
    },
    {
      "elevation": 97,
      "mindate": "1951-01-01",
      "maxdate": "2025-03-06",
      "latitude": 38.9,
      "name": "DALIAN, CH",
      "datacoverage": 1,
      "id": "GHCND:CHM00054662",
      "elevationUnit": "METERS",
      "longitude": 121.633
    },
    {
      "elevation": 12,
      "mindate": "1951-01-01",
      "maxdate": "2025-03-06",
      "latitude": 37.5,
      "name": "HUIMIN, CH",
      "datacoverage": 1,
      "id": "GHCND:CHM00054725",
      "elevationUnit": "METERS",
      "longitude": 117.533
    },
    {
      "elevation": 47,
      "mindate": "1952-01-01",
      "maxdate": "2025-03-06",
      "latitude": 37.4,
      "name": "CHENGSHANTOU, CH",
      "datacoverage": 1,
      "id": "GHCND:CHM00054776",
      "elevationUnit": "METERS",
      "longitude": 122.683
    },
    {
      "elevation": 169,
      "mindate": "1951-01-01",
      "maxdate": "2025-03-04",
      "latitude": 36.6,
      "name": "JINAN, CH",
      "datacoverage": 1,
      "id": "GHCND:CHM00054823",
      "elevationUnit": "METERS",
      "longitude": 117.05
    },
    {
      "elevation": 22,
      "mindate": "1951-01-01",
      "maxdate": "2025-03-06",
      "latitude": 36.767,
      "name": "WEIFANG, CH",
      "datacoverage": 1,
      "id": "GHCND:CHM00054843",
      "elevationUnit": "METERS",
      "longitude": 119.183
    },
    {
      "elevation": 77,
      "mindate": "1956-08-01",
      "maxdate": "2025-03-06",
      "latitude": 36.067,
      "name": "QINGDAO, CH",
      "datacoverage": 0.9944,
      "id": "GHCND:CHM00054857",
      "elevationUnit": "METERS",
      "longitude": 120.333
    },
    {
      "elevation": 51,
      "mindate": "1953-03-01",
      "maxdate": "1995-01-12",
      "latitude": 35.25,
      "name": "HEZE CAOZHOU, CH",
      "datacoverage": 0.9999,
      "id": "GHCND:CHM00054906",
      "elevationUnit": "METERS",
      "longitude": 115.433
    },
    {
      "elevation": 51,
      "mindate": "1995-01-01",
      "maxdate": "2025-03-06",
      "latitude": 35.083,
      "name": "DINGTAO, CH",
      "datacoverage": 1,
      "id": "GHCND:CHM00054909",
      "elevationUnit": "METERS",
      "longitude": 115.517
    },
    {
      "elevation": 53,
      "mindate": "1951-01-01",
      "maxdate": "2025-03-06",
      "latitude": 35.567,
      "name": "YANZHOU, CH",
      "datacoverage": 1,
      "id": "GHCND:CHM00054916",
      "elevationUnit": "METERS",
      "longitude": 116.85
    },
    {
      "elevation": 4280,
      "mindate": "1962-01-01",
      "maxdate": "2025-03-06",
      "latitude": 32.5,
      "name": "SHIQUANHE, CH",
      "datacoverage": 0.8372,
      "id": "GHCND:CHM00055228",
      "elevationUnit": "METERS",
      "longitude": 80.083
    },
    {
      "elevation": 4701,
      "mindate": "1956-10-01",
      "maxdate": "2023-04-27",
      "latitude": 31.367,
      "name": "BAINGOIN, CH",
      "datacoverage": 0.9986,
      "id": "GHCND:CHM00055279",
      "elevationUnit": "METERS",
      "longitude": 90.017
    },
    {
      "elevation": 4508,
      "mindate": "1954-07-01",
      "maxdate": "2025-03-06",
      "latitude": 31.483,
      "name": "NAGQU, CH",
      "datacoverage": 0.977,
      "id": "GHCND:CHM00055299",
      "elevationUnit": "METERS",
      "longitude": 92.067
    },
    {
      "elevation": 4670,
      "mindate": "1973-01-01",
      "maxdate": "2023-04-27",
      "latitude": 30.95,
      "name": "XAINZA, CH",
      "datacoverage": 0.9904,
      "id": "GHCND:CHM00055472",
      "elevationUnit": "METERS",
      "longitude": 88.633
    },
    {
      "elevation": 3837,
      "mindate": "1955-12-01",
      "maxdate": "2025-03-06",
      "latitude": 29.25,
      "name": "XIGAZE, CH",
      "datacoverage": 0.9958,
      "id": "GHCND:CHM00055578",
      "elevationUnit": "METERS",
      "longitude": 88.883
    },
    {
      "elevation": 3650,
      "mindate": "1955-01-01",
      "maxdate": "2025-03-06",
      "latitude": 29.667,
      "name": "LHASA, CH",
      "datacoverage": 1,
      "id": "GHCND:CHM00055591",
      "elevationUnit": "METERS",
      "longitude": 91.133
    },
    {
      "elevation": 4535,
      "mindate": "1956-01-01",
      "maxdate": "2025-03-06",
      "latitude": 34.217,
      "name": "TUOTUOHE, CH",
      "datacoverage": 1,
      "id": "GHCND:CHM00056004",
      "elevationUnit": "METERS",
      "longitude": 92.433
    },
    {
      "elevation": 4176,
      "mindate": "1956-01-01",
      "maxdate": "2025-03-06",
      "latitude": 34.133,
      "name": "QUMARLEB, CH",
      "datacoverage": 1,
      "id": "GHCND:CHM00056021",
      "elevationUnit": "METERS",
      "longitude": 95.783
    },
    {
      "elevation": 3717,
      "mindate": "1951-01-01",
      "maxdate": "2025-03-06",
      "latitude": 33,
      "name": "YUSHU, CH",
      "datacoverage": 1,
      "id": "GHCND:CHM00056029",
      "elevationUnit": "METERS",
      "longitude": 96.967
    },
    {
      "elevation": 4273,
      "mindate": "1953-01-01",
      "maxdate": "2025-03-06",
      "latitude": 34.917,
      "name": "MADOI, CH",
      "datacoverage": 1,
      "id": "GHCND:CHM00056033",
      "elevationUnit": "METERS",
      "longitude": 98.217
    },
    {
      "elevation": 3968,
      "mindate": "1956-01-01",
      "maxdate": "2025-03-06",
      "latitude": 33.75,
      "name": "DARLAG, CH",
      "datacoverage": 1,
      "id": "GHCND:CHM00056046",
      "elevationUnit": "METERS",
      "longitude": 99.65
    },
    {
      "elevation": 3441,
      "mindate": "1962-01-01",
      "maxdate": "2025-03-06",
      "latitude": 33.583,
      "name": "RUO ERGAI, CH",
      "datacoverage": 0.8484,
      "id": "GHCND:CHM00056079",
      "elevationUnit": "METERS",
      "longitude": 102.967
    },
    {
      "elevation": 2910,
      "mindate": "1957-01-01",
      "maxdate": "2025-03-05",
      "latitude": 35,
      "name": "HEZUO, CH",
      "datacoverage": 1,
      "id": "GHCND:CHM00056080",
      "elevationUnit": "METERS",
      "longitude": 102.9
    },
    {
      "elevation": 1079,
      "mindate": "1951-01-01",
      "maxdate": "2025-03-06",
      "latitude": 33.4,
      "name": "WUDU, CH",
      "datacoverage": 1,
      "id": "GHCND:CHM00056096",
      "elevationUnit": "METERS",
      "longitude": 104.917
    },
    {
      "elevation": 4024,
      "mindate": "1957-07-01",
      "maxdate": "2023-04-27",
      "latitude": 31.883,
      "name": "SOG XIAN, CH",
      "datacoverage": 0.9994,
      "id": "GHCND:CHM00056106",
      "elevationUnit": "METERS",
      "longitude": 93.783
    },
    {
      "elevation": 3874,
      "mindate": "1954-01-01",
      "maxdate": "2025-03-06",
      "latitude": 31.417,
      "name": "DENGQEN, CH",
      "datacoverage": 0.9451,
      "id": "GHCND:CHM00056116",
      "elevationUnit": "METERS",
      "longitude": 95.6
    },
    {
      "elevation": 3307,
      "mindate": "1954-01-01",
      "maxdate": "2025-03-06",
      "latitude": 31.15,
      "name": "QAMDO, CH",
      "datacoverage": 1,
      "id": "GHCND:CHM00056137",
      "elevationUnit": "METERS",
      "longitude": 97.167
    },
    {
      "elevation": 3394,
      "mindate": "1951-01-01",
      "maxdate": "2025-03-06",
      "latitude": 31.617,
      "name": "GARZE, CH",
      "datacoverage": 1,
      "id": "GHCND:CHM00056146",
      "elevationUnit": "METERS",
      "longitude": 100
    },
    {
      "elevation": 2666,
      "mindate": "1953-01-01",
      "maxdate": "2025-03-06",
      "latitude": 31.9,
      "name": "BARKAM, CH",
      "datacoverage": 1,
      "id": "GHCND:CHM00056172",
      "elevationUnit": "METERS",
      "longitude": 102.233
    },
    {
      "elevation": 2852,
      "mindate": "1951-01-01",
      "maxdate": "2025-03-06",
      "latitude": 32.65,
      "name": "SONGPAN, CH",
      "datacoverage": 1,
      "id": "GHCND:CHM00056182",
      "elevationUnit": "METERS",
      "longitude": 103.567
    },
    {
      "elevation": 541,
      "mindate": "2004-01-01",
      "maxdate": "2025-03-06",
      "latitude": 30.75,
      "name": "WENJIANG, CH",
      "datacoverage": 1,
      "id": "GHCND:CHM00056187",
      "elevationUnit": "METERS",
      "longitude": 103.867
    },
    {
      "elevation": 3950,
      "mindate": "1952-01-01",
      "maxdate": "2025-03-06",
      "latitude": 30,
      "name": "LITANG, CH",
      "datacoverage": 1,
      "id": "GHCND:CHM00056257",
      "elevationUnit": "METERS",
      "longitude": 100.267
    },
    {
      "elevation": 508,
      "mindate": "1951-01-01",
      "maxdate": "2025-03-06",
      "latitude": 30.667,
      "name": "CHENGDU, CH",
      "datacoverage": 1,
      "id": "GHCND:CHM00056294",
      "elevationUnit": "METERS",
      "longitude": 104.017
    },
    {
      "elevation": 3320,
      "mindate": "1953-01-01",
      "maxdate": "2025-03-06",
      "latitude": 28.45,
      "name": "DEQEN, CH",
      "datacoverage": 1,
      "id": "GHCND:CHM00056444",
      "elevationUnit": "METERS",
      "longitude": 98.883
    }
  ]
}
