{
  "metadata": {
    "resultset": {
      "offset": 129200,
      "count": 154115,
      "limit": 100
    }
  },
  "results": [
    {
      "elevation": 317,
      "mindate": "1925-05-01",
      "maxdate": "1975-12-31",
      "latitude": 39.05,
      "name": "JUNCTION CITY, KS US",
      "datacoverage": 0.9868,
      "id": "GHCND:USC00144138",
      "elevationUnit": "METERS",
      "longitude": -96.83333
    },
    {
      "elevation": 322.5,
      "mindate": "1980-10-01",
      "maxdate": "1994-11-30",
      "latitude": 38.979,
      "name": "JUNCTION CITY 4 SSW, KS US",
      "datacoverage": 0.1237,
      "id": "GHCND:USC00144139",
      "elevationUnit": "METERS",
      "longitude": -96.8572
    },
    {
      "elevation": 332.8,
      "mindate": "1975-04-01",
      "maxdate": "2014-05-01",
      "latitude": 39.0079,
      "name": "JUNCTION CITY 5 SE, KS US",
      "datacoverage": 1,
      "id": "GHCND:USC00144140",
      "elevationUnit": "METERS",
      "longitude": -96.7392
    },
    {
      "mindate": "1935-08-01",
      "maxdate": "1943-02-28",
      "latitude": 38.183333,
      "name": "KALVESTA NEAR, KS US",
      "datacoverage": 1,
      "id": "GHCND:USC00144159",
      "longitude": -100.316667
    },
    {
      "elevation": 813.8,
      "mindate": "1963-09-01",
      "maxdate": "2025-03-04",
      "latitude": 38.0585,
      "name": "KALVESTA 1 W, KS US",
      "datacoverage": 1,
      "id": "GHCND:USC00144161",
      "elevationUnit": "METERS",
      "longitude": -100.2987
    },
    {
      "elevation": 806.2,
      "mindate": "1989-03-01",
      "maxdate": "2025-02-18",
      "latitude": 38.1273,
      "name": "KALVESTA 13 NW, KS US",
      "datacoverage": 1,
      "id": "GHCND:USC00144166",
      "elevationUnit": "METERS",
      "longitude": -100.5079
    },
    {
      "elevation": 454.8,
      "mindate": "1941-01-01",
      "maxdate": "2025-03-07",
      "latitude": 38.6078,
      "name": "KANOPOLIS LAKE, KS US",
      "datacoverage": 1,
      "id": "GHCND:USC00144178",
      "elevationUnit": "METERS",
      "longitude": -97.9596
    },
    {
      "elevation": 295,
      "mindate": "2023-12-15",
      "maxdate": "2025-01-31",
      "latitude": 39.14691,
      "name": "KANSAS CITY WEST, KS US",
      "datacoverage": 1,
      "id": "GHCND:USC00144199",
      "elevationUnit": "METERS",
      "longitude": -94.81143
    },
    {
      "elevation": 430.1,
      "mindate": "1944-07-01",
      "maxdate": "1948-11-30",
      "latitude": 37.81667,
      "name": "KECHI 1 N, KS US",
      "datacoverage": 0.5658,
      "id": "GHCND:USC00144227",
      "elevationUnit": "METERS",
      "longitude": -97.28333
    },
    {
      "mindate": "1893-01-01",
      "maxdate": "1893-09-30",
      "latitude": 37.25,
      "name": "KELLOGG, KS US",
      "datacoverage": 1,
      "id": "GHCND:USC00144290",
      "longitude": -97.1
    },
    {
      "mindate": "1939-09-01",
      "maxdate": "1943-02-28",
      "latitude": 38.85,
      "name": "KENNETH, KS US",
      "datacoverage": 1,
      "id": "GHCND:USC00144301",
      "longitude": -94.616667
    },
    {
      "elevation": 471.5,
      "mindate": "1907-12-01",
      "maxdate": "2025-03-07",
      "latitude": 37.6454,
      "name": "KINGMAN, KS US",
      "datacoverage": 1,
      "id": "GHCND:USC00144313",
      "elevationUnit": "METERS",
      "longitude": -98.125
    },
    {
      "elevation": 661.1,
      "mindate": "2010-07-01",
      "maxdate": "2016-05-31",
      "latitude": 37.9105,
      "name": "KINSLEY 1 SE, KS US",
      "datacoverage": 0.9991,
      "id": "GHCND:USC00144331",
      "elevationUnit": "METERS",
      "longitude": -99.4059
    },
    {
      "elevation": 658.1,
      "mindate": "1935-11-01",
      "maxdate": "2010-12-31",
      "latitude": 37.9284,
      "name": "KINSLEY, KS US",
      "datacoverage": 1,
      "id": "GHCND:USC00144333",
      "elevationUnit": "METERS",
      "longitude": -99.3655
    },
    {
      "elevation": 403.9,
      "mindate": "1893-01-01",
      "maxdate": "2025-01-31",
      "latitude": 37.0174,
      "name": "KIOWA, KS US",
      "datacoverage": 0.1415,
      "id": "GHCND:USC00144341",
      "elevationUnit": "METERS",
      "longitude": -98.4899
    },
    {
      "elevation": 517.2,
      "mindate": "1952-05-01",
      "maxdate": "2025-03-03",
      "latitude": 39.6619,
      "name": "KIRWIN DAM, KS US",
      "datacoverage": 1,
      "id": "GHCND:USC00144357",
      "elevationUnit": "METERS",
      "longitude": -99.1228
    },
    {
      "elevation": 850.4,
      "mindate": "1998-01-01",
      "maxdate": "2000-05-31",
      "latitude": 37.22667,
      "name": "KISMET 4 WNW, KS US",
      "datacoverage": 0.9994,
      "id": "GHCND:USC00144362",
      "elevationUnit": "METERS",
      "longitude": -100.76028
    },
    {
      "mindate": "1909-03-01",
      "maxdate": "1947-05-31",
      "latitude": 37.333333,
      "name": "KISMET NEAR, KS US",
      "datacoverage": 0.9673,
      "id": "GHCND:USC00144363",
      "longitude": -100.883333
    },
    {
      "elevation": 332.2,
      "mindate": "2019-11-05",
      "maxdate": "2025-01-21",
      "latitude": 39.04789,
      "name": "KU FIELD STATION, KS US",
      "datacoverage": 0.7495,
      "id": "GHCND:USC00144370",
      "elevationUnit": "METERS",
      "longitude": -95.1929
    },
    {
      "elevation": 628.2,
      "mindate": "1893-01-01",
      "maxdate": "1922-12-31",
      "latitude": 38.533333,
      "name": "LACROSSE, KS US",
      "datacoverage": 0.6473,
      "id": "GHCND:USC00144401",
      "elevationUnit": "METERS",
      "longitude": -99.3
    },
    {
      "elevation": 256.9,
      "mindate": "1929-08-01",
      "maxdate": "2011-09-30",
      "latitude": 38.326,
      "name": "LA CYGNE, KS US",
      "datacoverage": 1,
      "id": "GHCND:USC00144421",
      "elevationUnit": "METERS",
      "longitude": -94.6956
    },
    {
      "elevation": 913.8,
      "mindate": "1893-01-01",
      "maxdate": "2025-02-20",
      "latitude": 37.9412,
      "name": "LAKIN, KS US",
      "datacoverage": 1,
      "id": "GHCND:USC00144464",
      "elevationUnit": "METERS",
      "longitude": -101.2492
    },
    {
      "elevation": 265.2,
      "mindate": "1968-05-01",
      "maxdate": "2015-10-28",
      "latitude": 38.4424,
      "name": "LANE, KS US",
      "datacoverage": 1,
      "id": "GHCND:USC00144488",
      "elevationUnit": "METERS",
      "longitude": -95.0793
    },
    {
      "elevation": 608.1,
      "mindate": "1903-06-01",
      "maxdate": "2011-11-01",
      "latitude": 38.1818,
      "name": "LARNED, KS US",
      "datacoverage": 1,
      "id": "GHCND:USC00144530",
      "elevationUnit": "METERS",
      "longitude": -99.0994
    },
    {
      "elevation": 612.6,
      "mindate": "2009-01-01",
      "maxdate": "2025-03-07",
      "latitude": 38.17569,
      "name": "LARNED NUMBER 2, KS US",
      "datacoverage": 0.9998,
      "id": "GHCND:USC00144531",
      "elevationUnit": "METERS",
      "longitude": -99.11205
    },
    {
      "elevation": 319.1,
      "mindate": "1857-04-01",
      "maxdate": "2025-03-05",
      "latitude": 38.95687,
      "name": "LAWRENCE, KS US",
      "datacoverage": 1,
      "id": "GHCND:USC00144559",
      "elevationUnit": "METERS",
      "longitude": -95.24841
    },
    {
      "elevation": 243.8,
      "mindate": "1951-01-01",
      "maxdate": "1974-12-31",
      "latitude": 38.9742,
      "name": "LAWRENCE KANSAS RIVER, KS US",
      "datacoverage": 0.9459,
      "id": "GHCND:USC00144562",
      "elevationUnit": "METERS",
      "longitude": -95.2359
    },
    {
      "elevation": 259.1,
      "mindate": "1952-01-01",
      "maxdate": "1964-05-31",
      "latitude": 38.93333,
      "name": "LAWRENCE KLWN, KS US",
      "datacoverage": 0.9999,
      "id": "GHCND:USC00144567",
      "elevationUnit": "METERS",
      "longitude": -95.26667
    },
    {
      "elevation": 235.6,
      "mindate": "2023-01-20",
      "maxdate": "2023-01-20",
      "latitude": 39.3269,
      "name": "LEAVENWORTH NUMBER 2, KS US",
      "datacoverage": 1,
      "id": "GHCND:USC00144585",
      "elevationUnit": "METERS",
      "longitude": -94.9091
    },
    {
      "elevation": 238,
      "mindate": "1959-08-01",
      "maxdate": "1981-10-31",
      "latitude": 39.3,
      "name": "LEAVENWORTH 2, KS US",
      "datacoverage": 0.5992,
      "id": "GHCND:USC00144586",
      "elevationUnit": "METERS",
      "longitude": -94.9
    },
    {
      "elevation": 265.2,
      "mindate": "1891-12-01",
      "maxdate": "2011-11-01",
      "latitude": 39.3255,
      "name": "LEAVENWORTH, KS US",
      "datacoverage": 1,
      "id": "GHCND:USC00144588",
      "elevationUnit": "METERS",
      "longitude": -94.9188
    },
    {
      "elevation": 265.5,
      "mindate": "2011-11-01",
      "maxdate": "2025-03-07",
      "latitude": 39.2849,
      "name": "LEAVENWORTH 3 SW, KS US",
      "datacoverage": 1,
      "id": "GHCND:USC00144589",
      "elevationUnit": "METERS",
      "longitude": -94.95
    },
    {
      "elevation": 282.5,
      "mindate": "1993-01-01",
      "maxdate": "1998-12-31",
      "latitude": 38.94194,
      "name": "LEAWOOD, KS US",
      "datacoverage": 0.9995,
      "id": "GHCND:USC00144596",
      "elevationUnit": "METERS",
      "longitude": -94.62944
    },
    {
      "elevation": 559.9,
      "mindate": "1898-03-01",
      "maxdate": "2025-03-07",
      "latitude": 39.8083,
      "name": "LEBANON, KS US",
      "datacoverage": 1,
      "id": "GHCND:USC00144598",
      "elevationUnit": "METERS",
      "longitude": -98.5583
    },
    {
      "elevation": 358.1,
      "mindate": "1893-01-01",
      "maxdate": "2020-10-05",
      "latitude": 38.416,
      "name": "LEBO, KS US",
      "datacoverage": 1,
      "id": "GHCND:USC00144608",
      "elevationUnit": "METERS",
      "longitude": -95.851
    },
    {
      "elevation": 267.9,
      "mindate": "1936-04-01",
      "maxdate": "2025-03-05",
      "latitude": 39.0465,
      "name": "LECOMPTON, KS US",
      "datacoverage": 1,
      "id": "GHCND:USC00144613",
      "elevationUnit": "METERS",
      "longitude": -95.392
    },
    {
      "elevation": 698.6,
      "mindate": "1913-05-01",
      "maxdate": "2025-03-06",
      "latitude": 39.6064,
      "name": "LENORA COOP, KS US",
      "datacoverage": 1,
      "id": "GHCND:USC00144642",
      "elevationUnit": "METERS",
      "longitude": -100.0015
    },
    {
      "elevation": 684,
      "mindate": "1992-01-01",
      "maxdate": "1994-03-31",
      "latitude": 39.61667,
      "name": "LENORA NUMBER 2, KS US",
      "datacoverage": 1,
      "id": "GHCND:USC00144644",
      "elevationUnit": "METERS",
      "longitude": -100.01667
    },
    {
      "elevation": 1008.6,
      "mindate": "1893-01-01",
      "maxdate": "2024-02-28",
      "latitude": 38.49,
      "name": "LEOTI, KS US",
      "datacoverage": 1,
      "id": "GHCND:USC00144665",
      "elevationUnit": "METERS",
      "longitude": -101.36685
    },
    {
      "elevation": 1018.9,
      "mindate": "1949-07-01",
      "maxdate": "1970-05-31",
      "latitude": 38.66667,
      "name": "LEOTI 12 N, KS US",
      "datacoverage": 0.9641,
      "id": "GHCND:USC00144667",
      "elevationUnit": "METERS",
      "longitude": -101.36667
    },
    {
      "elevation": 304.2,
      "mindate": "1908-01-01",
      "maxdate": "2024-11-06",
      "latitude": 38.08,
      "name": "LE ROY, KS US",
      "datacoverage": 1,
      "id": "GHCND:USC00144675",
      "elevationUnit": "METERS",
      "longitude": -95.6396
    },
    {
      "elevation": 990.9,
      "mindate": "1941-01-01",
      "maxdate": "1957-12-31",
      "latitude": 39.25,
      "name": "LEVANT 10 SSE, KS US",
      "datacoverage": 0.9849,
      "id": "GHCND:USC00144685",
      "elevationUnit": "METERS",
      "longitude": -101.15
    },
    {
      "elevation": 1020.5,
      "mindate": "1953-09-01",
      "maxdate": "1956-10-31",
      "latitude": 39.58333,
      "name": "LEVANT 15 N, KS US",
      "datacoverage": 0.8681,
      "id": "GHCND:USC00144688",
      "elevationUnit": "METERS",
      "longitude": -101.31667
    },
    {
      "elevation": 863.8,
      "mindate": "1893-01-01",
      "maxdate": "2025-03-03",
      "latitude": 37.0309,
      "name": "LIBERAL, KS US",
      "datacoverage": 1,
      "id": "GHCND:USC00144695",
      "elevationUnit": "METERS",
      "longitude": -100.9069
    },
    {
      "elevation": 409,
      "mindate": "1966-10-01",
      "maxdate": "2018-11-26",
      "latitude": 39.5943,
      "name": "LILLIS, KS US",
      "datacoverage": 1,
      "id": "GHCND:USC00144708",
      "elevationUnit": "METERS",
      "longitude": -96.3331
    },
    {
      "elevation": 427,
      "mindate": "1912-01-01",
      "maxdate": "2025-03-07",
      "latitude": 39.0294,
      "name": "LINCOLN 1 SE, KS US",
      "datacoverage": 1,
      "id": "GHCND:USC00144712",
      "elevationUnit": "METERS",
      "longitude": -98.13
    },
    {
      "elevation": 488,
      "mindate": "1955-07-01",
      "maxdate": "1958-06-30",
      "latitude": 39.11667,
      "name": "LINCOLN 6 NNW SOIL CONSERVATION SERVICE 1, KS US",
      "datacoverage": 1,
      "id": "GHCND:USC00144713",
      "elevationUnit": "METERS",
      "longitude": -98.2
    },
    {
      "elevation": 488,
      "mindate": "1955-07-01",
      "maxdate": "1958-06-30",
      "latitude": 39.11667,
      "name": "LINCOLN 5 NNW SOIL CONSERVATION SERVICE 2, KS US",
      "datacoverage": 0.9998,
      "id": "GHCND:USC00144714",
      "elevationUnit": "METERS",
      "longitude": -98.18333
    },
    {
      "elevation": 488,
      "mindate": "1955-01-01",
      "maxdate": "1958-06-30",
      "latitude": 39.08333,
      "name": "LINCOLN 3 N SOIL CONSERVATION SERVICE 4, KS US",
      "datacoverage": 0.9998,
      "id": "GHCND:USC00144716",
      "elevationUnit": "METERS",
      "longitude": -98.15
    },
    {
      "elevation": 427,
      "mindate": "1955-07-01",
      "maxdate": "1958-06-30",
      "latitude": 39.05,
      "name": "LINCOLN 4 WNW SOIL CONSERVATION SERVICE 5, KS US",
      "datacoverage": 1,
      "id": "GHCND:USC00144717",
      "elevationUnit": "METERS",
      "longitude": -98.21667
    },
    {
      "elevation": 424,
      "mindate": "1955-01-01",
      "maxdate": "1958-06-30",
      "latitude": 39.05,
      "name": "LINCOLN 1 NNW SOIL CONSERVATION SERVICE 6, KS US",
      "datacoverage": 1,
      "id": "GHCND:USC00144718",
      "elevationUnit": "METERS",
      "longitude": -98.16667
    },
    {
      "elevation": 433.1,
      "mindate": "1978-03-01",
      "maxdate": "2025-03-05",
      "latitude": 38.49248,
      "name": "LINCOLNVILLE, KS US",
      "datacoverage": 1,
      "id": "GHCND:USC00144729",
      "elevationUnit": "METERS",
      "longitude": -96.96024
    },
    {
      "elevation": 402,
      "mindate": "1905-01-01",
      "maxdate": "2025-03-07",
      "latitude": 38.5866,
      "name": "LINDSBORG 3 E, KS US",
      "datacoverage": 1,
      "id": "GHCND:USC00144735",
      "elevationUnit": "METERS",
      "longitude": -97.6083
    },
    {
      "elevation": 399.9,
      "mindate": "1951-01-01",
      "maxdate": "1959-04-30",
      "latitude": 38.6,
      "name": "LINDSBORG 3 NE, KS US",
      "datacoverage": 0.9894,
      "id": "GHCND:USC00144739",
      "elevationUnit": "METERS",
      "longitude": -97.63333
    },
    {
      "mindate": "1896-01-01",
      "maxdate": "1903-02-28",
      "latitude": 38.4,
      "name": "LITTLE RIVER, KS US",
      "datacoverage": 0.6303,
      "id": "GHCND:USC00144761",
      "longitude": -98.016667
    },
    {
      "elevation": 616,
      "mindate": "1951-09-01",
      "maxdate": "2024-09-22",
      "latitude": 39.6658,
      "name": "LOGAN, KS US",
      "datacoverage": 1,
      "id": "GHCND:USC00144775",
      "elevationUnit": "METERS",
      "longitude": -99.5772
    },
    {
      "elevation": 396.8,
      "mindate": "1958-05-01",
      "maxdate": "2025-03-04",
      "latitude": 39.1508,
      "name": "LONGFORD, KS US",
      "datacoverage": 1,
      "id": "GHCND:USC00144802",
      "elevationUnit": "METERS",
      "longitude": -97.3351
    },
    {
      "elevation": 643.1,
      "mindate": "1941-05-01",
      "maxdate": "2014-12-15",
      "latitude": 39.9694,
      "name": "LONG ISLAND 1 N, KS US",
      "datacoverage": 1,
      "id": "GHCND:USC00144807",
      "elevationUnit": "METERS",
      "longitude": -99.5338
    },
    {
      "elevation": 278.9,
      "mindate": "1951-01-01",
      "maxdate": "2025-03-05",
      "latitude": 37.3833,
      "name": "LONGTON, KS US",
      "datacoverage": 1,
      "id": "GHCND:USC00144812",
      "elevationUnit": "METERS",
      "longitude": -96.0814
    },
    {
      "elevation": 612.3,
      "mindate": "1940-06-01",
      "maxdate": "2022-09-21",
      "latitude": 38.6545,
      "name": "LORETTA 1 W, KS US",
      "datacoverage": 1,
      "id": "GHCND:USC00144821",
      "elevationUnit": "METERS",
      "longitude": -99.2035
    },
    {
      "elevation": 290.5,
      "mindate": "2013-03-01",
      "maxdate": "2013-08-31",
      "latitude": 39.2912,
      "name": "LOUISVILLE 5 NE, KS US",
      "datacoverage": 1,
      "id": "GHCND:USC00144840",
      "elevationUnit": "METERS",
      "longitude": -96.2303
    },
    {
      "elevation": 488.3,
      "mindate": "1955-09-01",
      "maxdate": "2025-03-06",
      "latitude": 39.9,
      "name": "LOVEWELL DAM, KS US",
      "datacoverage": 1,
      "id": "GHCND:USC00144857",
      "elevationUnit": "METERS",
      "longitude": -98.0255
    },
    {
      "elevation": 762.9,
      "mindate": "1951-09-01",
      "maxdate": "1969-09-30",
      "latitude": 39.46667,
      "name": "LUCERNE 2 SE, KS US",
      "datacoverage": 1,
      "id": "GHCND:USC00144877",
      "elevationUnit": "METERS",
      "longitude": -100.18333
    },
    {
      "elevation": 475.5,
      "mindate": "1948-08-01",
      "maxdate": "2025-02-19",
      "latitude": 39.08544,
      "name": "LURAY 3 SE, KS US",
      "datacoverage": 1,
      "id": "GHCND:USC00144893",
      "elevationUnit": "METERS",
      "longitude": -98.64118
    },
    {
      "elevation": 307.8,
      "mindate": "1948-08-01",
      "maxdate": "1967-04-30",
      "latitude": 38.61667,
      "name": "LYNDON, KS US",
      "datacoverage": 1,
      "id": "GHCND:USC00144910",
      "elevationUnit": "METERS",
      "longitude": -95.68333
    },
    {
      "elevation": 317,
      "mindate": "1965-01-01",
      "maxdate": "2010-12-31",
      "latitude": 38.62278,
      "name": "LYNDON 3 ENE, KS US",
      "datacoverage": 1,
      "id": "GHCND:USC00144912",
      "elevationUnit": "METERS",
      "longitude": -95.63222
    },
    {
      "elevation": 496.2,
      "mindate": "1895-12-01",
      "maxdate": "1976-11-30",
      "latitude": 38.30556,
      "name": "LYONS 3 S, KS US",
      "datacoverage": 0.9312,
      "id": "GHCND:USC00144920",
      "elevationUnit": "METERS",
      "longitude": -98.18889
    },
    {
      "elevation": 606.9,
      "mindate": "1893-04-01",
      "maxdate": "1977-03-31",
      "latitude": 38.06667,
      "name": "MACKSVILLE 8 NNE, KS US",
      "datacoverage": 0.496,
      "id": "GHCND:USC00144932",
      "elevationUnit": "METERS",
      "longitude": -98.91667
    },
    {
      "elevation": 363.3,
      "mindate": "1900-02-01",
      "maxdate": "2025-03-04",
      "latitude": 38.12913,
      "name": "MADISON, KS US",
      "datacoverage": 1,
      "id": "GHCND:USC00144937",
      "elevationUnit": "METERS",
      "longitude": -96.13829
    },
    {
      "elevation": 396.8,
      "mindate": "1948-08-01",
      "maxdate": "1958-04-30",
      "latitude": 39.1,
      "name": "MANCHESTER, KS US",
      "datacoverage": 1,
      "id": "GHCND:USC00144969",
      "elevationUnit": "METERS",
      "longitude": -97.31667
    },
    {
      "elevation": 323.1,
      "mindate": "1893-01-01",
      "maxdate": "2025-03-07",
      "latitude": 39.1972,
      "name": "MANHATTAN, KS US",
      "datacoverage": 1,
      "id": "GHCND:USC00144972",
      "elevationUnit": "METERS",
      "longitude": -96.5813
    },
    {
      "elevation": 300.5,
      "mindate": "1985-01-01",
      "maxdate": "1987-12-31",
      "latitude": 39.19472,
      "name": "MANHATTAN DISPOSAL PLANT, KS US",
      "datacoverage": 1,
      "id": "GHCND:USC00144974",
      "elevationUnit": "METERS",
      "longitude": -96.55639
    },
    {
      "elevation": 338.9,
      "mindate": "1948-08-01",
      "maxdate": "1970-02-28",
      "latitude": 39.2,
      "name": "MANHATTAN AGRONOMY F, KS US",
      "datacoverage": 0.9886,
      "id": "GHCND:USC00144977",
      "elevationUnit": "METERS",
      "longitude": -96.6
    },
    {
      "elevation": 533.4,
      "mindate": "1893-01-01",
      "maxdate": "2017-10-31",
      "latitude": 39.7888,
      "name": "MANKATO, KS US",
      "datacoverage": 1,
      "id": "GHCND:USC00144982",
      "elevationUnit": "METERS",
      "longitude": -98.2038
    },
    {
      "elevation": 412.1,
      "mindate": "1948-08-01",
      "maxdate": "1968-03-31",
      "latitude": 38.35,
      "name": "MARION, KS US",
      "datacoverage": 1,
      "id": "GHCND:USC00145037",
      "elevationUnit": "METERS",
      "longitude": -97
    },
    {
      "elevation": 418.5,
      "mindate": "1966-01-01",
      "maxdate": "2025-03-07",
      "latitude": 38.37814,
      "name": "MARION RESERVOIR, KS US",
      "datacoverage": 1,
      "id": "GHCND:USC00145039",
      "elevationUnit": "METERS",
      "longitude": -97.07519
    },
    {
      "mindate": "1893-03-01",
      "maxdate": "1894-09-30",
      "latitude": 37.833333,
      "name": "MARMATON, KS US",
      "datacoverage": 1,
      "id": "GHCND:USC00145043",
      "longitude": -94.816667
    },
    {
      "elevation": 359.1,
      "mindate": "1941-01-01",
      "maxdate": "2025-03-05",
      "latitude": 39.8384,
      "name": "MARYSVILLE, KS US",
      "datacoverage": 1,
      "id": "GHCND:USC00145063",
      "elevationUnit": "METERS",
      "longitude": -96.6365
    },
    {
      "elevation": 399.3,
      "mindate": "1952-01-01",
      "maxdate": "2012-10-31",
      "latitude": 38.1599,
      "name": "MATFIELD GREEN, KS US",
      "datacoverage": 1,
      "id": "GHCND:USC00145069",
      "elevationUnit": "METERS",
      "longitude": -96.56
    },
    {
      "elevation": 964.1,
      "mindate": "1949-07-01",
      "maxdate": "1953-06-30",
      "latitude": 39,
      "name": "MCALLASTER, KS US",
      "datacoverage": 0.3958,
      "id": "GHCND:USC00145096",
      "elevationUnit": "METERS",
      "longitude": -101.4
    },
    {
      "elevation": 963.2,
      "mindate": "1893-01-01",
      "maxdate": "1985-12-20",
      "latitude": 39.05,
      "name": "MCALLASTER 3 N, KS US",
      "datacoverage": 0.0317,
      "id": "GHCND:USC00145101",
      "elevationUnit": "METERS",
      "longitude": -101.38333
    },
    {
      "elevation": 655.3,
      "mindate": "1911-10-01",
      "maxdate": "2024-11-17",
      "latitude": 38.5872,
      "name": "MCCRACKEN, KS US",
      "datacoverage": 1,
      "id": "GHCND:USC00145115",
      "elevationUnit": "METERS",
      "longitude": -99.573
    },
    {
      "elevation": 253,
      "mindate": "1953-07-01",
      "maxdate": "1992-04-30",
      "latitude": 37.3,
      "name": "MC CUNE 6 SW, KS US",
      "datacoverage": 0.9871,
      "id": "GHCND:USC00145123",
      "elevationUnit": "METERS",
      "longitude": -95.1
    },
    {
      "elevation": 1025.3,
      "mindate": "1954-10-01",
      "maxdate": "2012-04-30",
      "latitude": 39.7844,
      "name": "MC DONALD, KS US",
      "datacoverage": 1,
      "id": "GHCND:USC00145127",
      "elevationUnit": "METERS",
      "longitude": -101.3686
    },
    {
      "elevation": 309.4,
      "mindate": "1918-03-01",
      "maxdate": "2025-03-07",
      "latitude": 39.05391,
      "name": "MC FARLAND, KS US",
      "datacoverage": 1,
      "id": "GHCND:USC00145132",
      "elevationUnit": "METERS",
      "longitude": -96.23658
    },
    {
      "elevation": 463.3,
      "mindate": "1893-01-01",
      "maxdate": "2025-03-07",
      "latitude": 38.3772,
      "name": "MCPHERSON, KS US",
      "datacoverage": 1,
      "id": "GHCND:USC00145152",
      "elevationUnit": "METERS",
      "longitude": -97.6097
    },
    {
      "elevation": 763.2,
      "mindate": "1895-03-01",
      "maxdate": "2023-04-21",
      "latitude": 37.285,
      "name": "MEADE, KS US",
      "datacoverage": 1,
      "id": "GHCND:USC00145171",
      "elevationUnit": "METERS",
      "longitude": -100.345
    },
    {
      "elevation": 448.1,
      "mindate": "1893-01-01",
      "maxdate": "2010-12-31",
      "latitude": 37.2766,
      "name": "MEDICINE LODGE, KS US",
      "datacoverage": 1,
      "id": "GHCND:USC00145173",
      "elevationUnit": "METERS",
      "longitude": -98.5799
    },
    {
      "elevation": 452.3,
      "mindate": "1909-01-01",
      "maxdate": "1942-10-18",
      "latitude": 38.15,
      "name": "MEDORA, KS US",
      "datacoverage": 0.8188,
      "id": "GHCND:USC00145180",
      "elevationUnit": "METERS",
      "longitude": -97.85
    },
    {
      "elevation": 259.4,
      "mindate": "1973-04-01",
      "maxdate": "1994-12-31",
      "latitude": 37.02889,
      "name": "MELROSE, KS US",
      "datacoverage": 1,
      "id": "GHCND:USC00145200",
      "elevationUnit": "METERS",
      "longitude": -94.95722
    },
    {
      "elevation": 305.1,
      "mindate": "1962-01-01",
      "maxdate": "1972-06-30",
      "latitude": 38.51667,
      "name": "MELVERN 3 WNW, KS US",
      "datacoverage": 0.9993,
      "id": "GHCND:USC00145206",
      "elevationUnit": "METERS",
      "longitude": -95.68333
    },
    {
      "elevation": 333.5,
      "mindate": "1973-05-01",
      "maxdate": "2025-03-07",
      "latitude": 38.50388,
      "name": "MELVERN LAKE, KS US",
      "datacoverage": 1,
      "id": "GHCND:USC00145210",
      "elevationUnit": "METERS",
      "longitude": -95.70368
    },
    {
      "mindate": "1923-11-01",
      "maxdate": "1933-09-30",
      "latitude": 38.75,
      "name": "MENTOR, KS US",
      "datacoverage": 0.958,
      "id": "GHCND:USC00145223",
      "longitude": -97.6
    },
    {
      "elevation": 317,
      "mindate": "1950-01-01",
      "maxdate": "1965-02-28",
      "latitude": 39.01667,
      "name": "MERRIAM, KS US",
      "datacoverage": 0.9508,
      "id": "GHCND:USC00145245",
      "elevationUnit": "METERS",
      "longitude": -94.66667
    },
    {
      "elevation": 320,
      "mindate": "1951-08-01",
      "maxdate": "1965-02-11",
      "latitude": 38.98333,
      "name": "MERRIAM OVERLAND PAR, KS US",
      "datacoverage": 0.9817,
      "id": "GHCND:USC00145248",
      "elevationUnit": "METERS",
      "longitude": -94.68333
    },
    {
      "elevation": 369.7,
      "mindate": "1965-10-01",
      "maxdate": "2025-03-07",
      "latitude": 39.0745,
      "name": "MILFORD LAKE, KS US",
      "datacoverage": 1,
      "id": "GHCND:USC00145306",
      "elevationUnit": "METERS",
      "longitude": -96.8982
    },
    {
      "elevation": 337.7,
      "mindate": "1961-11-01",
      "maxdate": "2025-01-31",
      "latitude": 38.5817,
      "name": "MILLER 4 SSW, KS US",
      "datacoverage": 1,
      "id": "GHCND:USC00145321",
      "elevationUnit": "METERS",
      "longitude": -96.0188
    },
    {
      "elevation": 430.4,
      "mindate": "1948-08-01",
      "maxdate": "2025-03-05",
      "latitude": 39.3505,
      "name": "MILTONVALE, KS US",
      "datacoverage": 1,
      "id": "GHCND:USC00145335",
      "elevationUnit": "METERS",
      "longitude": -97.4547
    },
    {
      "elevation": 920.8,
      "mindate": "1941-04-01",
      "maxdate": "2023-09-22",
      "latitude": 39.27665,
      "name": "MINGO 6 E, KS US",
      "datacoverage": 1,
      "id": "GHCND:USC00145355",
      "elevationUnit": "METERS",
      "longitude": -100.83986
    },
    {
      "elevation": 398.1,
      "mindate": "1892-01-01",
      "maxdate": "2025-03-07",
      "latitude": 39.1246,
      "name": "MINNEAPOLIS, KS US",
      "datacoverage": 1,
      "id": "GHCND:USC00145363",
      "elevationUnit": "METERS",
      "longitude": -97.7047
    }
  ]
}
