{
  "metadata": {
    "resultset": {
      "offset": 113800,
      "count": 154115,
      "limit": 100
    }
  },
  "results": [
    {
      "elevation": 166.1,
      "mindate": "2008-04-01",
      "maxdate": "2012-02-20",
      "latitude": 36.25686,
      "name": "CARTHAGE 0.1 W, TN US",
      "datacoverage": 1,
      "id": "GHCND:US1TNSM0006",
      "elevationUnit": "METERS",
      "longitude": -85.94609
    },
    {
      "elevation": 148.7,
      "mindate": "2012-02-01",
      "maxdate": "2017-07-05",
      "latitude": 36.3247451782227,
      "name": "HARTSVILLE 6.5 SE, TN US",
      "datacoverage": 1,
      "id": "GHCND:US1TNSM0008",
      "elevationUnit": "METERS",
      "longitude": -86.0756759643555
    },
    {
      "elevation": 191.4,
      "mindate": "2012-03-01",
      "maxdate": "2025-03-05",
      "latitude": 36.300867,
      "name": "CARTHAGE 3.3 NNW, TN US",
      "datacoverage": 0.9692,
      "id": "GHCND:US1TNSM0009",
      "elevationUnit": "METERS",
      "longitude": -85.965744
    },
    {
      "elevation": 161.8,
      "mindate": "2012-05-01",
      "maxdate": "2013-10-31",
      "latitude": 36.1280639469624,
      "name": "LANCASTER 0.1 WNW, TN US",
      "datacoverage": 0.8871,
      "id": "GHCND:US1TNSM0010",
      "elevationUnit": "METERS",
      "longitude": -85.8563263714314
    },
    {
      "elevation": 190.5,
      "mindate": "2012-05-01",
      "maxdate": "2023-09-11",
      "latitude": 36.243633,
      "name": "CARTHAGE 2.8 WSW, TN US",
      "datacoverage": 1,
      "id": "GHCND:US1TNSM0011",
      "elevationUnit": "METERS",
      "longitude": -85.9915552
    },
    {
      "elevation": 166.7,
      "mindate": "2012-08-01",
      "maxdate": "2025-03-06",
      "latitude": 36.2354202270508,
      "name": "LEBANON 10.5 E, TN US",
      "datacoverage": 0.9819,
      "id": "GHCND:US1TNSM0012",
      "elevationUnit": "METERS",
      "longitude": -86.1051177978516
    },
    {
      "elevation": 206.7,
      "mindate": "2013-01-01",
      "maxdate": "2025-03-06",
      "latitude": 36.2885,
      "name": "ELMWOOD 4.5 NNE, TN US",
      "datacoverage": 1,
      "id": "GHCND:US1TNSM0013",
      "elevationUnit": "METERS",
      "longitude": -85.8619
    },
    {
      "elevation": 199.9,
      "mindate": "2022-04-15",
      "maxdate": "2024-12-29",
      "latitude": 36.086855,
      "name": "ALEXANDRIA 0.8 NNE, TN US",
      "datacoverage": 0.7505,
      "id": "GHCND:US1TNSM0015",
      "elevationUnit": "METERS",
      "longitude": -86.02852
    },
    {
      "elevation": 168.2,
      "mindate": "2022-09-06",
      "maxdate": "2025-03-03",
      "latitude": 36.2269383,
      "name": "CARTHAGE 2.1 S, TN US",
      "datacoverage": 0.5575,
      "id": "GHCND:US1TNSM0016",
      "elevationUnit": "METERS",
      "longitude": -85.9481295
    },
    {
      "elevation": 218.5,
      "mindate": "2022-12-01",
      "maxdate": "2025-03-07",
      "latitude": 36.1506185,
      "name": "BRUSH CREEK 2.5 NNW, TN US",
      "datacoverage": 1,
      "id": "GHCND:US1TNSM0017",
      "elevationUnit": "METERS",
      "longitude": -86.0433866
    },
    {
      "elevation": 156.1,
      "mindate": "2023-03-27",
      "maxdate": "2025-03-06",
      "latitude": 36.15967,
      "name": "GORDONSVILLE 1.6 S, TN US",
      "datacoverage": 0.9662,
      "id": "GHCND:US1TNSM0019",
      "elevationUnit": "METERS",
      "longitude": -85.93171
    },
    {
      "elevation": 630,
      "mindate": "2008-06-01",
      "maxdate": "2025-03-07",
      "latitude": 35.401178,
      "name": "DUNLAP 3.1 NW, TN US",
      "datacoverage": 1,
      "id": "GHCND:US1TNSQ0001",
      "elevationUnit": "METERS",
      "longitude": -85.428759
    },
    {
      "elevation": 224,
      "mindate": "2008-01-01",
      "maxdate": "2010-02-06",
      "latitude": 35.374783,
      "name": "DUNLAP 0.1 NNW, TN US",
      "datacoverage": 0.8328,
      "id": "GHCND:US1TNSQ0002",
      "elevationUnit": "METERS",
      "longitude": -85.38723
    },
    {
      "elevation": 630.9,
      "mindate": "2009-03-01",
      "maxdate": "2012-01-10",
      "latitude": 35.46319,
      "name": "DUNLAP 6.8 NNW, TN US",
      "datacoverage": 0.9699,
      "id": "GHCND:US1TNSQ0004",
      "elevationUnit": "METERS",
      "longitude": -85.434871
    },
    {
      "elevation": 210.6,
      "mindate": "2009-04-01",
      "maxdate": "2012-10-10",
      "latitude": 35.314353,
      "name": "DUNLAP 4.6 SSW, TN US",
      "datacoverage": 1,
      "id": "GHCND:US1TNSQ0005",
      "elevationUnit": "METERS",
      "longitude": -85.424889
    },
    {
      "elevation": 262.1,
      "mindate": "2009-05-01",
      "maxdate": "2015-06-07",
      "latitude": 35.355689,
      "name": "DUNLAP 1.3 SSW, TN US",
      "datacoverage": 1,
      "id": "GHCND:US1TNSQ0006",
      "elevationUnit": "METERS",
      "longitude": -85.394354
    },
    {
      "elevation": 216.1,
      "mindate": "2008-12-01",
      "maxdate": "2025-03-06",
      "latitude": 35.34018,
      "name": "DUNLAP 2.3 SSE, TN US",
      "datacoverage": 0.9895,
      "id": "GHCND:US1TNSQ0007",
      "elevationUnit": "METERS",
      "longitude": -85.374442
    },
    {
      "elevation": 630.3,
      "mindate": "2009-05-01",
      "maxdate": "2013-09-08",
      "latitude": 35.364528,
      "name": "DUNLAP 3.8 W, TN US",
      "datacoverage": 0.2263,
      "id": "GHCND:US1TNSQ0008",
      "elevationUnit": "METERS",
      "longitude": -85.453424
    },
    {
      "elevation": 213.7,
      "mindate": "2010-02-01",
      "maxdate": "2018-12-10",
      "latitude": 35.362,
      "name": "DUNLAP 0.4 SSE, TN US",
      "datacoverage": 1,
      "id": "GHCND:US1TNSQ0009",
      "elevationUnit": "METERS",
      "longitude": -85.3797
    },
    {
      "elevation": 222.5,
      "mindate": "2010-03-01",
      "maxdate": "2011-01-31",
      "latitude": 35.29093333,
      "name": "WHITWELL 8.6 NE, TN US",
      "datacoverage": 0.9935,
      "id": "GHCND:US1TNSQ0010",
      "elevationUnit": "METERS",
      "longitude": -85.412925
    },
    {
      "elevation": 631.2,
      "mindate": "2010-03-01",
      "maxdate": "2013-11-01",
      "latitude": 35.392029,
      "name": "DUNLAP 5.1 WNW, TN US",
      "datacoverage": 0.8436,
      "id": "GHCND:US1TNSQ0011",
      "elevationUnit": "METERS",
      "longitude": -85.47446
    },
    {
      "elevation": 231.6,
      "mindate": "2010-04-01",
      "maxdate": "2014-08-12",
      "latitude": 35.438,
      "name": "DUNLAP 4.8 NNE, TN US",
      "datacoverage": 0.8109,
      "id": "GHCND:US1TNSQ0012",
      "elevationUnit": "METERS",
      "longitude": -85.356
    },
    {
      "elevation": 634,
      "mindate": "2010-06-01",
      "maxdate": "2011-11-06",
      "latitude": 35.362,
      "name": "DUNLAP 3.8 W, TN US",
      "datacoverage": 0.9442,
      "id": "GHCND:US1TNSQ0013",
      "elevationUnit": "METERS",
      "longitude": -85.453
    },
    {
      "elevation": 598,
      "mindate": "2010-07-01",
      "maxdate": "2011-10-31",
      "latitude": 35.516287,
      "name": "DUNLAP 11.2 NNW, TN US",
      "datacoverage": 0.998,
      "id": "GHCND:US1TNSQ0014",
      "elevationUnit": "METERS",
      "longitude": -85.480216
    },
    {
      "elevation": 623.6,
      "mindate": "2010-12-01",
      "maxdate": "2012-06-13",
      "latitude": 35.368004,
      "name": "GRAYSVILLE 12.5 WSW, TN US",
      "datacoverage": 1,
      "id": "GHCND:US1TNSQ0015",
      "elevationUnit": "METERS",
      "longitude": -85.281373
    },
    {
      "elevation": 234.1,
      "mindate": "2011-03-01",
      "maxdate": "2011-12-05",
      "latitude": 35.3566,
      "name": "DUNLAP 1.1 S, TN US",
      "datacoverage": 0.9947,
      "id": "GHCND:US1TNSQ0016",
      "elevationUnit": "METERS",
      "longitude": -85.3899
    },
    {
      "elevation": 496.5,
      "mindate": "2013-03-01",
      "maxdate": "2015-10-16",
      "latitude": 35.4329,
      "name": "DUNLAP 4.2 N, TN US",
      "datacoverage": 0.999,
      "id": "GHCND:US1TNSQ0018",
      "elevationUnit": "METERS",
      "longitude": -85.3761
    },
    {
      "elevation": 658.4,
      "mindate": "2013-03-01",
      "maxdate": "2013-09-29",
      "latitude": 35.37416667,
      "name": "DUNLAP 2.4 W, TN US",
      "datacoverage": 0.9956,
      "id": "GHCND:US1TNSQ0019",
      "elevationUnit": "METERS",
      "longitude": -85.42883333
    },
    {
      "elevation": 658.1,
      "mindate": "2013-05-01",
      "maxdate": "2017-04-06",
      "latitude": 35.37826,
      "name": "DUNLAP 2.7 W, TN US",
      "datacoverage": 0.7505,
      "id": "GHCND:US1TNSQ0020",
      "elevationUnit": "METERS",
      "longitude": -85.43417
    },
    {
      "elevation": 655.6,
      "mindate": "2013-03-01",
      "maxdate": "2015-01-27",
      "latitude": 35.375002,
      "name": "DUNLAP 5.8 E, TN US",
      "datacoverage": 0.9972,
      "id": "GHCND:US1TNSQ0021",
      "elevationUnit": "METERS",
      "longitude": -85.283371
    },
    {
      "elevation": 630,
      "mindate": "2013-03-01",
      "maxdate": "2014-10-15",
      "latitude": 35.36972222,
      "name": "DUNLAP 4.2 W, TN US",
      "datacoverage": 0.998,
      "id": "GHCND:US1TNSQ0022",
      "elevationUnit": "METERS",
      "longitude": -85.46166667
    },
    {
      "elevation": 238.7,
      "mindate": "2013-03-01",
      "maxdate": "2018-09-17",
      "latitude": 35.4140396118164,
      "name": "DUNLAP 2.9 N, TN US",
      "datacoverage": 0.9993,
      "id": "GHCND:US1TNSQ0023",
      "elevationUnit": "METERS",
      "longitude": -85.3818817138672
    },
    {
      "elevation": 643.1,
      "mindate": "2013-03-01",
      "maxdate": "2016-12-06",
      "latitude": 35.388177,
      "name": "DUNLAP 4.0 WNW, TN US",
      "datacoverage": 0.4051,
      "id": "GHCND:US1TNSQ0024",
      "elevationUnit": "METERS",
      "longitude": -85.454313
    },
    {
      "elevation": 653.2,
      "mindate": "2013-04-01",
      "maxdate": "2024-04-27",
      "latitude": 35.3725,
      "name": "DUNLAP 2.9 W, TN US",
      "datacoverage": 0.972,
      "id": "GHCND:US1TNSQ0025",
      "elevationUnit": "METERS",
      "longitude": -85.43777778
    },
    {
      "elevation": 665.4,
      "mindate": "2013-07-01",
      "maxdate": "2020-01-29",
      "latitude": 35.378116607666,
      "name": "DUNLAP 2.6 W, TN US",
      "datacoverage": 0.9389,
      "id": "GHCND:US1TNSQ0026",
      "elevationUnit": "METERS",
      "longitude": -85.4318923950195
    },
    {
      "elevation": 591.6,
      "mindate": "2019-03-26",
      "maxdate": "2025-03-06",
      "latitude": 35.38006,
      "name": "GRAYSVILLE 11.6 WSW, TN US",
      "datacoverage": 0.6209,
      "id": "GHCND:US1TNSQ0027",
      "elevationUnit": "METERS",
      "longitude": -85.26996
    },
    {
      "elevation": 297.2,
      "mindate": "2003-08-04",
      "maxdate": "2024-01-15",
      "latitude": 35.41575,
      "name": "DUNLAP 4.1 NE, TN US",
      "datacoverage": 0.8534,
      "id": "GHCND:US1TNSQ0028",
      "elevationUnit": "METERS",
      "longitude": -85.33616
    },
    {
      "elevation": 211.2,
      "mindate": "2022-04-01",
      "maxdate": "2025-03-05",
      "latitude": 35.3718916666667,
      "name": "DUNLAP 0.1 SSW, TN US",
      "datacoverage": 0.886,
      "id": "GHCND:US1TNSQ0029",
      "elevationUnit": "METERS",
      "longitude": -85.387
    },
    {
      "elevation": 661.4,
      "mindate": "2022-04-04",
      "maxdate": "2025-03-06",
      "latitude": 35.37058,
      "name": "DUNLAP 2.6 W, TN US",
      "datacoverage": 0.9986,
      "id": "GHCND:US1TNSQ0030",
      "elevationUnit": "METERS",
      "longitude": -85.43183
    },
    {
      "elevation": 157.9,
      "mindate": "2007-04-01",
      "maxdate": "2009-06-05",
      "latitude": 36.398191,
      "name": "GALLATIN 3.4 WNW, TN US",
      "datacoverage": 0.9998,
      "id": "GHCND:US1TNSR0005",
      "elevationUnit": "METERS",
      "longitude": -86.509613
    },
    {
      "elevation": 164.9,
      "mindate": "1998-06-01",
      "maxdate": "2013-05-02",
      "latitude": 36.287125,
      "name": "HENDERSONVILLE 0.9 ESE, TN US",
      "datacoverage": 0.8986,
      "id": "GHCND:US1TNSR0006",
      "elevationUnit": "METERS",
      "longitude": -86.589717
    },
    {
      "elevation": 157,
      "mindate": "2007-05-01",
      "maxdate": "2016-01-22",
      "latitude": 36.33762,
      "name": "GALLATIN 4.6 SW, TN US",
      "datacoverage": 0.9994,
      "id": "GHCND:US1TNSR0008",
      "elevationUnit": "METERS",
      "longitude": -86.518795
    },
    {
      "elevation": 148.1,
      "mindate": "2007-04-01",
      "maxdate": "2025-03-07",
      "latitude": 36.31886,
      "name": "HENDERSONVILLE 2.9 NE, TN US",
      "datacoverage": 0.9998,
      "id": "GHCND:US1TNSR0011",
      "elevationUnit": "METERS",
      "longitude": -86.561239
    },
    {
      "elevation": 264,
      "mindate": "2007-06-01",
      "maxdate": "2018-03-17",
      "latitude": 36.549159,
      "name": "WESTMORELAND 3.8 WSW, TN US",
      "datacoverage": 0.9998,
      "id": "GHCND:US1TNSR0013",
      "elevationUnit": "METERS",
      "longitude": -86.312892
    },
    {
      "elevation": 164.9,
      "mindate": "2007-06-01",
      "maxdate": "2010-10-02",
      "latitude": 36.366418,
      "name": "HENDERSONVILLE 5.0 N, TN US",
      "datacoverage": 0.9991,
      "id": "GHCND:US1TNSR0014",
      "elevationUnit": "METERS",
      "longitude": -86.606463
    },
    {
      "elevation": 185.9,
      "mindate": "2007-06-01",
      "maxdate": "2007-11-07",
      "latitude": 36.370711,
      "name": "HENDERSONVILLE 5.6 NNW, TN US",
      "datacoverage": 0.998,
      "id": "GHCND:US1TNSR0015",
      "elevationUnit": "METERS",
      "longitude": -86.633964
    },
    {
      "elevation": 146,
      "mindate": "2007-09-01",
      "maxdate": "2009-12-09",
      "latitude": 36.283573,
      "name": "HENDERSONVILLE 0.8 SSW, TN US",
      "datacoverage": 0.9634,
      "id": "GHCND:US1TNSR0016",
      "elevationUnit": "METERS",
      "longitude": -86.608771
    },
    {
      "elevation": 245.1,
      "mindate": "2007-07-01",
      "maxdate": "2020-11-25",
      "latitude": 36.639618,
      "name": "WESTMORELAND 5.2 N, TN US",
      "datacoverage": 0.9997,
      "id": "GHCND:US1TNSR0023",
      "elevationUnit": "METERS",
      "longitude": -86.251804
    },
    {
      "elevation": 163.1,
      "mindate": "2007-07-01",
      "maxdate": "2008-06-11",
      "latitude": 36.295801,
      "name": "HENDERSONVILLE 4.1 E, TN US",
      "datacoverage": 0.998,
      "id": "GHCND:US1TNSR0025",
      "elevationUnit": "METERS",
      "longitude": -86.529892
    },
    {
      "elevation": 232.9,
      "mindate": "2007-07-01",
      "maxdate": "2010-07-25",
      "latitude": 36.6167,
      "name": "PORTLAND 3.5 NE, TN US",
      "datacoverage": 0.9998,
      "id": "GHCND:US1TNSR0026",
      "elevationUnit": "METERS",
      "longitude": -86.4659
    },
    {
      "elevation": 146.9,
      "mindate": "2007-07-01",
      "maxdate": "2008-01-16",
      "latitude": 36.299153,
      "name": "HENDERSONVILLE 0.9 WNW, TN US",
      "datacoverage": 0.998,
      "id": "GHCND:US1TNSR0027",
      "elevationUnit": "METERS",
      "longitude": -86.618758
    },
    {
      "elevation": 159.1,
      "mindate": "2007-07-01",
      "maxdate": "2008-03-11",
      "latitude": 36.315736,
      "name": "HENDERSONVILLE 2.3 NE, TN US",
      "datacoverage": 0.9961,
      "id": "GHCND:US1TNSR0031",
      "elevationUnit": "METERS",
      "longitude": -86.571246
    },
    {
      "elevation": 252.1,
      "mindate": "1998-06-17",
      "maxdate": "2025-02-24",
      "latitude": 36.6368,
      "name": "WESTMORELAND 5.4 NNE, TN US",
      "datacoverage": 0.8561,
      "id": "GHCND:US1TNSR0032",
      "elevationUnit": "METERS",
      "longitude": -86.2125
    },
    {
      "elevation": 256,
      "mindate": "2007-10-01",
      "maxdate": "2010-05-01",
      "latitude": 36.44724,
      "name": "WHITE HOUSE 2.1 ESE, TN US",
      "datacoverage": 0.6563,
      "id": "GHCND:US1TNSR0034",
      "elevationUnit": "METERS",
      "longitude": -86.636565
    },
    {
      "elevation": 153,
      "mindate": "2008-03-01",
      "maxdate": "2014-02-17",
      "latitude": 36.3208,
      "name": "HENDERSONVILLE 3.6 WNW, TN US",
      "datacoverage": 1,
      "id": "GHCND:US1TNSR0040",
      "elevationUnit": "METERS",
      "longitude": -86.659
    },
    {
      "elevation": 253,
      "mindate": "1998-06-01",
      "maxdate": "2019-11-07",
      "latitude": 36.554142,
      "name": "PORTLAND 3.0 SW, TN US",
      "datacoverage": 0.9986,
      "id": "GHCND:US1TNSR0041",
      "elevationUnit": "METERS",
      "longitude": -86.553229
    },
    {
      "elevation": 281.9,
      "mindate": "2008-06-01",
      "maxdate": "2008-11-30",
      "latitude": 36.505042,
      "name": "PORTLAND 6.6 SSE, TN US",
      "datacoverage": 0.998,
      "id": "GHCND:US1TNSR0045",
      "elevationUnit": "METERS",
      "longitude": -86.454686
    },
    {
      "elevation": 185,
      "mindate": "2009-03-01",
      "maxdate": "2010-07-03",
      "latitude": 36.388576,
      "name": "GALLATIN 1.6 ENE, TN US",
      "datacoverage": 0.9989,
      "id": "GHCND:US1TNSR0046",
      "elevationUnit": "METERS",
      "longitude": -86.427309
    },
    {
      "elevation": 281,
      "mindate": "2008-12-01",
      "maxdate": "2025-03-07",
      "latitude": 36.533125,
      "name": "BETHPAGE 4.5 NW, TN US",
      "datacoverage": 0.9093,
      "id": "GHCND:US1TNSR0050",
      "elevationUnit": "METERS",
      "longitude": -86.367815
    },
    {
      "elevation": 153,
      "mindate": "2009-05-01",
      "maxdate": "2017-01-19",
      "latitude": 36.39214,
      "name": "GALLATIN 6.3 E, TN US",
      "datacoverage": 0.4262,
      "id": "GHCND:US1TNSR0052",
      "elevationUnit": "METERS",
      "longitude": -86.340584
    },
    {
      "elevation": 171.9,
      "mindate": "2009-10-01",
      "maxdate": "2013-04-12",
      "latitude": 36.405,
      "name": "GALLATIN 1.9 NNE, TN US",
      "datacoverage": 0.6981,
      "id": "GHCND:US1TNSR0054",
      "elevationUnit": "METERS",
      "longitude": -86.4406
    },
    {
      "elevation": 258.8,
      "mindate": "2009-11-01",
      "maxdate": "2010-05-22",
      "latitude": 36.521689,
      "name": "PORTLAND 4.5 SSE, TN US",
      "datacoverage": 1,
      "id": "GHCND:US1TNSR0055",
      "elevationUnit": "METERS",
      "longitude": -86.498326
    },
    {
      "elevation": 262.7,
      "mindate": "2010-05-01",
      "maxdate": "2010-12-14",
      "latitude": 36.5076,
      "name": "PORTLAND 6.0 SSW, TN US",
      "datacoverage": 0.998,
      "id": "GHCND:US1TNSR0057",
      "elevationUnit": "METERS",
      "longitude": -86.5636
    },
    {
      "elevation": 177.7,
      "mindate": "2010-07-01",
      "maxdate": "2013-12-08",
      "latitude": 36.388581,
      "name": "GALLATIN 1.5 ENE, TN US",
      "datacoverage": 0.9987,
      "id": "GHCND:US1TNSR0058",
      "elevationUnit": "METERS",
      "longitude": -86.42865
    },
    {
      "elevation": 226.8,
      "mindate": "2010-07-11",
      "maxdate": "2025-03-05",
      "latitude": 36.579602,
      "name": "PORTLAND 2.9 E, TN US",
      "datacoverage": 0.0252,
      "id": "GHCND:US1TNSR0059",
      "elevationUnit": "METERS",
      "longitude": -86.464841
    },
    {
      "elevation": 160.9,
      "mindate": "2012-02-01",
      "maxdate": "2019-07-15",
      "latitude": 36.3745727539063,
      "name": "GOODLETTSVILLE 3.1 NNW, TN US",
      "datacoverage": 0.9806,
      "id": "GHCND:US1TNSR0061",
      "elevationUnit": "METERS",
      "longitude": -86.7264022827148
    },
    {
      "elevation": 158.8,
      "mindate": "2012-03-01",
      "maxdate": "2021-10-04",
      "latitude": 36.396996,
      "name": "GALLATIN 2.7 WNW, TN US",
      "datacoverage": 0.9996,
      "id": "GHCND:US1TNSR0062",
      "elevationUnit": "METERS",
      "longitude": -86.495445
    },
    {
      "elevation": 172.5,
      "mindate": "2015-05-08",
      "maxdate": "2020-11-30",
      "latitude": 36.40483,
      "name": "GALLATIN 1.9 NNE, TN US",
      "datacoverage": 0.3181,
      "id": "GHCND:US1TNSR0074",
      "elevationUnit": "METERS",
      "longitude": -86.44059
    },
    {
      "elevation": 242.6,
      "mindate": "2016-06-24",
      "maxdate": "2021-06-05",
      "latitude": 36.601036,
      "name": "PORTLAND 1.2 NNE, TN US",
      "datacoverage": 0.9065,
      "id": "GHCND:US1TNSR0076",
      "elevationUnit": "METERS",
      "longitude": -86.507694
    },
    {
      "elevation": 168.6,
      "mindate": "2021-03-26",
      "maxdate": "2025-02-16",
      "latitude": 36.39794,
      "name": "GALLATIN 3.0 WNW, TN US",
      "datacoverage": 1,
      "id": "GHCND:US1TNSR0082",
      "elevationUnit": "METERS",
      "longitude": -86.500999
    },
    {
      "elevation": 162.5,
      "mindate": "2022-02-25",
      "maxdate": "2025-03-07",
      "latitude": 36.361865,
      "name": "HENDERSONVILLE 4.7 N, TN US",
      "datacoverage": 0.8871,
      "id": "GHCND:US1TNSR0084",
      "elevationUnit": "METERS",
      "longitude": -86.597069
    },
    {
      "elevation": 156.1,
      "mindate": "2022-03-20",
      "maxdate": "2025-02-16",
      "latitude": 36.352625,
      "name": "HENDERSONVILLE 4.9 NNE, TN US",
      "datacoverage": 0.6993,
      "id": "GHCND:US1TNSR0085",
      "elevationUnit": "METERS",
      "longitude": -86.55498
    },
    {
      "elevation": 146.6,
      "mindate": "2022-08-29",
      "maxdate": "2025-03-06",
      "latitude": 36.28066,
      "name": "HENDERSONVILLE 1.4 SW, TN US",
      "datacoverage": 0.949,
      "id": "GHCND:US1TNSR0086",
      "elevationUnit": "METERS",
      "longitude": -86.62173
    },
    {
      "elevation": 173.7,
      "mindate": "2023-03-31",
      "maxdate": "2025-03-06",
      "latitude": 36.3939498,
      "name": "MILLERSVILLE 1.4 NW, TN US",
      "datacoverage": 0.9925,
      "id": "GHCND:US1TNSR0089",
      "elevationUnit": "METERS",
      "longitude": -86.721666
    },
    {
      "elevation": 159.1,
      "mindate": "2023-06-11",
      "maxdate": "2025-02-23",
      "latitude": 36.328597,
      "name": "GOODLETTSVILLE 1.7 ESE, TN US",
      "datacoverage": 0.8654,
      "id": "GHCND:US1TNSR0094",
      "elevationUnit": "METERS",
      "longitude": -86.673589
    },
    {
      "elevation": 160.9,
      "mindate": "2023-03-25",
      "maxdate": "2024-05-19",
      "latitude": 36.32045,
      "name": "HENDERSONVILLE 2.3 NW, TN US",
      "datacoverage": 0.3578,
      "id": "GHCND:US1TNSR0096",
      "elevationUnit": "METERS",
      "longitude": -86.62885
    },
    {
      "elevation": 147.8,
      "mindate": "2023-03-19",
      "maxdate": "2025-03-06",
      "latitude": 36.3467592,
      "name": "GALLATIN 2.8 SW, TN US",
      "datacoverage": 0.9318,
      "id": "GHCND:US1TNSR0097",
      "elevationUnit": "METERS",
      "longitude": -86.483332
    },
    {
      "elevation": 184.1,
      "mindate": "2023-04-01",
      "maxdate": "2025-03-06",
      "latitude": 36.3943542,
      "name": "GOODLETTSVILLE 4.3 NNW, TN US",
      "datacoverage": 0.9566,
      "id": "GHCND:US1TNSR0098",
      "elevationUnit": "METERS",
      "longitude": -86.7198625
    },
    {
      "elevation": 156.4,
      "mindate": "2023-04-05",
      "maxdate": "2025-03-07",
      "latitude": 36.414766,
      "name": "GALLATIN 2.5 N, TN US",
      "datacoverage": 0.998,
      "id": "GHCND:US1TNSR0099",
      "elevationUnit": "METERS",
      "longitude": -86.4558
    },
    {
      "elevation": 285,
      "mindate": "2023-12-22",
      "maxdate": "2025-03-07",
      "latitude": 36.53874,
      "name": "BETHPAGE 4.7 NW, TN US",
      "datacoverage": 0.9967,
      "id": "GHCND:US1TNSR0101",
      "elevationUnit": "METERS",
      "longitude": -86.35907
    },
    {
      "elevation": 271.3,
      "mindate": "2024-04-01",
      "maxdate": "2025-03-06",
      "latitude": 36.475977,
      "name": "PORTLAND 8.1 SSE, TN US",
      "datacoverage": 0.8316,
      "id": "GHCND:US1TNSR0105",
      "elevationUnit": "METERS",
      "longitude": -86.464084
    },
    {
      "elevation": 152.7,
      "mindate": "2024-06-01",
      "maxdate": "2025-03-07",
      "latitude": 36.295,
      "name": "HENDERSONVILLE 0.3 ENE, TN US",
      "datacoverage": 1,
      "id": "GHCND:US1TNSR0106",
      "elevationUnit": "METERS",
      "longitude": -86.598156
    },
    {
      "elevation": 114,
      "mindate": "2007-06-01",
      "maxdate": "2007-12-21",
      "latitude": 36.49267,
      "name": "CROSS CREEK NWR, TN US",
      "datacoverage": 0.9956,
      "id": "GHCND:US1TNST0001",
      "elevationUnit": "METERS",
      "longitude": -87.791888
    },
    {
      "elevation": 156.1,
      "mindate": "2007-08-01",
      "maxdate": "2021-08-22",
      "latitude": 36.377613,
      "name": "CUMBERLAND CITY 1.2 ESE, TN US",
      "datacoverage": 1,
      "id": "GHCND:US1TNST0002",
      "elevationUnit": "METERS",
      "longitude": -87.623509
    },
    {
      "elevation": 213.1,
      "mindate": "2007-07-01",
      "maxdate": "2013-01-28",
      "latitude": 36.461825,
      "name": "INDIAN MOUND 3.6SE, TN US",
      "datacoverage": 0.9987,
      "id": "GHCND:US1TNST0005",
      "elevationUnit": "METERS",
      "longitude": -87.611104
    },
    {
      "elevation": 150,
      "mindate": "2007-09-01",
      "maxdate": "2015-01-09",
      "latitude": 36.372914,
      "name": "CUMBERLAND CITY 3.2 WSW, TN US",
      "datacoverage": 0.1235,
      "id": "GHCND:US1TNST0006",
      "elevationUnit": "METERS",
      "longitude": -87.701271
    },
    {
      "elevation": 118,
      "mindate": "2007-08-01",
      "maxdate": "2014-04-03",
      "latitude": 36.597937,
      "name": "DOVER 8.0 N, TN US",
      "datacoverage": 0.5803,
      "id": "GHCND:US1TNST0007",
      "elevationUnit": "METERS",
      "longitude": -87.845607
    },
    {
      "elevation": 148.1,
      "mindate": "2007-07-01",
      "maxdate": "2008-10-21",
      "latitude": 36.533599,
      "name": "DOVER 3.8 NNW, TN US",
      "datacoverage": 0.998,
      "id": "GHCND:US1TNST0008",
      "elevationUnit": "METERS",
      "longitude": -87.868082
    },
    {
      "elevation": 185,
      "mindate": "2007-12-01",
      "maxdate": "2025-03-05",
      "latitude": 36.589207,
      "name": "DOVER 7.8 NNE, TN US",
      "datacoverage": 0.9999,
      "id": "GHCND:US1TNST0010",
      "elevationUnit": "METERS",
      "longitude": -87.799447
    },
    {
      "elevation": 206,
      "mindate": "2011-02-01",
      "maxdate": "2012-12-22",
      "latitude": 36.55083333,
      "name": "INDIAN MOUND 3.5 N, TN US",
      "datacoverage": 1,
      "id": "GHCND:US1TNST0011",
      "elevationUnit": "METERS",
      "longitude": -87.6895
    },
    {
      "elevation": 129.2,
      "mindate": "2021-08-09",
      "maxdate": "2023-09-16",
      "latitude": 36.32382,
      "name": "STEWART 6.4 W, TN US",
      "datacoverage": 0.2081,
      "id": "GHCND:US1TNST0018",
      "elevationUnit": "METERS",
      "longitude": -87.955313
    },
    {
      "elevation": 189.3,
      "mindate": "2023-08-01",
      "maxdate": "2025-03-05",
      "latitude": 36.564,
      "name": "DOVER 5.7 N, TN US",
      "datacoverage": 0.6617,
      "id": "GHCND:US1TNST0023",
      "elevationUnit": "METERS",
      "longitude": -87.85
    },
    {
      "elevation": 271,
      "mindate": "2007-07-01",
      "maxdate": "2025-03-05",
      "latitude": 35.92626,
      "name": "SEVIERVILLE 2.8 NNW, TN US",
      "datacoverage": 0.8283,
      "id": "GHCND:US1TNSV0003",
      "elevationUnit": "METERS",
      "longitude": -83.60434
    },
    {
      "elevation": 331.9,
      "mindate": "2008-08-01",
      "maxdate": "2024-12-12",
      "latitude": 35.919898,
      "name": "SEVIERVILLE 5.4 ENE, TN US",
      "datacoverage": 1,
      "id": "GHCND:US1TNSV0004",
      "elevationUnit": "METERS",
      "longitude": -83.487239
    },
    {
      "elevation": 335.9,
      "mindate": "2008-09-01",
      "maxdate": "2010-03-04",
      "latitude": 35.82551,
      "name": "SEVIERVILLE 7.3 SE, TN US",
      "datacoverage": 0.9925,
      "id": "GHCND:US1TNSV0005",
      "elevationUnit": "METERS",
      "longitude": -83.467436
    },
    {
      "elevation": 277.1,
      "mindate": "2011-02-01",
      "maxdate": "2013-09-09",
      "latitude": 35.864052,
      "name": "SEVIERVILLE 2.4 SE, TN US",
      "datacoverage": 0.9991,
      "id": "GHCND:US1TNSV0007",
      "elevationUnit": "METERS",
      "longitude": -83.553321
    },
    {
      "elevation": 516,
      "mindate": "2010-06-01",
      "maxdate": "2013-08-01",
      "latitude": 35.697888,
      "name": "TOWNSEND 6.1 ENE, TN US",
      "datacoverage": 0.7485,
      "id": "GHCND:US1TNSV0009",
      "elevationUnit": "METERS",
      "longitude": -83.646563
    },
    {
      "elevation": 321,
      "mindate": "2010-09-01",
      "maxdate": "2014-07-11",
      "latitude": 35.879114,
      "name": "SEYMOUR 1.1 ENE, TN US",
      "datacoverage": 1,
      "id": "GHCND:US1TNSV0010",
      "elevationUnit": "METERS",
      "longitude": -83.755287
    },
    {
      "elevation": 242.9,
      "mindate": "2023-04-25",
      "maxdate": "2025-03-07",
      "latitude": 35.851433,
      "name": "SEVIERVILLE 3.8 SE, TN US",
      "datacoverage": 0.8097,
      "id": "GHCND:US1TNSV0018",
      "elevationUnit": "METERS",
      "longitude": -83.531477
    },
    {
      "elevation": 123.1,
      "mindate": "2007-11-01",
      "maxdate": "2009-06-28",
      "latitude": 35.472504,
      "name": "MUNFORD 6.8 WNW, TN US",
      "datacoverage": 1,
      "id": "GHCND:US1TNTP0001",
      "elevationUnit": "METERS",
      "longitude": -89.922725
    }
  ]
}
