{
  "metadata": {
    "resultset": {
      "offset": 110500,
      "count": 154115,
      "limit": 100
    }
  },
  "results": [
    {
      "elevation": 387.1,
      "mindate": "2015-08-01",
      "maxdate": "2017-01-09",
      "latitude": 40.304488,
      "name": "JEANNETTE 1.6 S, PA US",
      "datacoverage": 0.998,
      "id": "GHCND:US1PAWT0015",
      "elevationUnit": "METERS",
      "longitude": -79.615898
    },
    {
      "elevation": 349.6,
      "mindate": "2016-03-30",
      "maxdate": "2019-12-30",
      "latitude": 40.5730171203613,
      "name": "APOLLO 4.1 W, PA US",
      "datacoverage": 0.3523,
      "id": "GHCND:US1PAWT0016",
      "elevationUnit": "METERS",
      "longitude": -79.6419143676758
    },
    {
      "elevation": 334.1,
      "mindate": "2016-10-21",
      "maxdate": "2025-03-06",
      "latitude": 40.3772804886103,
      "name": "NEW FLORENCE 0.2 ESE, PA US",
      "datacoverage": 0.9991,
      "id": "GHCND:US1PAWT0018",
      "elevationUnit": "METERS",
      "longitude": -79.0709035098553
    },
    {
      "elevation": 315.8,
      "mindate": "2002-08-08",
      "maxdate": "2025-03-07",
      "latitude": 40.6152954101563,
      "name": "LEECHBURG 1.4 SW, PA US",
      "datacoverage": 0.9989,
      "id": "GHCND:US1PAWT0019",
      "elevationUnit": "METERS",
      "longitude": -79.6213760375977
    },
    {
      "elevation": 298.1,
      "mindate": "2016-11-18",
      "maxdate": "2018-01-12",
      "latitude": 40.165803,
      "name": "BELLE VERNON 4.5 NE, PA US",
      "datacoverage": 0.9173,
      "id": "GHCND:US1PAWT0020",
      "elevationUnit": "METERS",
      "longitude": -79.799497
    },
    {
      "elevation": 313.3,
      "mindate": "2016-12-01",
      "maxdate": "2025-03-06",
      "latitude": 40.326292,
      "name": "IRWIN 0.2 W, PA US",
      "datacoverage": 0.9903,
      "id": "GHCND:US1PAWT0022",
      "elevationUnit": "METERS",
      "longitude": -79.702931
    },
    {
      "elevation": 351.7,
      "mindate": "2019-06-25",
      "maxdate": "2022-12-10",
      "latitude": 40.312651,
      "name": "ADAMSBURG 0.2 NNE, PA US",
      "datacoverage": 0.3502,
      "id": "GHCND:US1PAWT0029",
      "elevationUnit": "METERS",
      "longitude": -79.653843
    },
    {
      "elevation": 326.7,
      "mindate": "2020-06-11",
      "maxdate": "2024-04-15",
      "latitude": 40.153391,
      "name": "MONESSEN 0.7 W, PA US",
      "datacoverage": 0.1075,
      "id": "GHCND:US1PAWT0034",
      "elevationUnit": "METERS",
      "longitude": -79.895983
    },
    {
      "elevation": 351.7,
      "mindate": "2019-05-03",
      "maxdate": "2025-03-05",
      "latitude": 40.26144,
      "name": "NEW STANTON 3.3 NNW, PA US",
      "datacoverage": 0.7216,
      "id": "GHCND:US1PAWT0037",
      "elevationUnit": "METERS",
      "longitude": -79.643012
    },
    {
      "elevation": 301.8,
      "mindate": "2018-12-12",
      "maxdate": "2024-09-19",
      "latitude": 40.55995,
      "name": "NEW KENSINGTON 3.9 E, PA US",
      "datacoverage": 0.9717,
      "id": "GHCND:US1PAWT0041",
      "elevationUnit": "METERS",
      "longitude": -79.67713
    },
    {
      "elevation": 378,
      "mindate": "2019-06-10",
      "maxdate": "2025-03-06",
      "latitude": 40.243197,
      "name": "LIGONIER 0.1 SE, PA US",
      "datacoverage": 0.9533,
      "id": "GHCND:US1PAWT0042",
      "elevationUnit": "METERS",
      "longitude": -79.235269
    },
    {
      "elevation": 336.2,
      "mindate": "2018-12-04",
      "maxdate": "2021-02-21",
      "latitude": 40.376159,
      "name": "DERRY 5.1 NW, PA US",
      "datacoverage": 0.9819,
      "id": "GHCND:US1PAWT0045",
      "elevationUnit": "METERS",
      "longitude": -79.3796
    },
    {
      "elevation": 348.1,
      "mindate": "2018-12-16",
      "maxdate": "2019-06-10",
      "latitude": 40.24618,
      "name": "LATROBE 5.3 SSW, PA US",
      "datacoverage": 1,
      "id": "GHCND:US1PAWT0048",
      "elevationUnit": "METERS",
      "longitude": -79.434939
    },
    {
      "elevation": 258.8,
      "mindate": "2019-07-14",
      "maxdate": "2021-10-31",
      "latitude": 40.5698,
      "name": "NEW KENSINGTON 0.5 W, PA US",
      "datacoverage": 0.6885,
      "id": "GHCND:US1PAWT0051",
      "elevationUnit": "METERS",
      "longitude": -79.76116
    },
    {
      "elevation": 431.9,
      "mindate": "2020-11-11",
      "maxdate": "2025-03-04",
      "latitude": 40.246834,
      "name": "LIGONIER 1.2 E, PA US",
      "datacoverage": 0.7492,
      "id": "GHCND:US1PAWT0055",
      "elevationUnit": "METERS",
      "longitude": -79.215376
    },
    {
      "elevation": 338.6,
      "mindate": "2021-03-11",
      "maxdate": "2025-03-06",
      "latitude": 40.313851,
      "name": "IRWIN 0.8 S, PA US",
      "datacoverage": 0.8902,
      "id": "GHCND:US1PAWT0056",
      "elevationUnit": "METERS",
      "longitude": -79.700768
    },
    {
      "elevation": 326.1,
      "mindate": "2021-12-01",
      "maxdate": "2025-03-07",
      "latitude": 40.14425,
      "name": "SMITHTON 2.5 WSW, PA US",
      "datacoverage": 0.8389,
      "id": "GHCND:US1PAWT0064",
      "elevationUnit": "METERS",
      "longitude": -79.78668
    },
    {
      "elevation": 276.5,
      "mindate": "2022-03-10",
      "maxdate": "2025-03-05",
      "latitude": 40.196123,
      "name": "WEBSTER 0.9 NNW, PA US",
      "datacoverage": 0.2793,
      "id": "GHCND:US1PAWT0067",
      "elevationUnit": "METERS",
      "longitude": -79.856863
    },
    {
      "elevation": 385.9,
      "mindate": "2020-08-24",
      "maxdate": "2025-03-07",
      "latitude": 40.133612,
      "name": "SMITHTON 3.3 ESE, PA US",
      "datacoverage": 1,
      "id": "GHCND:US1PAWT0069",
      "elevationUnit": "METERS",
      "longitude": -79.68401
    },
    {
      "elevation": 340.5,
      "mindate": "2023-06-23",
      "maxdate": "2025-03-06",
      "latitude": 40.25161,
      "name": "LATROBE 5.4 SW, PA US",
      "datacoverage": 0.9996,
      "id": "GHCND:US1PAWT0071",
      "elevationUnit": "METERS",
      "longitude": -79.44843
    },
    {
      "elevation": 365.2,
      "mindate": "2024-03-26",
      "maxdate": "2025-03-06",
      "latitude": 40.30706,
      "name": "LATROBE 1.8 WSW, PA US",
      "datacoverage": 0.9113,
      "id": "GHCND:US1PAWT0079",
      "elevationUnit": "METERS",
      "longitude": -79.415317
    },
    {
      "elevation": 386.5,
      "mindate": "2024-03-31",
      "maxdate": "2025-03-07",
      "latitude": 40.241,
      "name": "LIGONIER 0.6 ESE, PA US",
      "datacoverage": 0.7748,
      "id": "GHCND:US1PAWT0080",
      "elevationUnit": "METERS",
      "longitude": -79.227
    },
    {
      "elevation": 426.7,
      "mindate": "2004-01-01",
      "maxdate": "2018-10-31",
      "latitude": 41.6,
      "name": "TUNKHANNOCK 4.2 NNW, PA US",
      "datacoverage": 0.9865,
      "id": "GHCND:US1PAWY0001",
      "elevationUnit": "METERS",
      "longitude": -75.966667
    },
    {
      "elevation": 317.9,
      "mindate": "2013-08-01",
      "maxdate": "2021-02-01",
      "latitude": 41.5778,
      "name": "TUNKHANNOCK 4.0 NW, PA US",
      "datacoverage": 1,
      "id": "GHCND:US1PAWY0002",
      "elevationUnit": "METERS",
      "longitude": -76.0096
    },
    {
      "elevation": 135,
      "mindate": "2005-11-01",
      "maxdate": "2025-03-07",
      "latitude": 39.973363,
      "name": "DOVER 4.2 WSW, PA US",
      "datacoverage": 1,
      "id": "GHCND:US1PAYR0002",
      "elevationUnit": "METERS",
      "longitude": -76.917826
    },
    {
      "elevation": 120.1,
      "mindate": "1998-06-01",
      "maxdate": "2025-03-07",
      "latitude": 39.9768,
      "name": "SHILOH, PA US",
      "datacoverage": 0.4627,
      "id": "GHCND:US1PAYR0003",
      "elevationUnit": "METERS",
      "longitude": -76.7845
    },
    {
      "elevation": 125.9,
      "mindate": "2007-05-01",
      "maxdate": "2008-01-20",
      "latitude": 40.157886,
      "name": "GOLDSBORO 0.3 NW, PA US",
      "datacoverage": 0.9925,
      "id": "GHCND:US1PAYR0007",
      "elevationUnit": "METERS",
      "longitude": -76.75518
    },
    {
      "elevation": 121.9,
      "mindate": "2007-06-01",
      "maxdate": "2025-03-06",
      "latitude": 40.16119,
      "name": "VALLEY GREEN 0.8 ENE, PA US",
      "datacoverage": 0.819,
      "id": "GHCND:US1PAYR0008",
      "elevationUnit": "METERS",
      "longitude": -76.7791
    },
    {
      "elevation": 281.9,
      "mindate": "2007-12-01",
      "maxdate": "2008-08-26",
      "latitude": 39.7530218462489,
      "name": "SHREWSBURY 1.3 SSE, PA US",
      "datacoverage": 0.998,
      "id": "GHCND:US1PAYR0010",
      "elevationUnit": "METERS",
      "longitude": -76.6723716259003
    },
    {
      "elevation": 120.7,
      "mindate": "2008-04-01",
      "maxdate": "2010-03-10",
      "latitude": 40.158199,
      "name": "GOLDSBORO 0.4 NW, PA US",
      "datacoverage": 0.6671,
      "id": "GHCND:US1PAYR0011",
      "elevationUnit": "METERS",
      "longitude": -76.755686
    },
    {
      "elevation": 183.2,
      "mindate": "2008-09-01",
      "maxdate": "2014-07-17",
      "latitude": 39.901069,
      "name": "NEW SALEM 0.3 WSW, PA US",
      "datacoverage": 1,
      "id": "GHCND:US1PAYR0012",
      "elevationUnit": "METERS",
      "longitude": -76.798309
    },
    {
      "elevation": 187.8,
      "mindate": "2010-02-01",
      "maxdate": "2016-07-13",
      "latitude": 40.009234,
      "name": "YORK 4.2 NE, PA US",
      "datacoverage": 0.96,
      "id": "GHCND:US1PAYR0015",
      "elevationUnit": "METERS",
      "longitude": -76.678208
    },
    {
      "elevation": 148.4,
      "mindate": "2010-11-01",
      "maxdate": "2012-06-19",
      "latitude": 39.942737,
      "name": "YORK 3.2 WSW, PA US",
      "datacoverage": 1,
      "id": "GHCND:US1PAYR0016",
      "elevationUnit": "METERS",
      "longitude": -76.786136
    },
    {
      "elevation": 126.5,
      "mindate": "2011-05-01",
      "maxdate": "2025-03-07",
      "latitude": 39.9964609,
      "name": "YORK 2.5 NNW, PA US",
      "datacoverage": 0.9993,
      "id": "GHCND:US1PAYR0017",
      "elevationUnit": "METERS",
      "longitude": -76.753305
    },
    {
      "elevation": 239.9,
      "mindate": "2011-09-01",
      "maxdate": "2016-12-09",
      "latitude": 39.776295,
      "name": "GLEN ROCK 2.2 ESE, PA US",
      "datacoverage": 0.9455,
      "id": "GHCND:US1PAYR0019",
      "elevationUnit": "METERS",
      "longitude": -76.695811
    },
    {
      "elevation": 156.7,
      "mindate": "2011-10-01",
      "maxdate": "2025-03-07",
      "latitude": 40.048814,
      "name": "MOUNT WOLF 1.0 SE, PA US",
      "datacoverage": 0.9998,
      "id": "GHCND:US1PAYR0020",
      "elevationUnit": "METERS",
      "longitude": -76.694775
    },
    {
      "elevation": 279.2,
      "mindate": "2012-08-01",
      "maxdate": "2013-05-08",
      "latitude": 39.7465209960938,
      "name": "HANOVER 4.8 SSE, PA US",
      "datacoverage": 1,
      "id": "GHCND:US1PAYR0021",
      "elevationUnit": "METERS",
      "longitude": -76.9528579711914
    },
    {
      "elevation": 138.7,
      "mindate": "2012-08-01",
      "maxdate": "2025-03-06",
      "latitude": 40.002005,
      "name": "DOVER 2.2 E, PA US",
      "datacoverage": 0.5228,
      "id": "GHCND:US1PAYR0024",
      "elevationUnit": "METERS",
      "longitude": -76.808003
    },
    {
      "elevation": 258.5,
      "mindate": "2014-09-01",
      "maxdate": "2017-12-27",
      "latitude": 39.8294486999512,
      "name": "GLEN ROCK 4.1 NE, PA US",
      "datacoverage": 0.9479,
      "id": "GHCND:US1PAYR0025",
      "elevationUnit": "METERS",
      "longitude": -76.6691131591797
    },
    {
      "elevation": 189.9,
      "mindate": "2016-03-23",
      "maxdate": "2025-03-07",
      "latitude": 39.7953910827637,
      "name": "HANOVER 1.3 SSE, PA US",
      "datacoverage": 1,
      "id": "GHCND:US1PAYR0027",
      "elevationUnit": "METERS",
      "longitude": -76.9713287353516
    },
    {
      "elevation": 120.7,
      "mindate": "2016-10-10",
      "maxdate": "2025-02-02",
      "latitude": 40.071288,
      "name": "MANCHESTER 0.7 NNW, PA US",
      "datacoverage": 0.446,
      "id": "GHCND:US1PAYR0031",
      "elevationUnit": "METERS",
      "longitude": -76.723054
    },
    {
      "elevation": 128,
      "mindate": "2018-06-17",
      "maxdate": "2023-01-18",
      "latitude": 40.057395,
      "name": "MANCHESTER 3.6 W, PA US",
      "datacoverage": 0.9991,
      "id": "GHCND:US1PAYR0034",
      "elevationUnit": "METERS",
      "longitude": -76.788603
    },
    {
      "elevation": 182,
      "mindate": "2019-01-01",
      "maxdate": "2025-03-07",
      "latitude": 39.958,
      "name": "YORKANA 1.4 SE, PA US",
      "datacoverage": 0.9455,
      "id": "GHCND:US1PAYR0035",
      "elevationUnit": "METERS",
      "longitude": -76.57
    },
    {
      "elevation": 182,
      "mindate": "2019-10-01",
      "maxdate": "2025-03-07",
      "latitude": 39.913116,
      "name": "EAST BERLIN 3.4 ESE, PA US",
      "datacoverage": 1,
      "id": "GHCND:US1PAYR0037",
      "elevationUnit": "METERS",
      "longitude": -76.92313
    },
    {
      "elevation": 249.9,
      "mindate": "2020-04-20",
      "maxdate": "2025-03-07",
      "latitude": 39.74533,
      "name": "STEWARTSTOWN 0.5 S, PA US",
      "datacoverage": 1,
      "id": "GHCND:US1PAYR0038",
      "elevationUnit": "METERS",
      "longitude": -76.593261
    },
    {
      "elevation": 128,
      "mindate": "2021-05-01",
      "maxdate": "2024-08-10",
      "latitude": 39.9817,
      "name": "YORK 4.3 WNW, PA US",
      "datacoverage": 0.3706,
      "id": "GHCND:US1PAYR0040",
      "elevationUnit": "METERS",
      "longitude": -76.8103
    },
    {
      "elevation": 223.1,
      "mindate": "2021-07-19",
      "maxdate": "2025-03-06",
      "latitude": 40.13667,
      "name": "MECHANICSBURG 6.9 SE, PA US",
      "datacoverage": 0.7747,
      "id": "GHCND:US1PAYR0041",
      "elevationUnit": "METERS",
      "longitude": -76.91833
    },
    {
      "elevation": 165.8,
      "mindate": "2022-07-01",
      "maxdate": "2025-03-06",
      "latitude": 39.8581,
      "name": "SEVEN VALLEYS 1.3 ENE, PA US",
      "datacoverage": 0.9806,
      "id": "GHCND:US1PAYR0044",
      "elevationUnit": "METERS",
      "longitude": -76.7425
    },
    {
      "elevation": 147.2,
      "mindate": "2020-06-19",
      "maxdate": "2025-01-26",
      "latitude": 40.0214232,
      "name": "YORK 4.2 NNW, PA US",
      "datacoverage": 0.332,
      "id": "GHCND:US1PAYR0050",
      "elevationUnit": "METERS",
      "longitude": -76.759825
    },
    {
      "elevation": 130.5,
      "mindate": "2024-04-01",
      "maxdate": "2025-03-07",
      "latitude": 40.1184008,
      "name": "YORK HAVEN 2.3 WNW, PA US",
      "datacoverage": 0.9733,
      "id": "GHCND:US1PAYR0051",
      "elevationUnit": "METERS",
      "longitude": -76.7581079
    },
    {
      "mindate": "2017-07-01",
      "maxdate": "2025-03-07",
      "latitude": 40.19074593,
      "name": "TABLE ROCK 3.76 W, NE US",
      "datacoverage": 0.9986,
      "id": "GHCND:US1Pawn1882",
      "longitude": -96.15789484
    },
    {
      "mindate": "2018-06-08",
      "maxdate": "2019-08-21",
      "latitude": 40.37861755,
      "name": "TECUMSEH 2.25 E, NE US",
      "datacoverage": 0.998,
      "id": "GHCND:US1Pawn4020",
      "longitude": -96.1471887
    },
    {
      "mindate": "2018-06-26",
      "maxdate": "2025-03-06",
      "latitude": 40.23701885,
      "name": "STEINAUER 3.31 ENE, NE US",
      "datacoverage": 0.9993,
      "id": "GHCND:US1Pawn4033",
      "longitude": -96.18378374
    },
    {
      "mindate": "2018-08-03",
      "maxdate": "2025-03-05",
      "latitude": 40.10868749,
      "name": "PAWNEE CITY 0.16 SW, NE US",
      "datacoverage": 0.7246,
      "id": "GHCND:US1Pawn4056",
      "longitude": -96.1546789
    },
    {
      "mindate": "2018-09-09",
      "maxdate": "2025-03-07",
      "latitude": 40.1848019,
      "name": "STEINAUER 3.23 ESE, NE US",
      "datacoverage": 0.9989,
      "id": "GHCND:US1Pawn4071",
      "longitude": -96.17944296
    },
    {
      "mindate": "2018-09-01",
      "maxdate": "2020-08-02",
      "latitude": 40.07357938,
      "name": "DU BOIS 2.76 NNE, NE US",
      "datacoverage": 0.998,
      "id": "GHCND:US1Pawn4074",
      "longitude": -96.03554308
    },
    {
      "mindate": "2017-08-02",
      "maxdate": "2024-10-19",
      "latitude": 40.84984162,
      "name": "ELSIE 0.28 WNW, NE US",
      "datacoverage": 0.0656,
      "id": "GHCND:US1Perk1903",
      "longitude": -101.39319777
    },
    {
      "mindate": "2019-07-25",
      "maxdate": "2024-09-30",
      "latitude": 40.8025,
      "name": "GRANT 5.95 ESE, NE US",
      "datacoverage": 1,
      "id": "GHCND:US1Perk4170",
      "longitude": -101.6273
    },
    {
      "mindate": "2021-03-16",
      "maxdate": "2024-09-30",
      "latitude": 40.88625966,
      "name": "GRANT 1.7 E, NE US",
      "datacoverage": 1,
      "id": "GHCND:US1Perk4337",
      "longitude": -101.80380354
    },
    {
      "mindate": "2021-03-16",
      "maxdate": "2024-09-30",
      "latitude": 40.90777998,
      "name": "GRANT 6.28 WNW, NE US",
      "datacoverage": 1,
      "id": "GHCND:US1Perk4338",
      "longitude": -101.83813125
    },
    {
      "mindate": "2021-03-16",
      "maxdate": "2024-09-30",
      "latitude": 40.86067695,
      "name": "GRANT 2.01 W, NE US",
      "datacoverage": 1,
      "id": "GHCND:US1Perk4339",
      "longitude": -101.84079253
    },
    {
      "mindate": "2021-03-16",
      "maxdate": "2024-09-30",
      "latitude": 40.8374,
      "name": "GRANT 4.19 S, NE US",
      "datacoverage": 1,
      "id": "GHCND:US1Perk4340",
      "longitude": -101.7633
    },
    {
      "mindate": "2021-03-16",
      "maxdate": "2024-09-30",
      "latitude": 40.7839,
      "name": "GRANT 6.39 SSE, NE US",
      "datacoverage": 1,
      "id": "GHCND:US1Perk4341",
      "longitude": -101.7228
    },
    {
      "mindate": "2021-03-25",
      "maxdate": "2024-09-30",
      "latitude": 40.7576,
      "name": "GRANT 6.85 WNW, NE US",
      "datacoverage": 1,
      "id": "GHCND:US1Perk4348",
      "longitude": -101.6848
    },
    {
      "mindate": "2021-03-25",
      "maxdate": "2024-09-30",
      "latitude": 40.77167326,
      "name": "GRANT 6.15 SE, NE US",
      "datacoverage": 1,
      "id": "GHCND:US1Perk4349",
      "longitude": -101.65847368
    },
    {
      "mindate": "2021-03-25",
      "maxdate": "2024-09-30",
      "latitude": 40.80110324,
      "name": "GRANT 3.7 SE, NE US",
      "datacoverage": 1,
      "id": "GHCND:US1Perk4350",
      "longitude": -101.68520392
    },
    {
      "mindate": "2021-09-29",
      "maxdate": "2025-02-19",
      "latitude": 40.99498856,
      "name": "BRULE 6.9 S, NE US",
      "datacoverage": 0.351,
      "id": "GHCND:US1Perk4396",
      "longitude": -101.87998217
    },
    {
      "mindate": "2022-04-30",
      "maxdate": "2022-09-26",
      "latitude": 40.84471862,
      "name": "GRANT 0.12 W, NE US",
      "datacoverage": 0.7067,
      "id": "GHCND:US1Perk5455",
      "longitude": -101.7284853
    },
    {
      "mindate": "2017-05-17",
      "maxdate": "2023-05-12",
      "latitude": 40.43954966,
      "name": "HOLDREGE 0.99 E, NE US",
      "datacoverage": 0.1157,
      "id": "GHCND:US1Phel1798",
      "longitude": -99.3566308
    },
    {
      "mindate": "2017-05-19",
      "maxdate": "2025-03-04",
      "latitude": 40.57022118,
      "name": "AXTELL 7.23 NW, NE US",
      "datacoverage": 0.0755,
      "id": "GHCND:US1Phel1835",
      "longitude": -99.19858217
    },
    {
      "mindate": "2017-06-28",
      "maxdate": "2023-08-02",
      "latitude": 40.42379508,
      "name": "HOLDREGE 3.7 ESE, NE US",
      "datacoverage": 0.9997,
      "id": "GHCND:US1Phel1866",
      "longitude": -99.30829203
    },
    {
      "mindate": "2020-07-23",
      "maxdate": "2024-11-19",
      "latitude": 40.44808405,
      "name": "HOLDREGE 0.61 N, NE US",
      "datacoverage": 0.0917,
      "id": "GHCND:US1Phel4293",
      "longitude": -99.37516237
    },
    {
      "mindate": "2022-04-07",
      "maxdate": "2024-11-19",
      "latitude": 42.27442464,
      "name": "FOSTER 0.09 W, NE US",
      "datacoverage": 0.1545,
      "id": "GHCND:US1Pier4435",
      "longitude": -97.6667448
    },
    {
      "mindate": "2017-09-18",
      "maxdate": "2025-03-02",
      "latitude": 41.4304022,
      "name": "RICHLAND 2.95 W, NE US",
      "datacoverage": 0.7382,
      "id": "GHCND:US1Plat1949",
      "longitude": -97.2710824
    },
    {
      "mindate": "2022-04-22",
      "maxdate": "2024-11-19",
      "latitude": 41.48499983,
      "name": "PLATTE CENTER 3.78 SSE, NE US",
      "datacoverage": 0.998,
      "id": "GHCND:US1Plat5443",
      "longitude": -97.46763383
    },
    {
      "mindate": "2019-07-09",
      "maxdate": "2024-11-13",
      "latitude": 41.1441868,
      "name": "STROMSBURG 2.02 NNE, NE US",
      "datacoverage": 0.1217,
      "id": "GHCND:US1Polk4168",
      "longitude": -97.58083649
    },
    {
      "mindate": "2019-08-01",
      "maxdate": "2024-11-19",
      "latitude": 41.11235969,
      "name": "STROMSBURG 0.5 WSW, NE US",
      "datacoverage": 0.2138,
      "id": "GHCND:US1Polk4178",
      "longitude": -97.59953977
    },
    {
      "elevation": 26.2,
      "mindate": "2008-04-01",
      "maxdate": "2010-04-17",
      "latitude": 41.717398,
      "name": "WARREN 1.0 SE, RI US",
      "datacoverage": 0.998,
      "id": "GHCND:US1RIBR0001",
      "elevationUnit": "METERS",
      "longitude": -71.272836
    },
    {
      "elevation": 6.4,
      "mindate": "2017-04-17",
      "maxdate": "2025-03-06",
      "latitude": 41.74178,
      "name": "BARRINGTON 1.3 WNW, RI US",
      "datacoverage": 0.9209,
      "id": "GHCND:US1RIBR0005",
      "elevationUnit": "METERS",
      "longitude": -71.3419
    },
    {
      "elevation": 11.6,
      "mindate": "2019-04-15",
      "maxdate": "2019-09-22",
      "latitude": 41.72657,
      "name": "BARRINGTON 0.6 S, RI US",
      "datacoverage": 0.9819,
      "id": "GHCND:US1RIBR0007",
      "elevationUnit": "METERS",
      "longitude": -71.31752
    },
    {
      "elevation": 17.7,
      "mindate": "2020-03-19",
      "maxdate": "2025-03-07",
      "latitude": 41.70591,
      "name": "BRISTOL 2.0 NNW, RI US",
      "datacoverage": 0.9251,
      "id": "GHCND:US1RIBR0011",
      "elevationUnit": "METERS",
      "longitude": -71.28509
    },
    {
      "elevation": 3.4,
      "mindate": "2021-03-20",
      "maxdate": "2024-05-06",
      "latitude": 41.749196,
      "name": "BARRINGTON 1.1 NNE, RI US",
      "datacoverage": 1,
      "id": "GHCND:US1RIBR0012",
      "elevationUnit": "METERS",
      "longitude": -71.307857
    },
    {
      "elevation": 8.5,
      "mindate": "2022-09-09",
      "maxdate": "2025-03-07",
      "latitude": 41.7564,
      "name": "BARRINGTON 1.8 NW, RI US",
      "datacoverage": 0.8013,
      "id": "GHCND:US1RIBR0018",
      "elevationUnit": "METERS",
      "longitude": -71.3398
    },
    {
      "elevation": 1.5,
      "mindate": "2023-05-31",
      "maxdate": "2025-02-05",
      "latitude": 41.756138,
      "name": "BARRINGTON 1.6 NNE, RI US",
      "datacoverage": 1,
      "id": "GHCND:US1RIBR0019",
      "elevationUnit": "METERS",
      "longitude": -71.306711
    },
    {
      "elevation": 118,
      "mindate": "2008-04-01",
      "maxdate": "2016-07-08",
      "latitude": 41.673,
      "name": "COVENTRY CENTER, RI US",
      "datacoverage": 0.9995,
      "id": "GHCND:US1RIKN0001",
      "elevationUnit": "METERS",
      "longitude": -71.617
    },
    {
      "elevation": 8.8,
      "mindate": "2008-04-01",
      "maxdate": "2025-03-07",
      "latitude": 41.662511,
      "name": "EAST GREENWICH 2.3 ESE, RI US",
      "datacoverage": 1,
      "id": "GHCND:US1RIKN0002",
      "elevationUnit": "METERS",
      "longitude": -71.415929
    },
    {
      "elevation": 143.3,
      "mindate": "2014-05-01",
      "maxdate": "2014-09-06",
      "latitude": 41.620698,
      "name": "WEST GREENWICH 0.9 SW, RI US",
      "datacoverage": 0.9947,
      "id": "GHCND:US1RIKN0008",
      "elevationUnit": "METERS",
      "longitude": -71.677874
    },
    {
      "elevation": 59.7,
      "mindate": "2016-03-28",
      "maxdate": "2016-12-18",
      "latitude": 41.682,
      "name": "WARWICK 2.4 SW, RI US",
      "datacoverage": 0.9947,
      "id": "GHCND:US1RIKN0009",
      "elevationUnit": "METERS",
      "longitude": -71.4595
    },
    {
      "elevation": 147.5,
      "mindate": "2020-06-25",
      "maxdate": "2025-03-06",
      "latitude": 41.691552,
      "name": "GREENE 1.4 E, RI US",
      "datacoverage": 1,
      "id": "GHCND:US1RIKN0014",
      "elevationUnit": "METERS",
      "longitude": -71.723802
    },
    {
      "elevation": 10.7,
      "mindate": "2017-04-01",
      "maxdate": "2025-01-19",
      "latitude": 41.64464,
      "name": "WARWICK 4.3 SSW, RI US",
      "datacoverage": 0.6425,
      "id": "GHCND:US1RIKN0015",
      "elevationUnit": "METERS",
      "longitude": -71.454787
    },
    {
      "elevation": 66.4,
      "mindate": "2016-06-18",
      "maxdate": "2022-05-25",
      "latitude": 41.649323,
      "name": "EAST GREENWICH 1.2 NNE, RI US",
      "datacoverage": 0.6887,
      "id": "GHCND:US1RIKN0017",
      "elevationUnit": "METERS",
      "longitude": -71.503202
    },
    {
      "elevation": 19.2,
      "mindate": "2018-04-16",
      "maxdate": "2018-10-03",
      "latitude": 41.72218,
      "name": "WARWICK 2.3 NW, RI US",
      "datacoverage": 0.998,
      "id": "GHCND:US1RIKN0018",
      "elevationUnit": "METERS",
      "longitude": -71.45834
    },
    {
      "elevation": 59.4,
      "mindate": "2018-07-18",
      "maxdate": "2018-10-25",
      "latitude": 41.6822,
      "name": "WARWICK 2.4 SW, RI US",
      "datacoverage": 1,
      "id": "GHCND:US1RIKN0019",
      "elevationUnit": "METERS",
      "longitude": -71.4595
    },
    {
      "elevation": 85.3,
      "mindate": "2017-11-18",
      "maxdate": "2025-03-07",
      "latitude": 41.711403,
      "name": "COVENTRY 1.9 NE, RI US",
      "datacoverage": 1,
      "id": "GHCND:US1RIKN0021",
      "elevationUnit": "METERS",
      "longitude": -71.547798
    },
    {
      "elevation": 15.8,
      "mindate": "2019-05-23",
      "maxdate": "2025-03-07",
      "latitude": 41.7475,
      "name": "WARWICK 3.2 NNE, RI US",
      "datacoverage": 0.9705,
      "id": "GHCND:US1RIKN0023",
      "elevationUnit": "METERS",
      "longitude": -71.4088
    },
    {
      "elevation": 77.7,
      "mindate": "2019-07-18",
      "maxdate": "2019-12-01",
      "latitude": 41.664335,
      "name": "COVENTRY 2.7 WSW, RI US",
      "datacoverage": 1,
      "id": "GHCND:US1RIKN0025",
      "elevationUnit": "METERS",
      "longitude": -71.606128
    },
    {
      "elevation": 13.1,
      "mindate": "2020-03-11",
      "maxdate": "2020-11-02",
      "latitude": 41.6791,
      "name": "WARWICK 2.4 SE, RI US",
      "datacoverage": 0.998,
      "id": "GHCND:US1RIKN0027",
      "elevationUnit": "METERS",
      "longitude": -71.3875
    },
    {
      "elevation": 34.7,
      "mindate": "2020-11-12",
      "maxdate": "2025-03-07",
      "latitude": 41.662431,
      "name": "EAST GREENWICH 2.0 NE, RI US",
      "datacoverage": 0.6791,
      "id": "GHCND:US1RIKN0030",
      "elevationUnit": "METERS",
      "longitude": -71.451961
    },
    {
      "elevation": 9.4,
      "mindate": "2020-03-17",
      "maxdate": "2025-03-06",
      "latitude": 41.708237,
      "name": "WARWICK 0.8 ENE, RI US",
      "datacoverage": 0.9991,
      "id": "GHCND:US1RIKN0031",
      "elevationUnit": "METERS",
      "longitude": -71.408372
    },
    {
      "elevation": 105.8,
      "mindate": "2020-11-01",
      "maxdate": "2021-10-27",
      "latitude": 41.652757,
      "name": "WEST WARWICK 4.5 SW, RI US",
      "datacoverage": 0.8202,
      "id": "GHCND:US1RIKN0034",
      "elevationUnit": "METERS",
      "longitude": -71.582115
    }
  ]
}
