{
  "metadata": {
    "resultset": {
      "offset": 17800,
      "count": 154115,
      "limit": 100
    }
  },
  "results": [
    {
      "elevation": 1366.1,
      "mindate": "1931-01-01",
      "maxdate": "1941-04-01",
      "latitude": 41.7,
      "name": "LOGAN SUGAR FACTORY, UT US",
      "datacoverage": 1,
      "id": "COOP:425183",
      "elevationUnit": "METERS",
      "longitude": -111.86667
    },
    {
      "elevation": 1460,
      "mindate": "1893-01-01",
      "maxdate": "2015-11-01",
      "latitude": 41.7456,
      "name": "LOGAN UTAH ST U, UT US",
      "datacoverage": 0.9865,
      "id": "COOP:425186",
      "elevationUnit": "METERS",
      "longitude": -111.8033
    },
    {
      "elevation": 1406,
      "mindate": "1950-09-01",
      "maxdate": "1978-08-01",
      "latitude": 41.76667,
      "name": "LOGAN USU EXPERIMENTAL STATION, UT US",
      "datacoverage": 1,
      "id": "COOP:425190",
      "elevationUnit": "METERS",
      "longitude": -111.81667
    },
    {
      "elevation": 1367.9,
      "mindate": "1969-05-01",
      "maxdate": "2015-11-01",
      "latitude": 41.6661,
      "name": "LOGAN 5 SW EXPERIMENTAL FARM, UT US",
      "datacoverage": 0.9785,
      "id": "COOP:425194",
      "elevationUnit": "METERS",
      "longitude": -111.8913
    },
    {
      "elevation": 1537.1,
      "mindate": "1931-01-01",
      "maxdate": "1957-05-01",
      "latitude": 40.43333,
      "name": "LOWER AMERICAN FORK POWERHOUSE, UT US",
      "datacoverage": 1,
      "id": "COOP:425219",
      "elevationUnit": "METERS",
      "longitude": -111.75
    },
    {
      "elevation": 1513,
      "mindate": "1931-01-01",
      "maxdate": "1953-08-01",
      "latitude": 40.7,
      "name": "LOWER MILL CREEK POW, UT US",
      "datacoverage": 0.9963,
      "id": "COOP:425229",
      "elevationUnit": "METERS",
      "longitude": -111.78333
    },
    {
      "elevation": 1362.2,
      "mindate": "1931-01-01",
      "maxdate": "1990-12-01",
      "latitude": 41.35,
      "name": "LUCIN, UT US",
      "datacoverage": 0.4028,
      "id": "COOP:425239",
      "elevationUnit": "METERS",
      "longitude": -113.9
    },
    {
      "elevation": 1552,
      "mindate": "1950-05-01",
      "maxdate": "1967-11-01",
      "latitude": 38,
      "name": "LUND, UT US",
      "datacoverage": 0.9525,
      "id": "COOP:425247",
      "elevationUnit": "METERS",
      "longitude": -113.43333
    },
    {
      "elevation": 849.5,
      "mindate": "1988-07-01",
      "maxdate": "2015-11-01",
      "latitude": 37.143,
      "name": "LYTLE RANCH, UT US",
      "datacoverage": 0.9392,
      "id": "COOP:425252",
      "elevationUnit": "METERS",
      "longitude": -114.0213
    },
    {
      "elevation": 1965.4,
      "mindate": "1983-05-01",
      "maxdate": "2009-12-01",
      "latitude": 40.5602,
      "name": "MAESER 9 NW, UT US",
      "datacoverage": 0.9998,
      "id": "COOP:425268",
      "elevationUnit": "METERS",
      "longitude": -109.6641
    },
    {
      "elevation": 1314.9,
      "mindate": "1951-01-01",
      "maxdate": "1957-12-01",
      "latitude": 40.7,
      "name": "MAGNA ASARCO FARM, UT US",
      "datacoverage": 0.9999,
      "id": "COOP:425330",
      "elevationUnit": "METERS",
      "longitude": -112.1
    },
    {
      "elevation": 1948.6,
      "mindate": "1931-01-01",
      "maxdate": "2015-11-01",
      "latitude": 40.99,
      "name": "MANILA, UT US",
      "datacoverage": 0.7174,
      "id": "COOP:425377",
      "elevationUnit": "METERS",
      "longitude": -109.7258
    },
    {
      "elevation": 1749.6,
      "mindate": "1931-01-01",
      "maxdate": "2015-11-01",
      "latitude": 39.25826,
      "name": "MANTI, UT US",
      "datacoverage": 0.999,
      "id": "COOP:425402",
      "elevationUnit": "METERS",
      "longitude": -111.6307
    },
    {
      "elevation": 1781.6,
      "mindate": "1948-01-01",
      "maxdate": "2015-11-01",
      "latitude": 38.44923,
      "name": "MARYSVALE, UT US",
      "datacoverage": 0.827,
      "id": "COOP:425477",
      "elevationUnit": "METERS",
      "longitude": -112.22398
    },
    {
      "elevation": 1252.4,
      "mindate": "1946-01-01",
      "maxdate": "2015-11-01",
      "latitude": 37.1497,
      "name": "MEXICAN HAT, UT US",
      "datacoverage": 0.9881,
      "id": "COOP:425582",
      "elevationUnit": "METERS",
      "longitude": -109.8675
    },
    {
      "elevation": 1286.9,
      "mindate": "1968-12-01",
      "maxdate": "1981-09-01",
      "latitude": 41.21667,
      "name": "MIDLAKE, UT US",
      "datacoverage": 0.9741,
      "id": "COOP:425607",
      "elevationUnit": "METERS",
      "longitude": -112.63333
    },
    {
      "elevation": 1324.1,
      "mindate": "1931-01-01",
      "maxdate": "1971-12-01",
      "latitude": 40.6,
      "name": "MIDVALE, UT US",
      "datacoverage": 1,
      "id": "COOP:425610",
      "elevationUnit": "METERS",
      "longitude": -111.91667
    },
    {
      "elevation": 1526.7,
      "mindate": "1948-01-01",
      "maxdate": "2015-11-01",
      "latitude": 38.40168,
      "name": "MILFORD, UT US",
      "datacoverage": 0.9227,
      "id": "COOP:425654",
      "elevationUnit": "METERS",
      "longitude": -113.01624
    },
    {
      "elevation": 1609.3,
      "mindate": "1941-11-01",
      "maxdate": "2012-12-01",
      "latitude": 38.2163,
      "name": "MINERSVILLE, UT US",
      "datacoverage": 0.9824,
      "id": "COOP:425723",
      "elevationUnit": "METERS",
      "longitude": -112.9211
    },
    {
      "elevation": 1235.4,
      "mindate": "1931-01-01",
      "maxdate": "2015-11-01",
      "latitude": 38.57447,
      "name": "MOAB, UT US",
      "datacoverage": 0.9775,
      "id": "COOP:425733",
      "elevationUnit": "METERS",
      "longitude": -109.54583
    },
    {
      "elevation": 1664.2,
      "mindate": "1931-01-01",
      "maxdate": "2004-03-01",
      "latitude": 37.79806,
      "name": "MODENA, UT US",
      "datacoverage": 0.9818,
      "id": "COOP:425752",
      "elevationUnit": "METERS",
      "longitude": -113.92556
    },
    {
      "elevation": 2060.4,
      "mindate": "1946-04-01",
      "maxdate": "1956-12-01",
      "latitude": 37.7158,
      "name": "CEDAR POINT, UT US",
      "datacoverage": 0.9996,
      "id": "COOP:425795",
      "elevationUnit": "METERS",
      "longitude": -109.0827
    },
    {
      "elevation": 2078.7,
      "mindate": "1931-01-01",
      "maxdate": "2010-12-01",
      "latitude": 37.87361,
      "name": "MONTICELLO 2 E, UT US",
      "datacoverage": 0.9896,
      "id": "COOP:425805",
      "elevationUnit": "METERS",
      "longitude": -109.3075
    },
    {
      "elevation": 2159.8,
      "mindate": "2011-01-01",
      "maxdate": "2015-11-01",
      "latitude": 37.8676,
      "name": "MONTICELLO NUMBER 2, UT US",
      "datacoverage": 0.9157,
      "id": "COOP:425807",
      "elevationUnit": "METERS",
      "longitude": -109.3513
    },
    {
      "elevation": 1597.2,
      "mindate": "1956-05-01",
      "maxdate": "1960-02-01",
      "latitude": 37.01667,
      "name": "MONUMENT VALLEY GOUL, UT US",
      "datacoverage": 0.9783,
      "id": "COOP:425810",
      "elevationUnit": "METERS",
      "longitude": -110.2
    },
    {
      "elevation": 1615.4,
      "mindate": "1961-08-01",
      "maxdate": "1990-04-01",
      "latitude": 37.01667,
      "name": "MONUMENT VLY MISSION, UT US",
      "datacoverage": 0.9508,
      "id": "COOP:425812",
      "elevationUnit": "METERS",
      "longitude": -110.21667
    },
    {
      "elevation": 2476.5,
      "mindate": "1935-06-01",
      "maxdate": "2013-12-19",
      "latitude": 40.56173,
      "name": "MOON LAKE, UT US",
      "datacoverage": 0.6951,
      "id": "COOP:425815",
      "elevationUnit": "METERS",
      "longitude": -110.49252
    },
    {
      "elevation": 1546.9,
      "mindate": "1903-01-01",
      "maxdate": "2011-12-01",
      "latitude": 41.03654,
      "name": "MORGAN, UT US",
      "datacoverage": 0.9473,
      "id": "COOP:425826",
      "elevationUnit": "METERS",
      "longitude": -111.6712
    },
    {
      "elevation": 1700.8,
      "mindate": "1931-01-01",
      "maxdate": "2015-11-01",
      "latitude": 39.5266,
      "name": "MORONI, UT US",
      "datacoverage": 0.9431,
      "id": "COOP:425837",
      "elevationUnit": "METERS",
      "longitude": -111.5872
    },
    {
      "elevation": 1652,
      "mindate": "1931-01-01",
      "maxdate": "2015-11-01",
      "latitude": 40.74853,
      "name": "MOUNTAIN DELL DAM, UT US",
      "datacoverage": 0.9254,
      "id": "COOP:425892",
      "elevationUnit": "METERS",
      "longitude": -111.72323
    },
    {
      "elevation": 1955,
      "mindate": "1931-01-01",
      "maxdate": "1953-05-01",
      "latitude": 40.31667,
      "name": "ALTAMONT, UT US",
      "datacoverage": 0.5465,
      "id": "COOP:425921",
      "elevationUnit": "METERS",
      "longitude": -110.26667
    },
    {
      "elevation": 1820.9,
      "mindate": "1949-10-01",
      "maxdate": "1958-12-01",
      "latitude": 40.6,
      "name": "MURDOCK POWERHOUSE, UT US",
      "datacoverage": 0.9999,
      "id": "COOP:425958",
      "elevationUnit": "METERS",
      "longitude": -111.4
    },
    {
      "elevation": 1549.9,
      "mindate": "1931-01-01",
      "maxdate": "2015-11-01",
      "latitude": 40.19404,
      "name": "MYTON, UT US",
      "datacoverage": 0.9628,
      "id": "COOP:425969",
      "elevationUnit": "METERS",
      "longitude": -110.06087
    },
    {
      "elevation": 1626.1,
      "mindate": "1975-08-01",
      "maxdate": "1976-03-01",
      "latitude": 40.23333,
      "name": "MYTON 3 N, UT US",
      "datacoverage": 0.998,
      "id": "COOP:425971",
      "elevationUnit": "METERS",
      "longitude": -110.06667
    },
    {
      "elevation": 1623.1,
      "mindate": "1975-10-01",
      "maxdate": "1976-05-01",
      "latitude": 40.15,
      "name": "MYTON SOUTH BENCH, UT US",
      "datacoverage": 0.998,
      "id": "COOP:425974",
      "elevationUnit": "METERS",
      "longitude": -110.06667
    },
    {
      "elevation": 1542.9,
      "mindate": "1931-01-01",
      "maxdate": "1936-05-01",
      "latitude": 38.15,
      "name": "NADA, UT US",
      "datacoverage": 1,
      "id": "COOP:425982",
      "elevationUnit": "METERS",
      "longitude": -113.25
    },
    {
      "elevation": 1983.6,
      "mindate": "1965-06-01",
      "maxdate": "2015-11-01",
      "latitude": 37.6094,
      "name": "NATURAL BRIDGES N.M., UT US",
      "datacoverage": 0.9967,
      "id": "COOP:426053",
      "elevationUnit": "METERS",
      "longitude": -109.9772
    },
    {
      "elevation": 1836.1,
      "mindate": "1956-12-01",
      "maxdate": "1975-04-01",
      "latitude": 37.01667,
      "name": "NAVAJO MOUNTAIN, UT US",
      "datacoverage": 0.9505,
      "id": "COOP:426076",
      "elevationUnit": "METERS",
      "longitude": -110.8
    },
    {
      "elevation": 1798.3,
      "mindate": "1956-04-01",
      "maxdate": "2015-11-01",
      "latitude": 40.41773,
      "name": "NEOLA, UT US",
      "datacoverage": 0.9665,
      "id": "COOP:426123",
      "elevationUnit": "METERS",
      "longitude": -110.05115
    },
    {
      "elevation": 2110.4,
      "mindate": "1971-12-01",
      "maxdate": "2014-01-01",
      "latitude": 40.53572,
      "name": "NEOLA 8 N, UT US",
      "datacoverage": 0.0155,
      "id": "COOP:426127",
      "elevationUnit": "METERS",
      "longitude": -110.0642
    },
    {
      "elevation": 1568.5,
      "mindate": "1941-10-01",
      "maxdate": "2015-11-01",
      "latitude": 39.71203,
      "name": "NEPHI, UT US",
      "datacoverage": 0.9865,
      "id": "COOP:426135",
      "elevationUnit": "METERS",
      "longitude": -111.83198
    },
    {
      "elevation": 1598.1,
      "mindate": "1931-01-01",
      "maxdate": "1941-09-01",
      "latitude": 39.65,
      "name": "NEPHI 5 SSW, UT US",
      "datacoverage": 1,
      "id": "COOP:426140",
      "elevationUnit": "METERS",
      "longitude": -111.86667
    },
    {
      "elevation": 1574.9,
      "mindate": "1940-10-01",
      "maxdate": "2015-11-01",
      "latitude": 37.4637,
      "name": "NEW HARMONY, UT US",
      "datacoverage": 0.9601,
      "id": "COOP:426181",
      "elevationUnit": "METERS",
      "longitude": -113.2896
    },
    {
      "elevation": 1764.8,
      "mindate": "1963-08-01",
      "maxdate": "1986-05-01",
      "latitude": 39.80823,
      "name": "NUTTER S RANCH, UT US",
      "datacoverage": 0.9854,
      "id": "COOP:426340",
      "elevationUnit": "METERS",
      "longitude": -110.25705
    },
    {
      "elevation": 1575.5,
      "mindate": "1931-01-01",
      "maxdate": "2015-11-01",
      "latitude": 39.37089,
      "name": "OAK CITY, UT US",
      "datacoverage": 0.9941,
      "id": "COOP:426357",
      "elevationUnit": "METERS",
      "longitude": -112.33159
    },
    {
      "elevation": 2014.7,
      "mindate": "1971-02-01",
      "maxdate": "2014-01-01",
      "latitude": 40.73928,
      "name": "OAKLEY 3 NE, UT US",
      "datacoverage": 0.0221,
      "id": "COOP:426374",
      "elevationUnit": "METERS",
      "longitude": -111.24148
    },
    {
      "elevation": 1360,
      "mindate": "1931-01-01",
      "maxdate": "1940-11-01",
      "latitude": 41.2,
      "name": "OGDEN 2, UT US",
      "datacoverage": 1,
      "id": "COOP:426400",
      "elevationUnit": "METERS",
      "longitude": -111.95
    },
    {
      "elevation": 1325.9,
      "mindate": "1902-01-01",
      "maxdate": "2013-12-24",
      "latitude": 41.2439,
      "name": "OGDEN PIONEER PH, UT US",
      "datacoverage": 0.8422,
      "id": "COOP:426404",
      "elevationUnit": "METERS",
      "longitude": -111.9466
    },
    {
      "elevation": 1393.5,
      "mindate": "2010-12-01",
      "maxdate": "2015-11-01",
      "latitude": 41.24596,
      "name": "OGDEN NE BENCH, UT US",
      "datacoverage": 1,
      "id": "COOP:426405",
      "elevationUnit": "METERS",
      "longitude": -111.93726
    },
    {
      "elevation": 1304.5,
      "mindate": "1924-09-01",
      "maxdate": "2014-01-01",
      "latitude": 41.23066,
      "name": "OGDEN SUGAR FACTORY, UT US",
      "datacoverage": 0.9725,
      "id": "COOP:426414",
      "elevationUnit": "METERS",
      "longitude": -112.02797
    },
    {
      "elevation": 1356.1,
      "mindate": "1943-08-01",
      "maxdate": "1952-06-01",
      "latitude": 41.19406,
      "name": "OGDEN HINKLEY AIRPORT, UT US",
      "datacoverage": 1,
      "id": "COOP:426424",
      "elevationUnit": "METERS",
      "longitude": -112.01682
    },
    {
      "elevation": 1472.2,
      "mindate": "1977-02-01",
      "maxdate": "2014-01-01",
      "latitude": 40.31578,
      "name": "OLMSTEAD PH, UT US",
      "datacoverage": 0.9936,
      "id": "COOP:426455",
      "elevationUnit": "METERS",
      "longitude": -111.65416
    },
    {
      "elevation": 1664.2,
      "mindate": "1931-01-01",
      "maxdate": "2013-12-01",
      "latitude": 37.2722,
      "name": "ORDERVILLE, UT US",
      "datacoverage": 0.9859,
      "id": "COOP:426534",
      "elevationUnit": "METERS",
      "longitude": -112.6388
    },
    {
      "elevation": 1374.6,
      "mindate": "1982-08-01",
      "maxdate": "2010-05-01",
      "latitude": 40.2766,
      "name": "OREM TREATMENT PLANT, UT US",
      "datacoverage": 1,
      "id": "COOP:426538",
      "elevationUnit": "METERS",
      "longitude": -111.7369
    },
    {
      "elevation": 1360,
      "mindate": "1931-01-01",
      "maxdate": "1949-04-01",
      "latitude": 40.3,
      "name": "ORRS RANCH, UT US",
      "datacoverage": 0.9729,
      "id": "COOP:426551",
      "elevationUnit": "METERS",
      "longitude": -112.75
    },
    {
      "elevation": 1946.1,
      "mindate": "1975-11-01",
      "maxdate": "1981-07-01",
      "latitude": 38.16667,
      "name": "OTTER CREEK DAM, UT US",
      "datacoverage": 0.868,
      "id": "COOP:426558",
      "elevationUnit": "METERS",
      "longitude": -112.03333
    },
    {
      "elevation": 1421,
      "mindate": "1975-10-01",
      "maxdate": "1976-02-01",
      "latitude": 40.08333,
      "name": "OURAY 1 E, UT US",
      "datacoverage": 1,
      "id": "COOP:426565",
      "elevationUnit": "METERS",
      "longitude": -109.66667
    },
    {
      "elevation": 1424.6,
      "mindate": "1955-08-01",
      "maxdate": "2015-11-01",
      "latitude": 40.1345,
      "name": "OURAY 4 NE, UT US",
      "datacoverage": 0.9889,
      "id": "COOP:426568",
      "elevationUnit": "METERS",
      "longitude": -109.6435
    },
    {
      "elevation": 2016.3,
      "mindate": "1931-01-01",
      "maxdate": "2015-11-01",
      "latitude": 37.82459,
      "name": "PANGUITCH, UT US",
      "datacoverage": 0.9048,
      "id": "COOP:426601",
      "elevationUnit": "METERS",
      "longitude": -112.4308
    },
    {
      "elevation": 1976.6,
      "mindate": "1991-10-01",
      "maxdate": "1992-03-01",
      "latitude": 40.70384,
      "name": "SNYDERVILLE, UT US",
      "datacoverage": 0.998,
      "id": "COOP:426639",
      "elevationUnit": "METERS",
      "longitude": -111.53674
    },
    {
      "elevation": 1349,
      "mindate": "1999-02-01",
      "maxdate": "2015-11-01",
      "latitude": 37.10457,
      "name": "PARIA RANGER STATION, UT US",
      "datacoverage": 0.9656,
      "id": "COOP:426640",
      "elevationUnit": "METERS",
      "longitude": -111.90013
    },
    {
      "elevation": 2103.1,
      "mindate": "1992-09-01",
      "maxdate": "2015-11-01",
      "latitude": 40.6557,
      "name": "PARK CITY, UT US",
      "datacoverage": 0.6596,
      "id": "COOP:426644",
      "elevationUnit": "METERS",
      "longitude": -111.5054
    },
    {
      "elevation": 2100.1,
      "mindate": "1931-01-01",
      "maxdate": "2013-12-23",
      "latitude": 40.6599,
      "name": "PARK CITY G.C., UT US",
      "datacoverage": 0.4711,
      "id": "COOP:426648",
      "elevationUnit": "METERS",
      "longitude": -111.5155
    },
    {
      "elevation": 2055.9,
      "mindate": "1978-10-01",
      "maxdate": "1980-04-01",
      "latitude": 40.68333,
      "name": "PARK CITY MEADOWS, UT US",
      "datacoverage": 1,
      "id": "COOP:426650",
      "elevationUnit": "METERS",
      "longitude": -111.5
    },
    {
      "elevation": 2393.3,
      "mindate": "1980-07-01",
      "maxdate": "1982-04-01",
      "latitude": 40.63333,
      "name": "PARK CTY NORNDA MINE, UT US",
      "datacoverage": 1,
      "id": "COOP:426651",
      "elevationUnit": "METERS",
      "longitude": -111.5
    },
    {
      "elevation": 2827,
      "mindate": "1969-01-01",
      "maxdate": "1978-02-01",
      "latitude": 40.63333,
      "name": "PARK CITY SUMMIT HOU, UT US",
      "datacoverage": 0.9733,
      "id": "COOP:426652",
      "elevationUnit": "METERS",
      "longitude": -111.53333
    },
    {
      "elevation": 1658.1,
      "mindate": "1931-01-01",
      "maxdate": "1990-02-01",
      "latitude": 41.8,
      "name": "PARK VALLEY, UT US",
      "datacoverage": 0.9635,
      "id": "COOP:426658",
      "elevationUnit": "METERS",
      "longitude": -113.35
    },
    {
      "elevation": 1676.1,
      "mindate": "1969-11-01",
      "maxdate": "1982-05-01",
      "latitude": 41.71667,
      "name": "PARK VALLEY MUDDY RANCH, UT US",
      "datacoverage": 0.9605,
      "id": "COOP:426660",
      "elevationUnit": "METERS",
      "longitude": -113.6
    },
    {
      "elevation": 1801.4,
      "mindate": "1931-01-01",
      "maxdate": "2010-12-01",
      "latitude": 37.88307,
      "name": "PARAGONAH, UT US",
      "datacoverage": 0.8885,
      "id": "COOP:426686",
      "elevationUnit": "METERS",
      "longitude": -112.77124
    },
    {
      "elevation": 1456.9,
      "mindate": "1950-04-01",
      "maxdate": "2015-11-01",
      "latitude": 39.6309,
      "name": "PARTOUN, UT US",
      "datacoverage": 0.9911,
      "id": "COOP:426708",
      "elevationUnit": "METERS",
      "longitude": -113.8858
    },
    {
      "elevation": 1411.2,
      "mindate": "1931-01-01",
      "maxdate": "1999-06-01",
      "latitude": 40.03694,
      "name": "PAYSON, UT US",
      "datacoverage": 0.7482,
      "id": "COOP:426724",
      "elevationUnit": "METERS",
      "longitude": -111.74806
    },
    {
      "elevation": 1464,
      "mindate": "1968-01-01",
      "maxdate": "1984-09-01",
      "latitude": 40.03333,
      "name": "PAYSON 1 SE, UT US",
      "datacoverage": 1,
      "id": "COOP:426726",
      "elevationUnit": "METERS",
      "longitude": -111.71667
    },
    {
      "elevation": 1335,
      "mindate": "1987-12-01",
      "maxdate": "2014-01-01",
      "latitude": 41.44932,
      "name": "PERRY, UT US",
      "datacoverage": 0.0151,
      "id": "COOP:426757",
      "elevationUnit": "METERS",
      "longitude": -112.03716
    },
    {
      "elevation": 1505.7,
      "mindate": "1935-01-01",
      "maxdate": "2015-11-01",
      "latitude": 41.25767,
      "name": "PINEVIEW DAM, UT US",
      "datacoverage": 0.9949,
      "id": "COOP:426869",
      "elevationUnit": "METERS",
      "longitude": -111.83772
    },
    {
      "elevation": 1800.1,
      "mindate": "1931-01-01",
      "maxdate": "1971-08-01",
      "latitude": 38.31667,
      "name": "PIUTE DAM, UT US",
      "datacoverage": 0.9713,
      "id": "COOP:426897",
      "elevationUnit": "METERS",
      "longitude": -112.18333
    },
    {
      "elevation": 2104.9,
      "mindate": "1956-01-01",
      "maxdate": "1967-02-01",
      "latitude": 39.53333,
      "name": "PLEASANT CREEK POWER, UT US",
      "datacoverage": 1,
      "id": "COOP:426915",
      "elevationUnit": "METERS",
      "longitude": -111.36667
    },
    {
      "elevation": 1429.5,
      "mindate": "1946-09-01",
      "maxdate": "2015-11-01",
      "latitude": 40.36786,
      "name": "PLEASANT GROVE, UT US",
      "datacoverage": 0.994,
      "id": "COOP:426919",
      "elevationUnit": "METERS",
      "longitude": -111.73447
    },
    {
      "elevation": 1362.5,
      "mindate": "1941-02-01",
      "maxdate": "2015-11-01",
      "latitude": 41.87402,
      "name": "PLYMOUTH, UT US",
      "datacoverage": 0.5234,
      "id": "COOP:426938",
      "elevationUnit": "METERS",
      "longitude": -112.1487
    },
    {
      "elevation": 1702,
      "mindate": "1931-02-01",
      "maxdate": "1968-08-01",
      "latitude": 39.61667,
      "name": "PRICE GAME FARM, UT US",
      "datacoverage": 0.9823,
      "id": "COOP:427015",
      "elevationUnit": "METERS",
      "longitude": -110.83333
    },
    {
      "elevation": 1688.6,
      "mindate": "1968-07-01",
      "maxdate": "2015-11-01",
      "latitude": 39.59912,
      "name": "PRICE BLM, UT US",
      "datacoverage": 0.9578,
      "id": "COOP:427026",
      "elevationUnit": "METERS",
      "longitude": -110.81888
    },
    {
      "elevation": 1284.7,
      "mindate": "1981-10-01",
      "maxdate": "1997-08-01",
      "latitude": 41.25778,
      "name": "PROMONTORY, UT US",
      "datacoverage": 0.7695,
      "id": "COOP:427052",
      "elevationUnit": "METERS",
      "longitude": -112.49222
    },
    {
      "elevation": 1370.7,
      "mindate": "1945-10-01",
      "maxdate": "1953-12-01",
      "latitude": 40.21889,
      "name": "PROVO AIRPORT, UT US",
      "datacoverage": 0.9998,
      "id": "COOP:427061",
      "elevationUnit": "METERS",
      "longitude": -111.72333
    },
    {
      "elevation": 1392.9,
      "mindate": "1980-09-01",
      "maxdate": "2015-11-01",
      "latitude": 40.2458,
      "name": "PROVO BYU, UT US",
      "datacoverage": 1,
      "id": "COOP:427064",
      "elevationUnit": "METERS",
      "longitude": -111.6508
    },
    {
      "elevation": 1363.1,
      "mindate": "1931-01-01",
      "maxdate": "1977-03-01",
      "latitude": 40.21667,
      "name": "PROVO RADIO KAYK, UT US",
      "datacoverage": 0.8448,
      "id": "COOP:427068",
      "elevationUnit": "METERS",
      "longitude": -111.66667
    },
    {
      "elevation": 1917.2,
      "mindate": "1982-07-01",
      "maxdate": "2015-11-01",
      "latitude": 41.66077,
      "name": "RANDOLPH, UT US",
      "datacoverage": 0.9127,
      "id": "COOP:427165",
      "elevationUnit": "METERS",
      "longitude": -111.1869
    },
    {
      "elevation": 2199.1,
      "mindate": "1967-05-01",
      "maxdate": "1969-07-29",
      "latitude": 40.81667,
      "name": "RED BUTTE 6, UT US",
      "datacoverage": 0.0264,
      "id": "COOP:427210",
      "elevationUnit": "METERS",
      "longitude": -111.75
    },
    {
      "elevation": 1434.1,
      "mindate": "1968-12-01",
      "maxdate": "1970-11-01",
      "latitude": 40.3,
      "name": "DUGWAY 7 N ORR RANCH, UT US",
      "datacoverage": 0.9164,
      "id": "COOP:427220",
      "elevationUnit": "METERS",
      "longitude": -112.73333
    },
    {
      "elevation": 1610.9,
      "mindate": "1931-01-01",
      "maxdate": "2015-11-01",
      "latitude": 38.76165,
      "name": "RICHFIELD RADIO KSVC, UT US",
      "datacoverage": 0.9882,
      "id": "COOP:427260",
      "elevationUnit": "METERS",
      "longitude": -112.07772
    },
    {
      "elevation": 1426.5,
      "mindate": "1911-10-01",
      "maxdate": "2015-11-01",
      "latitude": 41.9063,
      "name": "RICHMOND, UT US",
      "datacoverage": 0.9952,
      "id": "COOP:427271",
      "elevationUnit": "METERS",
      "longitude": -111.81
    },
    {
      "elevation": 1341.1,
      "mindate": "1914-02-01",
      "maxdate": "1991-02-01",
      "latitude": 41.15,
      "name": "RIVERDALE, UT US",
      "datacoverage": 0.9969,
      "id": "COOP:427318",
      "elevationUnit": "METERS",
      "longitude": -112
    },
    {
      "elevation": 1421,
      "mindate": "1965-07-01",
      "maxdate": "1968-09-20",
      "latitude": 40.51667,
      "name": "RIVERTON, UT US",
      "datacoverage": 0.9997,
      "id": "COOP:427343",
      "elevationUnit": "METERS",
      "longitude": -111.98333
    },
    {
      "elevation": 1528,
      "mindate": "1939-12-01",
      "maxdate": "2015-11-01",
      "latitude": 40.28748,
      "name": "ROOSEVELT RADIO, UT US",
      "datacoverage": 0.9792,
      "id": "COOP:427395",
      "elevationUnit": "METERS",
      "longitude": -109.95896
    },
    {
      "elevation": 1735.8,
      "mindate": "1990-07-01",
      "maxdate": "2015-11-01",
      "latitude": 41.82019,
      "name": "ROSETTE, UT US",
      "datacoverage": 0.9803,
      "id": "COOP:427408",
      "elevationUnit": "METERS",
      "longitude": -113.41428
    },
    {
      "elevation": 1283.2,
      "mindate": "1985-01-01",
      "maxdate": "1986-05-01",
      "latitude": 40.8,
      "name": "ROWLEY PUMP STATION, UT US",
      "datacoverage": 1,
      "id": "COOP:427421",
      "elevationUnit": "METERS",
      "longitude": -112.61667
    },
    {
      "elevation": 1286.3,
      "mindate": "1986-09-01",
      "maxdate": "1986-12-01",
      "latitude": 40.8,
      "name": "ROWLEY CANAL STATION, UT US",
      "datacoverage": 0.998,
      "id": "COOP:427430",
      "elevationUnit": "METERS",
      "longitude": -112.61667
    },
    {
      "elevation": 882.7,
      "mindate": "1948-07-01",
      "maxdate": "1954-12-01",
      "latitude": 37.05,
      "name": "ST GEORGE INTERMEDIATE FIELD, UT US",
      "datacoverage": 0.9996,
      "id": "COOP:427510",
      "elevationUnit": "METERS",
      "longitude": -113.51667
    },
    {
      "elevation": 870.8,
      "mindate": "1931-01-01",
      "maxdate": "2015-11-01",
      "latitude": 37.119,
      "name": "ST. GEORGE, UT US",
      "datacoverage": 0.9578,
      "id": "COOP:427516",
      "elevationUnit": "METERS",
      "longitude": -113.6068
    },
    {
      "elevation": 1561.5,
      "mindate": "1931-01-01",
      "maxdate": "2010-12-01",
      "latitude": 38.9594,
      "name": "SALINA, UT US",
      "datacoverage": 0.8281,
      "id": "COOP:427557",
      "elevationUnit": "METERS",
      "longitude": -111.8547
    },
    {
      "elevation": 2304.3,
      "mindate": "1986-07-01",
      "maxdate": "2015-11-01",
      "latitude": 38.91289,
      "name": "SALINA 24 E, UT US",
      "datacoverage": 0.9886,
      "id": "COOP:427559",
      "elevationUnit": "METERS",
      "longitude": -111.41647
    },
    {
      "elevation": 1289.9,
      "mindate": "1966-06-01",
      "maxdate": "1968-12-01",
      "latitude": 41.21667,
      "name": "SALINE, UT US",
      "datacoverage": 0.7408,
      "id": "COOP:427565",
      "elevationUnit": "METERS",
      "longitude": -112.48333
    }
  ]
}
