{
  "metadata": {
    "resultset": {
      "offset": 63800,
      "count": 154115,
      "limit": 100
    }
  },
  "results": [
    {
      "elevation": 1250,
      "mindate": "1964-12-01",
      "maxdate": "1994-12-31",
      "latitude": 16.6833,
      "name": "ALTAMIRANO CFE, MX",
      "datacoverage": 0.9003,
      "id": "GHCND:MXN00007179",
      "elevationUnit": "METERS",
      "longitude": -92
    },
    {
      "elevation": 639.8,
      "mindate": "1970-01-01",
      "maxdate": "2011-08-31",
      "latitude": 15.8667,
      "name": "JALTENANGO CFE, MX",
      "datacoverage": 0.9565,
      "id": "GHCND:MXN00007180",
      "elevationUnit": "METERS",
      "longitude": -92.7167
    },
    {
      "elevation": 549.9,
      "mindate": "1972-01-01",
      "maxdate": "1999-12-31",
      "latitude": 16.0333,
      "name": "BENITO JUAREZ CFE, MX",
      "datacoverage": 0.7054,
      "id": "GHCND:MXN00007183",
      "elevationUnit": "METERS",
      "longitude": -92.8167
    },
    {
      "elevation": 79.9,
      "mindate": "1945-07-01",
      "maxdate": "1979-10-31",
      "latitude": 15.3167,
      "name": "ESCUINTLA SMN, MX",
      "datacoverage": 0.8431,
      "id": "GHCND:MXN00007185",
      "elevationUnit": "METERS",
      "longitude": -92.6667
    },
    {
      "elevation": 679.7,
      "mindate": "1944-05-01",
      "maxdate": "2013-03-31",
      "latitude": 17.35,
      "name": "FINCA EL ESCALON, MX",
      "datacoverage": 1,
      "id": "GHCND:MXN00007186",
      "elevationUnit": "METERS",
      "longitude": -92.8333
    },
    {
      "elevation": 1059.8,
      "mindate": "1961-01-01",
      "maxdate": "2009-05-31",
      "latitude": 15.1,
      "name": "FINCA LA PATRIA, MX",
      "datacoverage": 0.3219,
      "id": "GHCND:MXN00007187",
      "elevationUnit": "METERS",
      "longitude": -92.2167
    },
    {
      "elevation": 1119.8,
      "mindate": "1961-05-01",
      "maxdate": "1999-12-31",
      "latitude": 16.8,
      "name": "IXTAPA CFE, MX",
      "datacoverage": 0.9827,
      "id": "GHCND:MXN00007188",
      "elevationUnit": "METERS",
      "longitude": -92.9
    },
    {
      "elevation": 539.8,
      "mindate": "1961-01-01",
      "maxdate": "1973-09-30",
      "latitude": 16.0833,
      "name": "LA CONCORDIA SMN, MX",
      "datacoverage": 0.7518,
      "id": "GHCND:MXN00007189",
      "elevationUnit": "METERS",
      "longitude": -92.6333
    },
    {
      "elevation": 977.8,
      "mindate": "1964-05-01",
      "maxdate": "1989-02-28",
      "latitude": 16.9,
      "name": "OCOSINGO CFE, MX",
      "datacoverage": 0.9693,
      "id": "GHCND:MXN00007192",
      "elevationUnit": "METERS",
      "longitude": -92.1
    },
    {
      "elevation": 50,
      "mindate": "1983-10-01",
      "maxdate": "2007-09-30",
      "latitude": 17.5,
      "name": "PICHUCALCO DGE, MX",
      "datacoverage": 0.7847,
      "id": "GHCND:MXN00007193",
      "elevationUnit": "METERS",
      "longitude": -93.1167
    },
    {
      "elevation": 1339.9,
      "mindate": "1972-01-01",
      "maxdate": "1981-11-30",
      "latitude": 17.2,
      "name": "RAYON CFE, MX",
      "datacoverage": 1,
      "id": "GHCND:MXN00007194",
      "elevationUnit": "METERS",
      "longitude": -93
    },
    {
      "elevation": 299.9,
      "mindate": "1972-01-01",
      "maxdate": "1999-12-31",
      "latitude": 17.2833,
      "name": "SABANILLA CFE, MX",
      "datacoverage": 0.9196,
      "id": "GHCND:MXN00007195",
      "elevationUnit": "METERS",
      "longitude": -92.55
    },
    {
      "elevation": 123.7,
      "mindate": "1945-08-14",
      "maxdate": "1969-09-30",
      "latitude": 17.55,
      "name": "SALTO DE AGUA SMN, MX",
      "datacoverage": 0.848,
      "id": "GHCND:MXN00007196",
      "elevationUnit": "METERS",
      "longitude": -92.3333
    },
    {
      "elevation": 659.9,
      "mindate": "1926-09-01",
      "maxdate": "1970-12-31",
      "latitude": 17.1333,
      "name": "SIMOJOVEL SMN, MX",
      "datacoverage": 0.7448,
      "id": "GHCND:MXN00007198",
      "elevationUnit": "METERS",
      "longitude": -92.7167
    },
    {
      "elevation": 79.9,
      "mindate": "1966-09-01",
      "maxdate": "1984-09-30",
      "latitude": 14.8333,
      "name": "TANQUE REGULADOR CFE, MX",
      "datacoverage": 0.9867,
      "id": "GHCND:MXN00007199",
      "elevationUnit": "METERS",
      "longitude": -92.2833
    },
    {
      "elevation": 169.8,
      "mindate": "1952-01-01",
      "maxdate": "2008-09-30",
      "latitude": 14.9,
      "name": "TAPACHULA DGE, MX",
      "datacoverage": 0.9835,
      "id": "GHCND:MXN00007200",
      "elevationUnit": "METERS",
      "longitude": -92.25
    },
    {
      "elevation": 50,
      "mindate": "1922-01-01",
      "maxdate": "2001-09-30",
      "latitude": 16.0833,
      "name": "TONALA SMN, MX",
      "datacoverage": 0.633,
      "id": "GHCND:MXN00007201",
      "elevationUnit": "METERS",
      "longitude": -93.7333
    },
    {
      "elevation": 542.8,
      "mindate": "1951-01-01",
      "maxdate": "2010-11-30",
      "latitude": 16.75,
      "name": "TUXTLA GUTIERREZ DGE, MX",
      "datacoverage": 0.9557,
      "id": "GHCND:MXN00007202",
      "elevationUnit": "METERS",
      "longitude": -93.1167
    },
    {
      "elevation": 789.7,
      "mindate": "1944-03-01",
      "maxdate": "2006-10-31",
      "latitude": 16.3333,
      "name": "VENUSTIANO CARRANZA, MX",
      "datacoverage": 0.8655,
      "id": "GHCND:MXN00007203",
      "elevationUnit": "METERS",
      "longitude": -92.55
    },
    {
      "elevation": 1629.8,
      "mindate": "1961-01-01",
      "maxdate": "2013-05-31",
      "latitude": 16.25,
      "name": "COMITAN DGE, MX",
      "datacoverage": 0.9878,
      "id": "GHCND:MXN00007205",
      "elevationUnit": "METERS",
      "longitude": -92.1333
    },
    {
      "elevation": 4.9,
      "mindate": "1972-10-01",
      "maxdate": "1979-06-30",
      "latitude": 15.85,
      "name": "BOCA DEL CIELO, MX",
      "datacoverage": 0.9995,
      "id": "GHCND:MXN00007206",
      "elevationUnit": "METERS",
      "longitude": -93.6667
    },
    {
      "elevation": 1999.8,
      "mindate": "1972-11-07",
      "maxdate": "2013-06-30",
      "latitude": 16.8833,
      "name": "LARRAINZAR, MX",
      "datacoverage": 0.9406,
      "id": "GHCND:MXN00007207",
      "elevationUnit": "METERS",
      "longitude": -92.7
    },
    {
      "elevation": 71.9,
      "mindate": "1963-06-19",
      "maxdate": "2011-08-31",
      "latitude": 15.5,
      "name": "NOVILLERO, MX",
      "datacoverage": 0.7462,
      "id": "GHCND:MXN00007208",
      "elevationUnit": "METERS",
      "longitude": -92.9333
    },
    {
      "elevation": 1239.9,
      "mindate": "1964-09-09",
      "maxdate": "1969-06-30",
      "latitude": 17.0333,
      "name": "AGUA VERDE, MX",
      "datacoverage": 1,
      "id": "GHCND:MXN00007209",
      "elevationUnit": "METERS",
      "longitude": -91.8667
    },
    {
      "elevation": 260,
      "mindate": "1961-01-01",
      "maxdate": "1968-08-28",
      "latitude": 17.2667,
      "name": "FINCA AGUA AZUL CFE, MX",
      "datacoverage": 0.9892,
      "id": "GHCND:MXN00007210",
      "elevationUnit": "METERS",
      "longitude": -92.1333
    },
    {
      "elevation": 549.9,
      "mindate": "1961-09-01",
      "maxdate": "1969-10-31",
      "latitude": 16.0667,
      "name": "LA MESILLA CFE, MX",
      "datacoverage": 0.9591,
      "id": "GHCND:MXN00007211",
      "elevationUnit": "METERS",
      "longitude": -92.6167
    },
    {
      "elevation": 2299.7,
      "mindate": "1966-12-15",
      "maxdate": "1969-02-28",
      "latitude": 16.7833,
      "name": "ZINACANTAN, MX",
      "datacoverage": 1,
      "id": "GHCND:MXN00007212",
      "elevationUnit": "METERS",
      "longitude": -92.6667
    },
    {
      "elevation": 19.8,
      "mindate": "1973-05-25",
      "maxdate": "1990-12-31",
      "latitude": 17.7,
      "name": "BAJADA GRANDE, MX",
      "datacoverage": 0.9995,
      "id": "GHCND:MXN00007216",
      "elevationUnit": "METERS",
      "longitude": -92.25
    },
    {
      "elevation": 164.9,
      "mindate": "1973-06-01",
      "maxdate": "2006-12-31",
      "latitude": 17.4167,
      "name": "SOLOSUCHIAPA, MX",
      "datacoverage": 0.5999,
      "id": "GHCND:MXN00007217",
      "elevationUnit": "METERS",
      "longitude": -93.0167
    },
    {
      "elevation": 794.9,
      "mindate": "1973-09-01",
      "maxdate": "1978-01-31",
      "latitude": 16.35,
      "name": "E.T.A. 012 VENUSTIANO CARRANZ, MX",
      "datacoverage": 0.9739,
      "id": "GHCND:MXN00007218",
      "elevationUnit": "METERS",
      "longitude": -92.55
    },
    {
      "elevation": 539.8,
      "mindate": "1956-09-01",
      "maxdate": "1987-11-30",
      "latitude": 16.6667,
      "name": "JIQUIPILAS, MX",
      "datacoverage": 0.32,
      "id": "GHCND:MXN00007219",
      "elevationUnit": "METERS",
      "longitude": -93.65
    },
    {
      "elevation": 19.8,
      "mindate": "1973-10-01",
      "maxdate": "1982-11-30",
      "latitude": 17.6,
      "name": "E.T.A. 259 SALTO DE AGUA, MX",
      "datacoverage": 0.9986,
      "id": "GHCND:MXN00007220",
      "elevationUnit": "METERS",
      "longitude": -92.3667
    },
    {
      "elevation": 479.8,
      "mindate": "1974-10-07",
      "maxdate": "1983-08-31",
      "latitude": 16.6333,
      "name": "SAN LUIS, MX",
      "datacoverage": 0.383,
      "id": "GHCND:MXN00007223",
      "elevationUnit": "METERS",
      "longitude": -93.0667
    },
    {
      "elevation": 549.9,
      "mindate": "1975-06-16",
      "maxdate": "2007-11-30",
      "latitude": 15.75,
      "name": "CHICOMUSELO, MX",
      "datacoverage": 0.8822,
      "id": "GHCND:MXN00007224",
      "elevationUnit": "METERS",
      "longitude": -92.2667
    },
    {
      "elevation": 699.8,
      "mindate": "1975-06-01",
      "maxdate": "2008-12-31",
      "latitude": 15.9,
      "name": "REFORMA II, MX",
      "datacoverage": 0.9498,
      "id": "GHCND:MXN00007226",
      "elevationUnit": "METERS",
      "longitude": -92.9333
    },
    {
      "elevation": 19.8,
      "mindate": "1975-11-10",
      "maxdate": "2007-03-31",
      "latitude": 15.8667,
      "name": "TRES PICOS, MX",
      "datacoverage": 0.7773,
      "id": "GHCND:MXN00007228",
      "elevationUnit": "METERS",
      "longitude": -93.5333
    },
    {
      "elevation": 499.9,
      "mindate": "1976-09-01",
      "maxdate": "1996-05-31",
      "latitude": 16.45,
      "name": "SANTO DOMINGO CFE, MX",
      "datacoverage": 0.9832,
      "id": "GHCND:MXN00007229",
      "elevationUnit": "METERS",
      "longitude": -93.05
    },
    {
      "elevation": 599.8,
      "mindate": "1976-07-01",
      "maxdate": "1999-12-31",
      "latitude": 15.7,
      "name": "SAN MIGUEL CFE, MX",
      "datacoverage": 0.9396,
      "id": "GHCND:MXN00007230",
      "elevationUnit": "METERS",
      "longitude": -92.2
    },
    {
      "elevation": 1474.9,
      "mindate": "1977-08-01",
      "maxdate": "1999-03-31",
      "latitude": 16.0833,
      "name": "TZISCAO CFE, MX",
      "datacoverage": 0.9035,
      "id": "GHCND:MXN00007231",
      "elevationUnit": "METERS",
      "longitude": -91.6667
    },
    {
      "elevation": 679.7,
      "mindate": "1977-02-19",
      "maxdate": "1988-12-31",
      "latitude": 16.3833,
      "name": "TILTEPEC, MX",
      "datacoverage": 0.5217,
      "id": "GHCND:MXN00007233",
      "elevationUnit": "METERS",
      "longitude": -93.8667
    },
    {
      "elevation": 41.8,
      "mindate": "1977-06-01",
      "maxdate": "1980-07-31",
      "latitude": 15.0333,
      "name": "C.ARROYOE. LAS PALMAS, MX",
      "datacoverage": 0.7105,
      "id": "GHCND:MXN00007234",
      "elevationUnit": "METERS",
      "longitude": -92.4
    },
    {
      "elevation": 539.8,
      "mindate": "1977-03-01",
      "maxdate": "2006-11-30",
      "latitude": 16.15,
      "name": "REVOLUCION MEXICANA, MX",
      "datacoverage": 0.8952,
      "id": "GHCND:MXN00007236",
      "elevationUnit": "METERS",
      "longitude": -93.0667
    },
    {
      "elevation": 611.7,
      "mindate": "1977-09-01",
      "maxdate": "1995-03-23",
      "latitude": 16.05,
      "name": "GUERRERO, MX",
      "datacoverage": 0.986,
      "id": "GHCND:MXN00007237",
      "elevationUnit": "METERS",
      "longitude": -92.9833
    },
    {
      "elevation": 497.7,
      "mindate": "2005-01-01",
      "maxdate": "2011-08-31",
      "latitude": 16.75,
      "name": "EL SABINAL, MX",
      "datacoverage": 0.8233,
      "id": "GHCND:MXN00007238",
      "elevationUnit": "METERS",
      "longitude": -93.0833
    },
    {
      "elevation": 419.7,
      "mindate": "1991-01-01",
      "maxdate": "1996-12-31",
      "latitude": 16.65,
      "name": "VILLA DE ACALA CFE, MX",
      "datacoverage": 1,
      "id": "GHCND:MXN00007239",
      "elevationUnit": "METERS",
      "longitude": -92.95
    },
    {
      "elevation": 290.8,
      "mindate": "1977-05-13",
      "maxdate": "1999-12-31",
      "latitude": 17.2333,
      "name": "PASO DEL CAYUCO CFE, MX",
      "datacoverage": 0.8711,
      "id": "GHCND:MXN00007315",
      "elevationUnit": "METERS",
      "longitude": -92.1167
    },
    {
      "elevation": 549.9,
      "mindate": "1980-01-01",
      "maxdate": "1990-11-30",
      "latitude": 16.0833,
      "name": "EL AMBAR DE ECHEVERRIA, MX",
      "datacoverage": 0.9102,
      "id": "GHCND:MXN00007316",
      "elevationUnit": "METERS",
      "longitude": -92.8333
    },
    {
      "elevation": 29.9,
      "mindate": "1978-05-01",
      "maxdate": "1983-12-31",
      "latitude": 16.2,
      "name": "LA GLORIA, MX",
      "datacoverage": 0.9266,
      "id": "GHCND:MXN00007318",
      "elevationUnit": "METERS",
      "longitude": -93.9333
    },
    {
      "elevation": 949.8,
      "mindate": "1978-08-01",
      "maxdate": "2013-03-31",
      "latitude": 16.8667,
      "name": "SAN FERNANDO, MX",
      "datacoverage": 0.8285,
      "id": "GHCND:MXN00007319",
      "elevationUnit": "METERS",
      "longitude": -93.2167
    },
    {
      "elevation": 7.9,
      "mindate": "1978-01-01",
      "maxdate": "2012-06-30",
      "latitude": 15.1333,
      "name": "SALVACION, MX",
      "datacoverage": 0.9357,
      "id": "GHCND:MXN00007320",
      "elevationUnit": "METERS",
      "longitude": -92.7
    },
    {
      "elevation": 824.8,
      "mindate": "1978-04-01",
      "maxdate": "1986-07-31",
      "latitude": 16.9333,
      "name": "CHACTE CFE, MX",
      "datacoverage": 1,
      "id": "GHCND:MXN00007324",
      "elevationUnit": "METERS",
      "longitude": -92.3333
    },
    {
      "elevation": 2450,
      "mindate": "1979-09-01",
      "maxdate": "1982-12-31",
      "latitude": 16.7833,
      "name": "LAS OLLAS, MX",
      "datacoverage": 1,
      "id": "GHCND:MXN00007325",
      "elevationUnit": "METERS",
      "longitude": -92.55
    },
    {
      "elevation": 14.9,
      "mindate": "1980-02-01",
      "maxdate": "2013-03-31",
      "latitude": 14.8833,
      "name": "MAZATAN, MX",
      "datacoverage": 0.9607,
      "id": "GHCND:MXN00007326",
      "elevationUnit": "METERS",
      "longitude": -92.45
    },
    {
      "elevation": 699.8,
      "mindate": "1980-05-01",
      "maxdate": "2013-03-31",
      "latitude": 16.2667,
      "name": "URSULO GALVAN, MX",
      "datacoverage": 0.9762,
      "id": "GHCND:MXN00007327",
      "elevationUnit": "METERS",
      "longitude": -93.4167
    },
    {
      "elevation": 25,
      "mindate": "1980-03-01",
      "maxdate": "1982-06-30",
      "latitude": 15.3167,
      "name": "PROVIDENCIA, MX",
      "datacoverage": 1,
      "id": "GHCND:MXN00007328",
      "elevationUnit": "METERS",
      "longitude": -92.7667
    },
    {
      "elevation": 649.8,
      "mindate": "1980-02-13",
      "maxdate": "2011-09-30",
      "latitude": 16.3,
      "name": "CASCAJAL, MX",
      "datacoverage": 0.952,
      "id": "GHCND:MXN00007329",
      "elevationUnit": "METERS",
      "longitude": -92.4833
    },
    {
      "elevation": 831.8,
      "mindate": "1980-05-01",
      "maxdate": "2013-04-30",
      "latitude": 16.2833,
      "name": "SOYATITAN, MX",
      "datacoverage": 0.9379,
      "id": "GHCND:MXN00007330",
      "elevationUnit": "METERS",
      "longitude": -92.4167
    },
    {
      "elevation": 1300,
      "mindate": "1980-01-01",
      "maxdate": "2013-05-30",
      "latitude": 16.3667,
      "name": "VILLA LAS ROSAS, MX",
      "datacoverage": 0.9139,
      "id": "GHCND:MXN00007331",
      "elevationUnit": "METERS",
      "longitude": -92.3667
    },
    {
      "elevation": 670,
      "mindate": "1980-05-01",
      "maxdate": "2013-04-30",
      "latitude": 16.4167,
      "name": "CRISTOBAL OBREGON, MX",
      "datacoverage": 0.7991,
      "id": "GHCND:MXN00007332",
      "elevationUnit": "METERS",
      "longitude": -93.4333
    },
    {
      "elevation": 1820,
      "mindate": "1980-04-10",
      "maxdate": "2013-05-31",
      "latitude": 15.3167,
      "name": "BUENOS AIRES, MX",
      "datacoverage": 0.9329,
      "id": "GHCND:MXN00007333",
      "elevationUnit": "METERS",
      "longitude": -92.2667
    },
    {
      "elevation": 25,
      "mindate": "1980-02-01",
      "maxdate": "2010-09-30",
      "latitude": 15.4167,
      "name": "FRANCISCO SARABIA, MX",
      "datacoverage": 0.8178,
      "id": "GHCND:MXN00007334",
      "elevationUnit": "METERS",
      "longitude": -92.9833
    },
    {
      "elevation": 664.8,
      "mindate": "1980-04-10",
      "maxdate": "2013-02-28",
      "latitude": 15.8333,
      "name": "QUERETARO, MX",
      "datacoverage": 0.8686,
      "id": "GHCND:MXN00007335",
      "elevationUnit": "METERS",
      "longitude": -92.75
    },
    {
      "elevation": 18,
      "mindate": "1980-03-01",
      "maxdate": "2013-03-31",
      "latitude": 14.95,
      "name": "PLAN DE IGUALA, MX",
      "datacoverage": 0.9466,
      "id": "GHCND:MXN00007336",
      "elevationUnit": "METERS",
      "longitude": -92.5
    },
    {
      "elevation": 119.8,
      "mindate": "1980-06-01",
      "maxdate": "1999-12-31",
      "latitude": 16.5667,
      "name": "LACANTUN CFE, MX",
      "datacoverage": 0.9319,
      "id": "GHCND:MXN00007337",
      "elevationUnit": "METERS",
      "longitude": -90.7
    },
    {
      "elevation": 2846.8,
      "mindate": "1980-04-01",
      "maxdate": "2012-09-30",
      "latitude": 15.45,
      "name": "EL PORVENIR, MX",
      "datacoverage": 0.8678,
      "id": "GHCND:MXN00007339",
      "elevationUnit": "METERS",
      "longitude": -92.2667
    },
    {
      "elevation": 579.7,
      "mindate": "1980-06-01",
      "maxdate": "2013-03-31",
      "latitude": 16.0667,
      "name": "BENITO JUAREZ, MX",
      "datacoverage": 0.9129,
      "id": "GHCND:MXN00007342",
      "elevationUnit": "METERS",
      "longitude": -92.8333
    },
    {
      "elevation": 1049.7,
      "mindate": "1980-07-01",
      "maxdate": "2013-03-31",
      "latitude": 16.75,
      "name": "CUAUHTEMOC, MX",
      "datacoverage": 0.8618,
      "id": "GHCND:MXN00007343",
      "elevationUnit": "METERS",
      "longitude": -92.9167
    },
    {
      "elevation": 8.8,
      "mindate": "1982-01-01",
      "maxdate": "2012-06-30",
      "latitude": 15.3333,
      "name": "EJIDO IBARRA, MX",
      "datacoverage": 0.8882,
      "id": "GHCND:MXN00007344",
      "elevationUnit": "METERS",
      "longitude": -92.95
    },
    {
      "elevation": 540.7,
      "mindate": "1981-01-01",
      "maxdate": "1988-12-31",
      "latitude": 15.9667,
      "name": "FINCA NUEVA LINDA, MX",
      "datacoverage": 1,
      "id": "GHCND:MXN00007346",
      "elevationUnit": "METERS",
      "longitude": -92.4833
    },
    {
      "elevation": 129.8,
      "mindate": "1982-01-01",
      "maxdate": "2005-11-30",
      "latitude": 15.5,
      "name": "GUADALUPE VICTORIA, MX",
      "datacoverage": 0.8203,
      "id": "GHCND:MXN00007347",
      "elevationUnit": "METERS",
      "longitude": -92.8667
    },
    {
      "elevation": 111.9,
      "mindate": "1981-05-01",
      "maxdate": "2013-05-30",
      "latitude": 15.3333,
      "name": "INDEPENDENCIA, MX",
      "datacoverage": 0.8542,
      "id": "GHCND:MXN00007348",
      "elevationUnit": "METERS",
      "longitude": -92.5667
    },
    {
      "elevation": 699.8,
      "mindate": "1980-05-01",
      "maxdate": "2013-06-30",
      "latitude": 16.05,
      "name": "MONTERREY, MX",
      "datacoverage": 0.9258,
      "id": "GHCND:MXN00007349",
      "elevationUnit": "METERS",
      "longitude": -93.3667
    },
    {
      "elevation": 1344.8,
      "mindate": "1961-01-01",
      "maxdate": "1988-12-31",
      "latitude": 15.3667,
      "name": "MOTOZINTLA DGE, MX",
      "datacoverage": 0.8977,
      "id": "GHCND:MXN00007350",
      "elevationUnit": "METERS",
      "longitude": -92.25
    },
    {
      "elevation": 677.9,
      "mindate": "1980-06-01",
      "maxdate": "1988-12-31",
      "latitude": 15.8333,
      "name": "EL PARRAL, MX",
      "datacoverage": 0.5824,
      "id": "GHCND:MXN00007351",
      "elevationUnit": "METERS",
      "longitude": -92.75
    },
    {
      "elevation": 47.9,
      "mindate": "1982-01-01",
      "maxdate": "1996-12-31",
      "latitude": 15.7333,
      "name": "SAN DIEGO, MX",
      "datacoverage": 0.9836,
      "id": "GHCND:MXN00007352",
      "elevationUnit": "METERS",
      "longitude": -93.3
    },
    {
      "elevation": 1051.9,
      "mindate": "1981-05-01",
      "maxdate": "1988-12-31",
      "latitude": 16.7833,
      "name": "SAN JOSE, MX",
      "datacoverage": 0.379,
      "id": "GHCND:MXN00007353",
      "elevationUnit": "METERS",
      "longitude": -93.3333
    },
    {
      "elevation": 1689.8,
      "mindate": "1982-01-01",
      "maxdate": "2013-03-31",
      "latitude": 17.0667,
      "name": "UNION ZARAGOZA, MX",
      "datacoverage": 0.9841,
      "id": "GHCND:MXN00007355",
      "elevationUnit": "METERS",
      "longitude": -92.85
    },
    {
      "elevation": 917.8,
      "mindate": "1982-01-01",
      "maxdate": "1988-12-31",
      "latitude": 17.0333,
      "name": "BACHAJON, MX",
      "datacoverage": 0.5166,
      "id": "GHCND:MXN00007356",
      "elevationUnit": "METERS",
      "longitude": -92.1833
    },
    {
      "elevation": 481.9,
      "mindate": "1982-05-01",
      "maxdate": "2012-11-30",
      "latitude": 16.3833,
      "name": "FLORES MAGON, MX",
      "datacoverage": 0.9318,
      "id": "GHCND:MXN00007358",
      "elevationUnit": "METERS",
      "longitude": -92.6833
    },
    {
      "elevation": 924.8,
      "mindate": "1982-02-22",
      "maxdate": "2004-06-30",
      "latitude": 16.5667,
      "name": "GALEANA, MX",
      "datacoverage": 0.9818,
      "id": "GHCND:MXN00007359",
      "elevationUnit": "METERS",
      "longitude": -93.3667
    },
    {
      "elevation": 299.9,
      "mindate": "1982-01-01",
      "maxdate": "2013-03-31",
      "latitude": 17.1333,
      "name": "LUIS ESPINOSA, MX",
      "datacoverage": 0.9559,
      "id": "GHCND:MXN00007360",
      "elevationUnit": "METERS",
      "longitude": -93.4167
    },
    {
      "elevation": 659.9,
      "mindate": "1982-01-01",
      "maxdate": "2006-08-31",
      "latitude": 15.6833,
      "name": "PASO HONDO, MX",
      "datacoverage": 0.9088,
      "id": "GHCND:MXN00007361",
      "elevationUnit": "METERS",
      "longitude": -92
    },
    {
      "elevation": 720.9,
      "mindate": "1982-03-01",
      "maxdate": "2013-03-30",
      "latitude": 16.4667,
      "name": "ROSENDO SALAZAR, MX",
      "datacoverage": 0.9645,
      "id": "GHCND:MXN00007362",
      "elevationUnit": "METERS",
      "longitude": -94
    },
    {
      "elevation": 525.8,
      "mindate": "1982-03-01",
      "maxdate": "1999-02-28",
      "latitude": 17,
      "name": "LA SELVA, MX",
      "datacoverage": 0.9306,
      "id": "GHCND:MXN00007363",
      "elevationUnit": "METERS",
      "longitude": -93.4667
    },
    {
      "elevation": 1460,
      "mindate": "1983-03-01",
      "maxdate": "2013-03-31",
      "latitude": 17.2167,
      "name": "OCOTEPEC, MX",
      "datacoverage": 0.9104,
      "id": "GHCND:MXN00007365",
      "elevationUnit": "METERS",
      "longitude": -93.1667
    },
    {
      "elevation": 260,
      "mindate": "1981-02-01",
      "maxdate": "1999-12-31",
      "latitude": 16.95,
      "name": "GRIJALVA CFE, MX",
      "datacoverage": 0.9086,
      "id": "GHCND:MXN00007366",
      "elevationUnit": "METERS",
      "longitude": -93.1167
    },
    {
      "elevation": 236.8,
      "mindate": "1987-01-01",
      "maxdate": "1998-05-31",
      "latitude": 17.4167,
      "name": "SAYULA CFE, MX",
      "datacoverage": 0.9638,
      "id": "GHCND:MXN00007367",
      "elevationUnit": "METERS",
      "longitude": -93.3833
    },
    {
      "elevation": 97.8,
      "mindate": "1986-11-01",
      "maxdate": "2000-12-31",
      "latitude": 17.2167,
      "name": "TORTUGUERO CFE, MX",
      "datacoverage": 0.8999,
      "id": "GHCND:MXN00007368",
      "elevationUnit": "METERS",
      "longitude": -93.5667
    },
    {
      "elevation": 739.7,
      "mindate": "1988-05-01",
      "maxdate": "1996-11-30",
      "latitude": 17.25,
      "name": "TZINBAC CFE, MX",
      "datacoverage": 0.9901,
      "id": "GHCND:MXN00007369",
      "elevationUnit": "METERS",
      "longitude": -93.25
    },
    {
      "elevation": 4,
      "mindate": "1984-07-01",
      "maxdate": "2012-06-30",
      "latitude": 14.8667,
      "name": "ADOLFO RUIZ CORTINEZ, MX",
      "datacoverage": 0.8824,
      "id": "GHCND:MXN00007370",
      "elevationUnit": "METERS",
      "longitude": -92.5333
    },
    {
      "elevation": 889.7,
      "mindate": "1988-09-01",
      "maxdate": "2012-08-31",
      "latitude": 16.7833,
      "name": "BERRIOZABAL, MX",
      "datacoverage": 0.9618,
      "id": "GHCND:MXN00007372",
      "elevationUnit": "METERS",
      "longitude": -93.25
    },
    {
      "elevation": 2569.8,
      "mindate": "1987-01-01",
      "maxdate": "2013-05-31",
      "latitude": 16.8333,
      "name": "TZONTEHUITZ, MX",
      "datacoverage": 0.7224,
      "id": "GHCND:MXN00007373",
      "elevationUnit": "METERS",
      "longitude": -92.5667
    },
    {
      "elevation": 1499.9,
      "mindate": "1987-06-16",
      "maxdate": "2013-05-31",
      "latitude": 16.15,
      "name": "LA ESPERANZA, MX",
      "datacoverage": 0.8111,
      "id": "GHCND:MXN00007374",
      "elevationUnit": "METERS",
      "longitude": -91.8667
    },
    {
      "elevation": 735.8,
      "mindate": "1988-11-01",
      "maxdate": "2013-03-31",
      "latitude": 16.8,
      "name": "FRANCISCO I. MADERO, MX",
      "datacoverage": 0.8843,
      "id": "GHCND:MXN00007376",
      "elevationUnit": "METERS",
      "longitude": -93.75
    },
    {
      "elevation": 9.8,
      "mindate": "2000-01-01",
      "maxdate": "2012-06-30",
      "latitude": 15.5,
      "name": "LAS BRISAS, MX",
      "datacoverage": 0.9868,
      "id": "GHCND:MXN00007380",
      "elevationUnit": "METERS",
      "longitude": -93.1167
    },
    {
      "elevation": 703.8,
      "mindate": "1984-10-01",
      "maxdate": "2013-04-30",
      "latitude": 16.4833,
      "name": "NUEVA PALESTINA, MX",
      "datacoverage": 0.8278,
      "id": "GHCND:MXN00007383",
      "elevationUnit": "METERS",
      "longitude": -93.6167
    },
    {
      "elevation": 325.8,
      "mindate": "2000-01-01",
      "maxdate": "2013-03-30",
      "latitude": 16.8833,
      "name": "PUEBLO VIEJO, MX",
      "datacoverage": 0.975,
      "id": "GHCND:MXN00007385",
      "elevationUnit": "METERS",
      "longitude": -93.8833
    },
    {
      "elevation": 44.8,
      "mindate": "2000-01-01",
      "maxdate": "2012-06-30",
      "latitude": 15.7333,
      "name": "SAN ISIDRO, MX",
      "datacoverage": 0.8975,
      "id": "GHCND:MXN00007386",
      "elevationUnit": "METERS",
      "longitude": -93.35
    },
    {
      "elevation": 615.7,
      "mindate": "2000-01-01",
      "maxdate": "2013-03-31",
      "latitude": 16.5667,
      "name": "SANTA LUCIA, MX",
      "datacoverage": 0.9223,
      "id": "GHCND:MXN00007388",
      "elevationUnit": "METERS",
      "longitude": -93.5833
    },
    {
      "elevation": 1099.7,
      "mindate": "1984-06-01",
      "maxdate": "2013-05-31",
      "latitude": 17.0167,
      "name": "SITALA, MX",
      "datacoverage": 0.9576,
      "id": "GHCND:MXN00007389",
      "elevationUnit": "METERS",
      "longitude": -92.3
    }
  ]
}
