{
  "metadata": {
    "resultset": {
      "offset": 81000,
      "count": 154115,
      "limit": 100
    }
  },
  "results": [
    {
      "elevation": 1979.7,
      "mindate": "2019-04-01",
      "maxdate": "2021-12-11",
      "latitude": 39.46571,
      "name": "CASTLE PINES 2.6 NNE, CO US",
      "datacoverage": 0.7112,
      "id": "GHCND:US1CODG0298",
      "elevationUnit": "METERS",
      "longitude": -104.88794
    },
    {
      "elevation": 1893.7,
      "mindate": "2019-05-07",
      "maxdate": "2021-08-07",
      "latitude": 39.499041,
      "name": "PARKER 2.8 ESE, CO US",
      "datacoverage": 0.3167,
      "id": "GHCND:US1CODG0300",
      "elevationUnit": "METERS",
      "longitude": -104.713358
    },
    {
      "elevation": 2018.4,
      "mindate": "2019-02-26",
      "maxdate": "2020-09-10",
      "latitude": 39.285005,
      "name": "CASTLE ROCK 7.8 SSE, CO US",
      "datacoverage": 0.9819,
      "id": "GHCND:US1CODG0301",
      "elevationUnit": "METERS",
      "longitude": -104.770657
    },
    {
      "elevation": 1790.7,
      "mindate": "2019-07-09",
      "maxdate": "2020-09-01",
      "latitude": 39.54966,
      "name": "HIGHLANDS RANCH 3.0 E, CO US",
      "datacoverage": 0.2755,
      "id": "GHCND:US1CODG0302",
      "elevationUnit": "METERS",
      "longitude": -104.91328
    },
    {
      "elevation": 1967.2,
      "mindate": "2019-10-19",
      "maxdate": "2022-08-17",
      "latitude": 39.365608,
      "name": "FRANKTOWN 2.3 ESE, CO US",
      "datacoverage": 0.2009,
      "id": "GHCND:US1CODG0305",
      "elevationUnit": "METERS",
      "longitude": -104.710908
    },
    {
      "elevation": 1875.7,
      "mindate": "2019-10-07",
      "maxdate": "2025-03-06",
      "latitude": 39.383771,
      "name": "CASTLE ROCK 0.8 WNW, CO US",
      "datacoverage": 1,
      "id": "GHCND:US1CODG0307",
      "elevationUnit": "METERS",
      "longitude": -104.86479
    },
    {
      "elevation": 1944.3,
      "mindate": "2020-04-12",
      "maxdate": "2024-10-19",
      "latitude": 39.41078,
      "name": "CASTLE ROCK 2.2 N, CO US",
      "datacoverage": 0.7762,
      "id": "GHCND:US1CODG0312",
      "elevationUnit": "METERS",
      "longitude": -104.851925
    },
    {
      "elevation": 1949.5,
      "mindate": "2019-05-20",
      "maxdate": "2025-03-07",
      "latitude": 39.484011,
      "name": "CASTLE PINES 3.7 N, CO US",
      "datacoverage": 0.6154,
      "id": "GHCND:US1CODG0313",
      "elevationUnit": "METERS",
      "longitude": -104.89998
    },
    {
      "elevation": 2000.1,
      "mindate": "2020-06-14",
      "maxdate": "2025-03-07",
      "latitude": 39.375007,
      "name": "CASTLE ROCK 1.7 E, CO US",
      "datacoverage": 0.8831,
      "id": "GHCND:US1CODG0314",
      "elevationUnit": "METERS",
      "longitude": -104.820541
    },
    {
      "elevation": 2097.9,
      "mindate": "2019-10-29",
      "maxdate": "2025-03-07",
      "latitude": 39.249146,
      "name": "PERRY PARK 3.7 ESE, CO US",
      "datacoverage": 0.6275,
      "id": "GHCND:US1CODG0315",
      "elevationUnit": "METERS",
      "longitude": -104.914796
    },
    {
      "elevation": 2034.5,
      "mindate": "2020-08-05",
      "maxdate": "2023-06-23",
      "latitude": 39.363525,
      "name": "FRANKTOWN 3.6 ESE, CO US",
      "datacoverage": 0.1996,
      "id": "GHCND:US1CODG0317",
      "elevationUnit": "METERS",
      "longitude": -104.685908
    },
    {
      "elevation": 1820,
      "mindate": "2021-02-04",
      "maxdate": "2025-02-21",
      "latitude": 39.51644,
      "name": "PARKER 2.1 WNW, CO US",
      "datacoverage": 0.1386,
      "id": "GHCND:US1CODG0319",
      "elevationUnit": "METERS",
      "longitude": -104.8025
    },
    {
      "elevation": 2001.9,
      "mindate": "2021-03-01",
      "maxdate": "2023-01-11",
      "latitude": 39.3111,
      "name": "CASTLE ROCK 4.7 S, CO US",
      "datacoverage": 0.8936,
      "id": "GHCND:US1CODG0321",
      "elevationUnit": "METERS",
      "longitude": -104.8618
    },
    {
      "elevation": 1992.2,
      "mindate": "2021-04-23",
      "maxdate": "2023-08-03",
      "latitude": 39.324001,
      "name": "CASTLE ROCK 3.9 SSE, CO US",
      "datacoverage": 0.2761,
      "id": "GHCND:US1CODG0322",
      "elevationUnit": "METERS",
      "longitude": -104.835759
    },
    {
      "elevation": 1987,
      "mindate": "2021-07-31",
      "maxdate": "2023-05-12",
      "latitude": 39.251644,
      "name": "LARKSPUR 6.8 NW, CO US",
      "datacoverage": 0.4267,
      "id": "GHCND:US1CODG0324",
      "elevationUnit": "METERS",
      "longitude": -104.984497
    },
    {
      "elevation": 1789.2,
      "mindate": "2021-09-29",
      "maxdate": "2023-12-11",
      "latitude": 39.55006,
      "name": "HIGHLANDS RANCH 3.0 E, CO US",
      "datacoverage": 0.9819,
      "id": "GHCND:US1CODG0325",
      "elevationUnit": "METERS",
      "longitude": -104.91258
    },
    {
      "elevation": 1829.1,
      "mindate": "2021-11-15",
      "maxdate": "2023-07-23",
      "latitude": 39.444933,
      "name": "THE PINERY 1.6 WSW, CO US",
      "datacoverage": 1,
      "id": "GHCND:US1CODG0327",
      "elevationUnit": "METERS",
      "longitude": -104.761785
    },
    {
      "elevation": 1848,
      "mindate": "2022-01-23",
      "maxdate": "2025-03-07",
      "latitude": 39.4265,
      "name": "CASTLE ROCK 4.1 NW, CO US",
      "datacoverage": 1,
      "id": "GHCND:US1CODG0329",
      "elevationUnit": "METERS",
      "longitude": -104.8959
    },
    {
      "elevation": 1803.5,
      "mindate": "2014-06-27",
      "maxdate": "2025-03-07",
      "latitude": 39.53135,
      "name": "HIGHLANDS RANCH 2.7 SE, CO US",
      "datacoverage": 0.875,
      "id": "GHCND:US1CODG0331",
      "elevationUnit": "METERS",
      "longitude": -104.928094
    },
    {
      "elevation": 1951,
      "mindate": "2022-06-16",
      "maxdate": "2025-03-07",
      "latitude": 39.45215,
      "name": "CASTLE PINES 2.8 ENE, CO US",
      "datacoverage": 0.9277,
      "id": "GHCND:US1CODG0334",
      "elevationUnit": "METERS",
      "longitude": -104.8555
    },
    {
      "elevation": 1781.3,
      "mindate": "2022-08-08",
      "maxdate": "2023-09-15",
      "latitude": 39.5531749149926,
      "name": "HIGHLANDS RANCH 1.3 E, CO US",
      "datacoverage": 1,
      "id": "GHCND:US1CODG0335",
      "elevationUnit": "METERS",
      "longitude": -104.945156083777
    },
    {
      "elevation": 1834.6,
      "mindate": "2022-06-30",
      "maxdate": "2025-03-07",
      "latitude": 39.5287,
      "name": "LONE TREE 0.6 SSE, CO US",
      "datacoverage": 0.9593,
      "id": "GHCND:US1CODG0336",
      "elevationUnit": "METERS",
      "longitude": -104.8796
    },
    {
      "elevation": 1842.2,
      "mindate": "2022-12-29",
      "maxdate": "2025-03-04",
      "latitude": 39.518826,
      "name": "HIGHLANDS RANCH 2.4 S, CO US",
      "datacoverage": 0.1518,
      "id": "GHCND:US1CODG0342",
      "elevationUnit": "METERS",
      "longitude": -104.969135
    },
    {
      "elevation": 1832.2,
      "mindate": "2023-05-08",
      "maxdate": "2024-08-15",
      "latitude": 39.481632,
      "name": "PARKER 2.3 SSW, CO US",
      "datacoverage": 0.4635,
      "id": "GHCND:US1CODG0344",
      "elevationUnit": "METERS",
      "longitude": -104.785654
    },
    {
      "elevation": 1921.2,
      "mindate": "2023-03-19",
      "maxdate": "2025-03-06",
      "latitude": 39.3907,
      "name": "CASTLE ROCK 0.8 N, CO US",
      "datacoverage": 1,
      "id": "GHCND:US1CODG0347",
      "elevationUnit": "METERS",
      "longitude": -104.8494
    },
    {
      "elevation": 1961.4,
      "mindate": "2023-04-09",
      "maxdate": "2024-06-21",
      "latitude": 39.38326,
      "name": "SEDALIA 4.1 SW, CO US",
      "datacoverage": 1,
      "id": "GHCND:US1CODG0348",
      "elevationUnit": "METERS",
      "longitude": -105.01765
    },
    {
      "elevation": 2056.5,
      "mindate": "2023-04-16",
      "maxdate": "2025-03-07",
      "latitude": 39.275957,
      "name": "CASTLE ROCK 8.6 SSE, CO US",
      "datacoverage": 1,
      "id": "GHCND:US1CODG0349",
      "elevationUnit": "METERS",
      "longitude": -104.762375
    },
    {
      "elevation": 2032.1,
      "mindate": "2023-05-01",
      "maxdate": "2024-06-11",
      "latitude": 39.35716,
      "name": "CASTLE ROCK 2.6 SE, CO US",
      "datacoverage": 1,
      "id": "GHCND:US1CODG0350",
      "elevationUnit": "METERS",
      "longitude": -104.8107
    },
    {
      "elevation": 1748.6,
      "mindate": "2023-05-01",
      "maxdate": "2025-03-04",
      "latitude": 39.5549,
      "name": "HIGHLANDS RANCH 0.2 ENE, CO US",
      "datacoverage": 0.5968,
      "id": "GHCND:US1CODG0351",
      "elevationUnit": "METERS",
      "longitude": -104.9656
    },
    {
      "elevation": 2008,
      "mindate": "2022-04-21",
      "maxdate": "2024-05-22",
      "latitude": 39.366569,
      "name": "CASTLEWOOD CANYON 2.2 NW, CO US",
      "datacoverage": 0.998,
      "id": "GHCND:US1CODG0354",
      "elevationUnit": "METERS",
      "longitude": -104.795284
    },
    {
      "elevation": 1752.6,
      "mindate": "2024-02-01",
      "maxdate": "2025-03-07",
      "latitude": 39.524026,
      "name": "HIGHLANDS RANCH 3.2 SW, CO US",
      "datacoverage": 1,
      "id": "GHCND:US1CODG0361",
      "elevationUnit": "METERS",
      "longitude": -105.013439
    },
    {
      "elevation": 1798,
      "mindate": "2024-03-29",
      "maxdate": "2025-03-06",
      "latitude": 39.550478,
      "name": "HIGHLANDS RANCH 3.3 E, CO US",
      "datacoverage": 0.9009,
      "id": "GHCND:US1CODG0363",
      "elevationUnit": "METERS",
      "longitude": -104.9075
    },
    {
      "elevation": 1759.9,
      "mindate": "2002-03-01",
      "maxdate": "2019-09-11",
      "latitude": 38.8232,
      "name": "HOTCHKISS 1.8 NNE, CO US",
      "datacoverage": 1,
      "id": "GHCND:US1CODL0001",
      "elevationUnit": "METERS",
      "longitude": -107.706
    },
    {
      "elevation": 1538,
      "mindate": "2004-02-01",
      "maxdate": "2011-05-12",
      "latitude": 38.7527,
      "name": "DELTA 2.3 ENE, CO US",
      "datacoverage": 0.9892,
      "id": "GHCND:US1CODL0002",
      "elevationUnit": "METERS",
      "longitude": -108.0281
    },
    {
      "elevation": 1897.1,
      "mindate": "2004-03-01",
      "maxdate": "2015-07-08",
      "latitude": 38.8511,
      "name": "HOTCHKISS 9.0 WNW, CO US",
      "datacoverage": 1,
      "id": "GHCND:US1CODL0008",
      "elevationUnit": "METERS",
      "longitude": -107.8753
    },
    {
      "elevation": 1756.9,
      "mindate": "2004-06-01",
      "maxdate": "2006-03-23",
      "latitude": 38.8661,
      "name": "PAONIA .55 ESE, CO US",
      "datacoverage": 1,
      "id": "GHCND:US1CODL0009",
      "elevationUnit": "METERS",
      "longitude": -107.5821
    },
    {
      "elevation": 1798,
      "mindate": "2004-11-01",
      "maxdate": "2007-02-24",
      "latitude": 38.8708,
      "name": "ECKERT 2.2 NNE, CO US",
      "datacoverage": 0.9668,
      "id": "GHCND:US1CODL0010",
      "elevationUnit": "METERS",
      "longitude": -107.9418
    },
    {
      "elevation": 1592,
      "mindate": "2005-01-01",
      "maxdate": "2016-08-13",
      "latitude": 38.6853,
      "name": "DELTA 3.9 S, CO US",
      "datacoverage": 0.9316,
      "id": "GHCND:US1CODL0011",
      "elevationUnit": "METERS",
      "longitude": -108.0743
    },
    {
      "elevation": 2030.9,
      "mindate": "2005-12-01",
      "maxdate": "2006-04-24",
      "latitude": 38.94331,
      "name": "CEDAREDGE 4.3 NW, CO US",
      "datacoverage": 1,
      "id": "GHCND:US1CODL0012",
      "elevationUnit": "METERS",
      "longitude": -107.98313
    },
    {
      "elevation": 1929.1,
      "mindate": "2005-12-01",
      "maxdate": "2013-12-03",
      "latitude": 38.88094,
      "name": "CEDAREDGE 4.0 ESE, CO US",
      "datacoverage": 0.9998,
      "id": "GHCND:US1CODL0013",
      "elevationUnit": "METERS",
      "longitude": -107.85612
    },
    {
      "elevation": 1577,
      "mindate": "2005-12-01",
      "maxdate": "2011-04-24",
      "latitude": 38.72977,
      "name": "DELTA 5.7 E, CO US",
      "datacoverage": 1,
      "id": "GHCND:US1CODL0015",
      "elevationUnit": "METERS",
      "longitude": -107.97015
    },
    {
      "elevation": 1757.8,
      "mindate": "2006-03-01",
      "maxdate": "2025-03-07",
      "latitude": 38.8183144,
      "name": "HOTCHKISS 4.7 W, CO US",
      "datacoverage": 0.9997,
      "id": "GHCND:US1CODL0016",
      "elevationUnit": "METERS",
      "longitude": -107.8031512
    },
    {
      "elevation": 1730,
      "mindate": "2006-09-01",
      "maxdate": "2016-10-25",
      "latitude": 38.870247,
      "name": "PAONIA 0.4 W, CO US",
      "datacoverage": 0.6573,
      "id": "GHCND:US1CODL0017",
      "elevationUnit": "METERS",
      "longitude": -107.597791
    },
    {
      "elevation": 1811.1,
      "mindate": "2009-05-01",
      "maxdate": "2024-11-26",
      "latitude": 38.8938277,
      "name": "CEDAREDGE 2.3 W, CO US",
      "datacoverage": 0.6201,
      "id": "GHCND:US1CODL0021",
      "elevationUnit": "METERS",
      "longitude": -107.9679829
    },
    {
      "elevation": 1923.6,
      "mindate": "2009-06-01",
      "maxdate": "2025-02-14",
      "latitude": 38.8394,
      "name": "HOTCHKISS 5.1 WNW, CO US",
      "datacoverage": 1,
      "id": "GHCND:US1CODL0022",
      "elevationUnit": "METERS",
      "longitude": -107.7985
    },
    {
      "elevation": 1671.8,
      "mindate": "2009-11-01",
      "maxdate": "2017-09-16",
      "latitude": 38.831869,
      "name": "ECKERT 1.1 SW, CO US",
      "datacoverage": 1,
      "id": "GHCND:US1CODL0023",
      "elevationUnit": "METERS",
      "longitude": -107.966959
    },
    {
      "elevation": 1859.3,
      "mindate": "2010-05-01",
      "maxdate": "2023-11-22",
      "latitude": 38.842058,
      "name": "PAONIA 2.1 SSE, CO US",
      "datacoverage": 0.9996,
      "id": "GHCND:US1CODL0025",
      "elevationUnit": "METERS",
      "longitude": -107.574818
    },
    {
      "elevation": 2011.7,
      "mindate": "2010-08-01",
      "maxdate": "2025-03-07",
      "latitude": 38.85778,
      "name": "HOTCHKISS 7.1 WNW, CO US",
      "datacoverage": 0.9999,
      "id": "GHCND:US1CODL0026",
      "elevationUnit": "METERS",
      "longitude": -107.82831
    },
    {
      "elevation": 1554.2,
      "mindate": "2011-04-01",
      "maxdate": "2013-05-03",
      "latitude": 38.75722222,
      "name": "DELTA 5.6 E, CO US",
      "datacoverage": 0.9993,
      "id": "GHCND:US1CODL0028",
      "elevationUnit": "METERS",
      "longitude": -107.9713889
    },
    {
      "elevation": 1817.2,
      "mindate": "2012-05-01",
      "maxdate": "2016-02-19",
      "latitude": 38.885637,
      "name": "PAONIA 1.3 NNW, CO US",
      "datacoverage": 1,
      "id": "GHCND:US1CODL0030",
      "elevationUnit": "METERS",
      "longitude": -107.601283
    },
    {
      "elevation": 1689.5,
      "mindate": "2012-07-01",
      "maxdate": "2015-07-08",
      "latitude": 38.8455810546875,
      "name": "ECKERT 1.4 W, CO US",
      "datacoverage": 1,
      "id": "GHCND:US1CODL0031",
      "elevationUnit": "METERS",
      "longitude": -107.97647857666
    },
    {
      "elevation": 1712.1,
      "mindate": "2012-09-01",
      "maxdate": "2015-11-04",
      "latitude": 38.808475,
      "name": "PAONIA 5.7 SW, CO US",
      "datacoverage": 0.4363,
      "id": "GHCND:US1CODL0032",
      "elevationUnit": "METERS",
      "longitude": -107.660975
    },
    {
      "elevation": 1752.6,
      "mindate": "2012-09-01",
      "maxdate": "2014-06-20",
      "latitude": 38.8407592773438,
      "name": "PAONIA 2.3 SSW, CO US",
      "datacoverage": 0.8202,
      "id": "GHCND:US1CODL0033",
      "elevationUnit": "METERS",
      "longitude": -107.610275268555
    },
    {
      "elevation": 2055.6,
      "mindate": "2012-09-01",
      "maxdate": "2021-12-28",
      "latitude": 38.679347,
      "name": "CRAWFORD 2.3 SW, CO US",
      "datacoverage": 0.8212,
      "id": "GHCND:US1CODL0036",
      "elevationUnit": "METERS",
      "longitude": -107.636853
    },
    {
      "elevation": 1937,
      "mindate": "2013-09-01",
      "maxdate": "2021-10-13",
      "latitude": 38.9075050354004,
      "name": "CEDAREDGE 1.0 NE, CO US",
      "datacoverage": 1,
      "id": "GHCND:US1CODL0040",
      "elevationUnit": "METERS",
      "longitude": -107.911827087402
    },
    {
      "elevation": 1547.8,
      "mindate": "2013-10-01",
      "maxdate": "2017-08-05",
      "latitude": 38.740243,
      "name": "DELTA 1.6 ESE, CO US",
      "datacoverage": 1,
      "id": "GHCND:US1CODL0042",
      "elevationUnit": "METERS",
      "longitude": -108.045072
    },
    {
      "elevation": 1809.6,
      "mindate": "2015-04-01",
      "maxdate": "2025-03-05",
      "latitude": 38.861666,
      "name": "HOTCHKISS 5.4 NE, CO US",
      "datacoverage": 0.998,
      "id": "GHCND:US1CODL0043",
      "elevationUnit": "METERS",
      "longitude": -107.654625
    },
    {
      "elevation": 3124.5,
      "mindate": "2015-07-01",
      "maxdate": "2016-07-18",
      "latitude": 39.04305556,
      "name": "CEDAREDGE 10.2 NNW, CO US",
      "datacoverage": 0.9961,
      "id": "GHCND:US1CODL0044",
      "elevationUnit": "METERS",
      "longitude": -107.9659722
    },
    {
      "elevation": 3169.6,
      "mindate": "2015-01-01",
      "maxdate": "2025-03-06",
      "latitude": 39.0391578674316,
      "name": "CEDAREDGE 10.5 NNW, CO US",
      "datacoverage": 0.9989,
      "id": "GHCND:US1CODL0045",
      "elevationUnit": "METERS",
      "longitude": -108.003036499023
    },
    {
      "elevation": 1864.8,
      "mindate": "2017-05-01",
      "maxdate": "2017-12-24",
      "latitude": 38.84959,
      "name": "PAONIA 1.9 SE, CO US",
      "datacoverage": 0.7437,
      "id": "GHCND:US1CODL0047",
      "elevationUnit": "METERS",
      "longitude": -107.566
    },
    {
      "elevation": 2104,
      "mindate": "2018-12-31",
      "maxdate": "2025-03-04",
      "latitude": 38.674541,
      "name": "CRAWFORD 3.6 SW, CO US",
      "datacoverage": 0.972,
      "id": "GHCND:US1CODL0048",
      "elevationUnit": "METERS",
      "longitude": -107.66237
    },
    {
      "elevation": 1734,
      "mindate": "2017-08-11",
      "maxdate": "2025-03-06",
      "latitude": 38.814372,
      "name": "HOTCHKISS 4.9 W, CO US",
      "datacoverage": 1,
      "id": "GHCND:US1CODL0049",
      "elevationUnit": "METERS",
      "longitude": -107.80785
    },
    {
      "elevation": 1671.5,
      "mindate": "1998-06-17",
      "maxdate": "2020-03-12",
      "latitude": 38.78369,
      "name": "HOTCHKISS 3.7 WSW, CO US",
      "datacoverage": 0.8202,
      "id": "GHCND:US1CODL0051",
      "elevationUnit": "METERS",
      "longitude": -107.78231
    },
    {
      "elevation": 1788.6,
      "mindate": "2018-03-27",
      "maxdate": "2019-05-22",
      "latitude": 38.85924,
      "name": "HOTCHKISS 5.2 NE, CO US",
      "datacoverage": 0.9961,
      "id": "GHCND:US1CODL0052",
      "elevationUnit": "METERS",
      "longitude": -107.65532
    },
    {
      "elevation": 2090.3,
      "mindate": "2019-03-22",
      "maxdate": "2019-08-18",
      "latitude": 38.87521,
      "name": "HOTCHKISS 7.6 NW, CO US",
      "datacoverage": 0.998,
      "id": "GHCND:US1CODL0058",
      "elevationUnit": "METERS",
      "longitude": -107.82197
    },
    {
      "elevation": 1748.3,
      "mindate": "2019-08-12",
      "maxdate": "2021-05-11",
      "latitude": 38.85411,
      "name": "PAONIA 1.5 SW, CO US",
      "datacoverage": 0.2034,
      "id": "GHCND:US1CODL0060",
      "elevationUnit": "METERS",
      "longitude": -107.60792
    },
    {
      "elevation": 1727.3,
      "mindate": "2020-01-18",
      "maxdate": "2023-01-12",
      "latitude": 38.86722,
      "name": "PAONIA 0.4 WSW, CO US",
      "datacoverage": 0.9819,
      "id": "GHCND:US1CODL0061",
      "elevationUnit": "METERS",
      "longitude": -107.59557
    },
    {
      "elevation": 1669.4,
      "mindate": "2020-03-25",
      "maxdate": "2025-02-15",
      "latitude": 38.8104,
      "name": "HOTCHKISS 0.7 NNE, CO US",
      "datacoverage": 0.1202,
      "id": "GHCND:US1CODL0062",
      "elevationUnit": "METERS",
      "longitude": -107.7126
    },
    {
      "elevation": 2077.2,
      "mindate": "2020-03-20",
      "maxdate": "2025-03-07",
      "latitude": 38.94857,
      "name": "CEDAREDGE 3.5 N, CO US",
      "datacoverage": 0.9986,
      "id": "GHCND:US1CODL0063",
      "elevationUnit": "METERS",
      "longitude": -107.9351
    },
    {
      "elevation": 1758.7,
      "mindate": "2021-09-19",
      "maxdate": "2025-03-07",
      "latitude": 38.8163872,
      "name": "HOTCHKISS 4.7 WNW, CO US",
      "datacoverage": 1,
      "id": "GHCND:US1CODL0065",
      "elevationUnit": "METERS",
      "longitude": -107.8026738
    },
    {
      "elevation": 1780.9,
      "mindate": "2021-09-28",
      "maxdate": "2025-03-07",
      "latitude": 38.829131,
      "name": "HOTCHKISS 2.0 N, CO US",
      "datacoverage": 0.9133,
      "id": "GHCND:US1CODL0066",
      "elevationUnit": "METERS",
      "longitude": -107.713932
    },
    {
      "elevation": 1563.9,
      "mindate": "2021-10-13",
      "maxdate": "2022-11-23",
      "latitude": 38.6951,
      "name": "DELTA 3.5 SSE, CO US",
      "datacoverage": 1,
      "id": "GHCND:US1CODL0068",
      "elevationUnit": "METERS",
      "longitude": -108.0586
    },
    {
      "elevation": 1691,
      "mindate": "2022-02-22",
      "maxdate": "2025-02-21",
      "latitude": 38.850162,
      "name": "ECKERT 1.1 WNW, CO US",
      "datacoverage": 0.1049,
      "id": "GHCND:US1CODL0070",
      "elevationUnit": "METERS",
      "longitude": -107.967883
    },
    {
      "elevation": 1782.2,
      "mindate": "2022-06-19",
      "maxdate": "2024-11-13",
      "latitude": 38.87843,
      "name": "PAONIA 1.6 WNW, CO US",
      "datacoverage": 0.2355,
      "id": "GHCND:US1CODL0071",
      "elevationUnit": "METERS",
      "longitude": -107.616
    },
    {
      "elevation": 1890.4,
      "mindate": "2020-05-01",
      "maxdate": "2025-03-07",
      "latitude": 38.84905,
      "name": "HOTCHKISS 9.2 WNW, CO US",
      "datacoverage": 0.8476,
      "id": "GHCND:US1CODL0074",
      "elevationUnit": "METERS",
      "longitude": -107.87625
    },
    {
      "elevation": 1812,
      "mindate": "2023-09-23",
      "maxdate": "2025-03-07",
      "latitude": 38.89048,
      "name": "PAONIA 1.5 N, CO US",
      "datacoverage": 0.9154,
      "id": "GHCND:US1CODL0076",
      "elevationUnit": "METERS",
      "longitude": -107.58954
    },
    {
      "elevation": 1887,
      "mindate": "2024-03-20",
      "maxdate": "2025-03-07",
      "latitude": 38.85036,
      "name": "PAONIA 2.0 SE, CO US",
      "datacoverage": 0.9113,
      "id": "GHCND:US1CODL0077",
      "elevationUnit": "METERS",
      "longitude": -107.56271
    },
    {
      "elevation": 1635.9,
      "mindate": "2000-05-01",
      "maxdate": "2024-11-04",
      "latitude": 39.723873,
      "name": "DENVER 2.8 ESE, CO US",
      "datacoverage": 0.9819,
      "id": "GHCND:US1CODN0004",
      "elevationUnit": "METERS",
      "longitude": -104.931927
    },
    {
      "elevation": 1645.9,
      "mindate": "2001-05-01",
      "maxdate": "2005-01-31",
      "latitude": 39.7707,
      "name": "DENVER 3.0 NW, CO US",
      "datacoverage": 0.9993,
      "id": "GHCND:US1CODN0005",
      "elevationUnit": "METERS",
      "longitude": -105.0297
    },
    {
      "elevation": 1612.1,
      "mindate": "2000-05-01",
      "maxdate": "2001-05-31",
      "latitude": 39.7685,
      "name": "DENVER WSFO AIRPORT, CO US",
      "datacoverage": 0.5404,
      "id": "GHCND:US1CODN0006",
      "elevationUnit": "METERS",
      "longitude": -104.8681
    },
    {
      "elevation": 1662.1,
      "mindate": "2002-04-01",
      "maxdate": "2002-10-22",
      "latitude": 39.7139,
      "name": "DENVER 3.2 SE, CO US",
      "datacoverage": 0.9956,
      "id": "GHCND:US1CODN0008",
      "elevationUnit": "METERS",
      "longitude": -104.9321
    },
    {
      "elevation": 1588,
      "mindate": "2002-06-01",
      "maxdate": "2005-04-01",
      "latitude": 39.7519,
      "name": "DENVER 1.5 NW, CO US",
      "datacoverage": 1,
      "id": "GHCND:US1CODN0010",
      "elevationUnit": "METERS",
      "longitude": -105.0139
    },
    {
      "elevation": 1648.1,
      "mindate": "2002-04-01",
      "maxdate": "2005-09-22",
      "latitude": 39.6668,
      "name": "DENVER 5.4 SSW, CO US",
      "datacoverage": 0.6425,
      "id": "GHCND:US1CODN0015",
      "elevationUnit": "METERS",
      "longitude": -105.0191
    },
    {
      "elevation": 1645.9,
      "mindate": "2002-07-01",
      "maxdate": "2025-02-21",
      "latitude": 39.6656,
      "name": "DENVER 5.2 S, CO US",
      "datacoverage": 0.9998,
      "id": "GHCND:US1CODN0016",
      "elevationUnit": "METERS",
      "longitude": -104.9657
    },
    {
      "elevation": 1658.1,
      "mindate": "2002-04-01",
      "maxdate": "2013-01-24",
      "latitude": 39.6301,
      "name": "DENVER 8 SSW, CO US",
      "datacoverage": 0.8457,
      "id": "GHCND:US1CODN0020",
      "elevationUnit": "METERS",
      "longitude": -105.0414
    },
    {
      "elevation": 1633.1,
      "mindate": "2002-05-01",
      "maxdate": "2002-10-03",
      "latitude": 39.6902,
      "name": "DENVER 3.5 SSE, CO US",
      "datacoverage": 0.9925,
      "id": "GHCND:US1CODN0021",
      "elevationUnit": "METERS",
      "longitude": -104.9625
    },
    {
      "elevation": 1627.9,
      "mindate": "1999-12-01",
      "maxdate": "2006-04-03",
      "latitude": 39.7068,
      "name": "DENVER 3 SE, CO US",
      "datacoverage": 0.4937,
      "id": "GHCND:US1CODN0022",
      "elevationUnit": "METERS",
      "longitude": -104.9487
    },
    {
      "elevation": 1642.9,
      "mindate": "2004-05-01",
      "maxdate": "2005-10-16",
      "latitude": 39.7761,
      "name": "DENVER 4.4 NW, CO US",
      "datacoverage": 0.7762,
      "id": "GHCND:US1CODN0023",
      "elevationUnit": "METERS",
      "longitude": -105.0517
    },
    {
      "elevation": 1610,
      "mindate": "2002-06-01",
      "maxdate": "2012-11-05",
      "latitude": 39.7401,
      "name": "DENVER 1.8 E, CO US",
      "datacoverage": 0.9998,
      "id": "GHCND:US1CODN0024",
      "elevationUnit": "METERS",
      "longitude": -104.9874
    },
    {
      "elevation": 1645.9,
      "mindate": "2002-05-01",
      "maxdate": "2022-06-01",
      "latitude": 39.7264,
      "name": "DENVER 2.1 ESE, CO US",
      "datacoverage": 0.9998,
      "id": "GHCND:US1CODN0025",
      "elevationUnit": "METERS",
      "longitude": -104.9489
    },
    {
      "elevation": 1659,
      "mindate": "2002-09-01",
      "maxdate": "2011-09-22",
      "latitude": 39.7058,
      "name": "DENVER 4.7 ESE, CO US",
      "datacoverage": 0.6148,
      "id": "GHCND:US1CODN0026",
      "elevationUnit": "METERS",
      "longitude": -104.9046
    },
    {
      "elevation": 1631.9,
      "mindate": "2000-06-01",
      "maxdate": "2003-10-29",
      "latitude": 39.7079,
      "name": "DENVER 2.4 SSE, CO US",
      "datacoverage": 0.3658,
      "id": "GHCND:US1CODN0028",
      "elevationUnit": "METERS",
      "longitude": -104.9642
    },
    {
      "elevation": 1680.1,
      "mindate": "2002-05-01",
      "maxdate": "2023-07-15",
      "latitude": 39.6318,
      "name": "DENVER 8 SSW, CO US",
      "datacoverage": 0.9819,
      "id": "GHCND:US1CODN0030",
      "elevationUnit": "METERS",
      "longitude": -105.0463
    },
    {
      "elevation": 1634.9,
      "mindate": "1998-06-01",
      "maxdate": "2009-10-29",
      "latitude": 39.756485,
      "name": "MOUNTAIN VIEW 1.9 SE, CO US",
      "datacoverage": 1,
      "id": "GHCND:US1CODN0031",
      "elevationUnit": "METERS",
      "longitude": -105.030142
    },
    {
      "elevation": 1642.9,
      "mindate": "2002-05-01",
      "maxdate": "2005-10-07",
      "latitude": 39.7759,
      "name": "DENVER 4.3 NW, CO US",
      "datacoverage": 0.7609,
      "id": "GHCND:US1CODN0032",
      "elevationUnit": "METERS",
      "longitude": -105.0519
    },
    {
      "elevation": 1648.1,
      "mindate": "2002-05-01",
      "maxdate": "2005-04-11",
      "latitude": 39.6915,
      "name": "DENVER 4.8 SE, CO US",
      "datacoverage": 0.9998,
      "id": "GHCND:US1CODN0033",
      "elevationUnit": "METERS",
      "longitude": -104.9166
    },
    {
      "elevation": 1633.1,
      "mindate": "2002-06-01",
      "maxdate": "2004-03-16",
      "latitude": 39.728,
      "name": "DENVER 3.7 ESE, CO US",
      "datacoverage": 0.9994,
      "id": "GHCND:US1CODN0035",
      "elevationUnit": "METERS",
      "longitude": -104.9203
    },
    {
      "elevation": 1663,
      "mindate": "2002-05-01",
      "maxdate": "2002-10-25",
      "latitude": 39.6846,
      "name": "DENVER 4.7 SE, CO US",
      "datacoverage": 0.998,
      "id": "GHCND:US1CODN0036",
      "elevationUnit": "METERS",
      "longitude": -104.9317
    },
    {
      "elevation": 1595.9,
      "mindate": "2002-06-01",
      "maxdate": "2005-03-16",
      "latitude": 39.7826,
      "name": "DENVER 4.9 NE, CO US",
      "datacoverage": 0.9947,
      "id": "GHCND:US1CODN0038",
      "elevationUnit": "METERS",
      "longitude": -104.9073
    },
    {
      "elevation": 1622.1,
      "mindate": "2003-04-01",
      "maxdate": "2007-12-07",
      "latitude": 39.7779,
      "name": "DENVER 3 NW, CO US",
      "datacoverage": 0.9994,
      "id": "GHCND:US1CODN0041",
      "elevationUnit": "METERS",
      "longitude": -105.0162
    }
  ]
}
