{
  "metadata": {
    "resultset": {
      "offset": 93100,
      "count": 154115,
      "limit": 100
    }
  },
  "results": [
    {
      "elevation": 413.9,
      "mindate": "2006-06-01",
      "maxdate": "2025-03-06",
      "latitude": 37.72482,
      "name": "MAIZE 3.4 SSW, KS US",
      "datacoverage": 1,
      "id": "GHCND:US1KSSG0003",
      "elevationUnit": "METERS",
      "longitude": -97.47859
    },
    {
      "elevation": 416.1,
      "mindate": "2006-06-01",
      "maxdate": "2008-11-25",
      "latitude": 37.6893,
      "name": "WICHITA 2.5 E, KS US",
      "datacoverage": 0.999,
      "id": "GHCND:US1KSSG0004",
      "elevationUnit": "METERS",
      "longitude": -97.2966
    },
    {
      "elevation": 392.9,
      "mindate": "2007-02-01",
      "maxdate": "2008-08-23",
      "latitude": 37.536111,
      "name": "HAYSVILLE 3.5 SW, KS US",
      "datacoverage": 1,
      "id": "GHCND:US1KSSG0005",
      "elevationUnit": "METERS",
      "longitude": -97.400236
    },
    {
      "elevation": 394.1,
      "mindate": "2007-01-01",
      "maxdate": "2012-11-28",
      "latitude": 37.645492,
      "name": "WICHITA 3.2 SSW, KS US",
      "datacoverage": 1,
      "id": "GHCND:US1KSSG0007",
      "elevationUnit": "METERS",
      "longitude": -97.366117
    },
    {
      "elevation": 409,
      "mindate": "2007-02-01",
      "maxdate": "2017-08-17",
      "latitude": 37.775066,
      "name": "PARK CITY 3.0 WSW, KS US",
      "datacoverage": 1,
      "id": "GHCND:US1KSSG0009",
      "elevationUnit": "METERS",
      "longitude": -97.369292
    },
    {
      "elevation": 392,
      "mindate": "2007-03-01",
      "maxdate": "2025-03-07",
      "latitude": 37.684713,
      "name": "WICHITA 3 E, KS US",
      "datacoverage": 0.9813,
      "id": "GHCND:US1KSSG0010",
      "elevationUnit": "METERS",
      "longitude": -97.418765
    },
    {
      "elevation": 430.1,
      "mindate": "2007-04-01",
      "maxdate": "2009-11-06",
      "latitude": 37.886435,
      "name": "BENTLEY 0.0 W, KS US",
      "datacoverage": 0.7804,
      "id": "GHCND:US1KSSG0011",
      "elevationUnit": "METERS",
      "longitude": -97.516401
    },
    {
      "elevation": 399.9,
      "mindate": "2007-04-01",
      "maxdate": "2016-07-30",
      "latitude": 37.671549,
      "name": "WICHITA 1.7 SE, KS US",
      "datacoverage": 0.9044,
      "id": "GHCND:US1KSSG0012",
      "elevationUnit": "METERS",
      "longitude": -97.31994
    },
    {
      "elevation": 416.1,
      "mindate": "2007-04-01",
      "maxdate": "2008-12-16",
      "latitude": 37.849958,
      "name": "VALLEY CENTER 1.0 N, KS US",
      "datacoverage": 0.9972,
      "id": "GHCND:US1KSSG0013",
      "elevationUnit": "METERS",
      "longitude": -97.372768
    },
    {
      "elevation": 404.2,
      "mindate": "2007-04-01",
      "maxdate": "2019-06-26",
      "latitude": 37.6982,
      "name": "WICHITA 2.5 WNW, KS US",
      "datacoverage": 0.9998,
      "id": "GHCND:US1KSSG0014",
      "elevationUnit": "METERS",
      "longitude": -97.3869
    },
    {
      "elevation": 415.1,
      "mindate": "2007-04-01",
      "maxdate": "2013-05-15",
      "latitude": 37.72467,
      "name": "MAIZE 3.4 S, KS US",
      "datacoverage": 0.9592,
      "id": "GHCND:US1KSSG0015",
      "elevationUnit": "METERS",
      "longitude": -97.45201
    },
    {
      "elevation": 398.7,
      "mindate": "1998-06-01",
      "maxdate": "2023-08-24",
      "latitude": 37.675322,
      "name": "WICHITA 2.7 ESE, KS US",
      "datacoverage": 0.3125,
      "id": "GHCND:US1KSSG0019",
      "elevationUnit": "METERS",
      "longitude": -97.296604
    },
    {
      "elevation": 417.6,
      "mindate": "2008-02-01",
      "maxdate": "2025-03-05",
      "latitude": 37.6903,
      "name": "WICHITA 8.0 W, KS US",
      "datacoverage": 1,
      "id": "GHCND:US1KSSG0020",
      "elevationUnit": "METERS",
      "longitude": -97.4893
    },
    {
      "elevation": 383.1,
      "mindate": "2008-02-01",
      "maxdate": "2010-12-20",
      "latitude": 37.507034,
      "name": "MULVANE 2.4 NW, KS US",
      "datacoverage": 0.998,
      "id": "GHCND:US1KSSG0021",
      "elevationUnit": "METERS",
      "longitude": -97.26913
    },
    {
      "elevation": 430.7,
      "mindate": "2008-04-01",
      "maxdate": "2015-10-01",
      "latitude": 37.61815,
      "name": "CHENEY 5.0 E, KS US",
      "datacoverage": 0.6373,
      "id": "GHCND:US1KSSG0023",
      "elevationUnit": "METERS",
      "longitude": -97.68946
    },
    {
      "elevation": 400.5,
      "mindate": "2008-05-01",
      "maxdate": "2014-12-15",
      "latitude": 37.5923,
      "name": "CLEARWATER 6.8 NNE, KS US",
      "datacoverage": 0.9996,
      "id": "GHCND:US1KSSG0024",
      "elevationUnit": "METERS",
      "longitude": -97.4439
    },
    {
      "elevation": 421.8,
      "mindate": "2008-06-01",
      "maxdate": "2021-12-31",
      "latitude": 37.798,
      "name": "PARK CITY 0.5 ENE, KS US",
      "datacoverage": 1,
      "id": "GHCND:US1KSSG0026",
      "elevationUnit": "METERS",
      "longitude": -97.314
    },
    {
      "elevation": 402,
      "mindate": "2008-09-01",
      "maxdate": "2022-08-29",
      "latitude": 37.719601,
      "name": "WICHITA 3.2 NW, KS US",
      "datacoverage": 1,
      "id": "GHCND:US1KSSG0027",
      "elevationUnit": "METERS",
      "longitude": -97.384417
    },
    {
      "elevation": 427.9,
      "mindate": "2008-09-01",
      "maxdate": "2018-10-10",
      "latitude": 37.64332,
      "name": "GARDEN PLAIN 2.2 SW, KS US",
      "datacoverage": 1,
      "id": "GHCND:US1KSSG0028",
      "elevationUnit": "METERS",
      "longitude": -97.715
    },
    {
      "elevation": 402.3,
      "mindate": "2008-10-01",
      "maxdate": "2018-12-27",
      "latitude": 37.7114,
      "name": "WICHITA 3.3 WNW, KS US",
      "datacoverage": 0.9001,
      "id": "GHCND:US1KSSG0030",
      "elevationUnit": "METERS",
      "longitude": -97.3958
    },
    {
      "elevation": 398.1,
      "mindate": "2008-10-01",
      "maxdate": "2010-10-28",
      "latitude": 37.6269,
      "name": "WICHITA 5.5 SW, KS US",
      "datacoverage": 1,
      "id": "GHCND:US1KSSG0032",
      "elevationUnit": "METERS",
      "longitude": -97.4085
    },
    {
      "elevation": 418.5,
      "mindate": "2008-12-01",
      "maxdate": "2025-03-06",
      "latitude": 37.702986,
      "name": "WICHITA 4.5 ENE, KS US",
      "datacoverage": 1,
      "id": "GHCND:US1KSSG0033",
      "elevationUnit": "METERS",
      "longitude": -97.257379
    },
    {
      "elevation": 410.3,
      "mindate": "2009-03-01",
      "maxdate": "2025-03-07",
      "latitude": 37.709288,
      "name": "WICHITA 7.8 WNW, KS US",
      "datacoverage": 0.6469,
      "id": "GHCND:US1KSSG0036",
      "elevationUnit": "METERS",
      "longitude": -97.471775
    },
    {
      "elevation": 399.3,
      "mindate": "2009-03-01",
      "maxdate": "2011-05-28",
      "latitude": 37.7052,
      "name": "WICHITA 3.9 WNW, KS US",
      "datacoverage": 0.7776,
      "id": "GHCND:US1KSSG0048",
      "elevationUnit": "METERS",
      "longitude": -97.4103
    },
    {
      "elevation": 410.3,
      "mindate": "2009-04-01",
      "maxdate": "2013-01-25",
      "latitude": 37.836781,
      "name": "VALLEY CENTER 0.1 NE, KS US",
      "datacoverage": 0.9552,
      "id": "GHCND:US1KSSG0050",
      "elevationUnit": "METERS",
      "longitude": -97.372001
    },
    {
      "elevation": 413,
      "mindate": "1998-06-17",
      "maxdate": "2025-03-04",
      "latitude": 37.717572,
      "name": "WICHITA 6.9 NW, KS US",
      "datacoverage": 0.9997,
      "id": "GHCND:US1KSSG0052",
      "elevationUnit": "METERS",
      "longitude": -97.455825
    },
    {
      "elevation": 420.6,
      "mindate": "2009-05-01",
      "maxdate": "2016-08-26",
      "latitude": 37.634087,
      "name": "CHENEY 0.4 NNE, KS US",
      "datacoverage": 0.4285,
      "id": "GHCND:US1KSSG0054",
      "elevationUnit": "METERS",
      "longitude": -97.778469
    },
    {
      "elevation": 424,
      "mindate": "2009-04-01",
      "maxdate": "2015-08-18",
      "latitude": 37.757222,
      "name": "WICHITA 7.1 NE, KS US",
      "datacoverage": 0.6617,
      "id": "GHCND:US1KSSG0055",
      "elevationUnit": "METERS",
      "longitude": -97.241278
    },
    {
      "elevation": 413.9,
      "mindate": "2010-04-01",
      "maxdate": "2013-08-09",
      "latitude": 37.777279,
      "name": "WICHITA 6.2 NE, KS US",
      "datacoverage": 0.9991,
      "id": "GHCND:US1KSSG0062",
      "elevationUnit": "METERS",
      "longitude": -97.302346
    },
    {
      "elevation": 421.8,
      "mindate": "2010-05-01",
      "maxdate": "2025-02-19",
      "latitude": 37.792615,
      "name": "COLWICH 2.1 WNW, KS US",
      "datacoverage": 0.9996,
      "id": "GHCND:US1KSSG0063",
      "elevationUnit": "METERS",
      "longitude": -97.572797
    },
    {
      "elevation": 410.3,
      "mindate": "2010-07-01",
      "maxdate": "2015-12-16",
      "latitude": 37.682504,
      "name": "WICHITA 3.5 E, KS US",
      "datacoverage": 0.9994,
      "id": "GHCND:US1KSSG0064",
      "elevationUnit": "METERS",
      "longitude": -97.278937
    },
    {
      "elevation": 419.4,
      "mindate": "2010-08-01",
      "maxdate": "2024-10-29",
      "latitude": 37.635182,
      "name": "CHENEY 0.5 NNE, KS US",
      "datacoverage": 0.9999,
      "id": "GHCND:US1KSSG0065",
      "elevationUnit": "METERS",
      "longitude": -97.777747
    },
    {
      "elevation": 420.3,
      "mindate": "2010-09-01",
      "maxdate": "2014-08-07",
      "latitude": 37.683278,
      "name": "WICHITA 7.1 ESE, KS US",
      "datacoverage": 0.9375,
      "id": "GHCND:US1KSSG0068",
      "elevationUnit": "METERS",
      "longitude": -97.203246
    },
    {
      "elevation": 407.5,
      "mindate": "2010-09-01",
      "maxdate": "2025-03-05",
      "latitude": 37.7953,
      "name": "WICHITA 7.4 NNW, KS US",
      "datacoverage": 1,
      "id": "GHCND:US1KSSG0069",
      "elevationUnit": "METERS",
      "longitude": -97.3761
    },
    {
      "elevation": 407.2,
      "mindate": "2010-10-01",
      "maxdate": "2011-12-15",
      "latitude": 37.6797,
      "name": "WICHITA 8.4 W, KS US",
      "datacoverage": 1,
      "id": "GHCND:US1KSSG0070",
      "elevationUnit": "METERS",
      "longitude": -97.4967
    },
    {
      "elevation": 406.3,
      "mindate": "2010-11-01",
      "maxdate": "2025-03-07",
      "latitude": 37.7033,
      "name": "WICHITA 9.0 E, KS US",
      "datacoverage": 1,
      "id": "GHCND:US1KSSG0071",
      "elevationUnit": "METERS",
      "longitude": -97.1726
    },
    {
      "elevation": 383.7,
      "mindate": "2010-11-01",
      "maxdate": "2014-09-24",
      "latitude": 37.562196,
      "name": "HAYSVILLE 0.5 SE, KS US",
      "datacoverage": 0.6173,
      "id": "GHCND:US1KSSG0072",
      "elevationUnit": "METERS",
      "longitude": -97.341764
    },
    {
      "elevation": 414.8,
      "mindate": "2011-03-01",
      "maxdate": "2024-11-19",
      "latitude": 37.6588,
      "name": "WICHITA 6.4 ESE, KS US",
      "datacoverage": 0.9338,
      "id": "GHCND:US1KSSG0074",
      "elevationUnit": "METERS",
      "longitude": -97.2296
    },
    {
      "elevation": 404.5,
      "mindate": "2011-03-01",
      "maxdate": "2015-08-29",
      "latitude": 37.6632,
      "name": "WICHITA 9.1 ESE, KS US",
      "datacoverage": 0.4996,
      "id": "GHCND:US1KSSG0075",
      "elevationUnit": "METERS",
      "longitude": -97.1749
    },
    {
      "elevation": 406.9,
      "mindate": "2011-05-01",
      "maxdate": "2025-03-07",
      "latitude": 37.691144,
      "name": "WICHITA 4.7 W, KS US",
      "datacoverage": 0.9993,
      "id": "GHCND:US1KSSG0076",
      "elevationUnit": "METERS",
      "longitude": -97.428837
    },
    {
      "elevation": 412.1,
      "mindate": "2011-06-16",
      "maxdate": "2018-05-03",
      "latitude": 37.706221,
      "name": "WICHITA 8.2 W, KS US",
      "datacoverage": 0.0453,
      "id": "GHCND:US1KSSG0078",
      "elevationUnit": "METERS",
      "longitude": -97.490609
    },
    {
      "elevation": 415.1,
      "mindate": "2011-07-01",
      "maxdate": "2015-07-07",
      "latitude": 37.7129,
      "name": "WICHITA 9.1 WNW, KS US",
      "datacoverage": 0.8976,
      "id": "GHCND:US1KSSG0079",
      "elevationUnit": "METERS",
      "longitude": -97.5031
    },
    {
      "elevation": 416.4,
      "mindate": "2012-06-03",
      "maxdate": "2025-03-06",
      "latitude": 37.825741,
      "name": "PARK CITY 2.1 NNE, KS US",
      "datacoverage": 0.9991,
      "id": "GHCND:US1KSSG0084",
      "elevationUnit": "METERS",
      "longitude": -97.311867
    },
    {
      "elevation": 422.1,
      "mindate": "2012-06-01",
      "maxdate": "2025-03-05",
      "latitude": 37.56404,
      "name": "CLEARWATER 4.1 N, KS US",
      "datacoverage": 0.9991,
      "id": "GHCND:US1KSSG0085",
      "elevationUnit": "METERS",
      "longitude": -97.51501
    },
    {
      "elevation": 388.3,
      "mindate": "2012-06-01",
      "maxdate": "2019-08-30",
      "latitude": 37.50746,
      "name": "CLEARWATER 0.4 WNW, KS US",
      "datacoverage": 0.9819,
      "id": "GHCND:US1KSSG0087",
      "elevationUnit": "METERS",
      "longitude": -97.50742
    },
    {
      "elevation": 420,
      "mindate": "2013-04-01",
      "maxdate": "2015-11-13",
      "latitude": 37.799423,
      "name": "KECHI 0.3 NNE, KS US",
      "datacoverage": 1,
      "id": "GHCND:US1KSSG0089",
      "elevationUnit": "METERS",
      "longitude": -97.275322
    },
    {
      "elevation": 448.4,
      "mindate": "2012-12-01",
      "maxdate": "2025-03-06",
      "latitude": 37.6778081059456,
      "name": "GARDEN PLAIN 1.4 NE, KS US",
      "datacoverage": 1,
      "id": "GHCND:US1KSSG0091",
      "elevationUnit": "METERS",
      "longitude": -97.6665177941322
    },
    {
      "elevation": 409.3,
      "mindate": "2013-01-01",
      "maxdate": "2025-03-07",
      "latitude": 37.607504,
      "name": "CLEARWATER 7.0 N, KS US",
      "datacoverage": 0.9239,
      "id": "GHCND:US1KSSG0092",
      "elevationUnit": "METERS",
      "longitude": -97.4946
    },
    {
      "elevation": 437.4,
      "mindate": "2013-01-01",
      "maxdate": "2017-09-15",
      "latitude": 37.787315,
      "name": "ANDALE 0.4 SSE, KS US",
      "datacoverage": 1,
      "id": "GHCND:US1KSSG0093",
      "elevationUnit": "METERS",
      "longitude": -97.625751
    },
    {
      "elevation": 414.5,
      "mindate": "2013-04-01",
      "maxdate": "2025-03-07",
      "latitude": 37.5901336669922,
      "name": "DERBY 2.9 N, KS US",
      "datacoverage": 0.9991,
      "id": "GHCND:US1KSSG0095",
      "elevationUnit": "METERS",
      "longitude": -97.25
    },
    {
      "elevation": 410.6,
      "mindate": "2013-06-01",
      "maxdate": "2021-12-28",
      "latitude": 37.690996,
      "name": "WICHITA 7.4 W, KS US",
      "datacoverage": 0.9999,
      "id": "GHCND:US1KSSG0097",
      "elevationUnit": "METERS",
      "longitude": -97.4776569
    },
    {
      "elevation": 423.7,
      "mindate": "2013-11-01",
      "maxdate": "2025-01-07",
      "latitude": 37.8874015808105,
      "name": "BENTLEY 0.1 NNW, KS US",
      "datacoverage": 1,
      "id": "GHCND:US1KSSG0098",
      "elevationUnit": "METERS",
      "longitude": -97.5161590576172
    },
    {
      "elevation": 426.1,
      "mindate": "2014-05-01",
      "maxdate": "2025-03-06",
      "latitude": 37.760139465332,
      "name": "BEL AIRE 0.5 WSW, KS US",
      "datacoverage": 0.9991,
      "id": "GHCND:US1KSSG0100",
      "elevationUnit": "METERS",
      "longitude": -97.2765960693359
    },
    {
      "elevation": 418.8,
      "mindate": "2014-06-09",
      "maxdate": "2018-12-27",
      "latitude": 37.823819,
      "name": "COLWICH 3.3 NNE, KS US",
      "datacoverage": 0.107,
      "id": "GHCND:US1KSSG0102",
      "elevationUnit": "METERS",
      "longitude": -97.510489
    },
    {
      "elevation": 397.8,
      "mindate": "2014-06-01",
      "maxdate": "2020-02-03",
      "latitude": 37.7038,
      "name": "WICHITA 1.2 NNW, KS US",
      "datacoverage": 0.9994,
      "id": "GHCND:US1KSSG0105",
      "elevationUnit": "METERS",
      "longitude": -97.3478
    },
    {
      "elevation": 439.2,
      "mindate": "2014-09-21",
      "maxdate": "2016-06-24",
      "latitude": 37.8689918518066,
      "name": "MOUNT HOPE 0.1 NE, KS US",
      "datacoverage": 0.1757,
      "id": "GHCND:US1KSSG0107",
      "elevationUnit": "METERS",
      "longitude": -97.6631546020508
    },
    {
      "elevation": 449,
      "mindate": "2015-04-12",
      "maxdate": "2017-07-14",
      "latitude": 37.6699250936508,
      "name": "GODDARD 0.7 N, KS US",
      "datacoverage": 0.1309,
      "id": "GHCND:US1KSSG0110",
      "elevationUnit": "METERS",
      "longitude": -97.5763969123363
    },
    {
      "elevation": 416.4,
      "mindate": "2015-04-01",
      "maxdate": "2024-12-26",
      "latitude": 37.654944,
      "name": "WICHITA 5.9 WSW, KS US",
      "datacoverage": 0.9956,
      "id": "GHCND:US1KSSG0111",
      "elevationUnit": "METERS",
      "longitude": -97.443438
    },
    {
      "elevation": 398.7,
      "mindate": "2015-05-01",
      "maxdate": "2024-11-19",
      "latitude": 37.557353,
      "name": "CLEARWATER 3.9 NNE, KS US",
      "datacoverage": 0.9956,
      "id": "GHCND:US1KSSG0112",
      "elevationUnit": "METERS",
      "longitude": -97.473539
    },
    {
      "elevation": 378.6,
      "mindate": "2015-08-01",
      "maxdate": "2025-03-06",
      "latitude": 37.5195333,
      "name": "HAYSVILLE 3.8 SSE, KS US",
      "datacoverage": 0.9992,
      "id": "GHCND:US1KSSG0114",
      "elevationUnit": "METERS",
      "longitude": -97.3141667
    },
    {
      "elevation": 394.4,
      "mindate": "2015-09-01",
      "maxdate": "2025-03-05",
      "latitude": 37.5035934448242,
      "name": "CLEARWATER 0.2 SSW, KS US",
      "datacoverage": 1,
      "id": "GHCND:US1KSSG0115",
      "elevationUnit": "METERS",
      "longitude": -97.5029754638672
    },
    {
      "elevation": 448.1,
      "mindate": "2016-01-01",
      "maxdate": "2024-10-08",
      "latitude": 37.670336,
      "name": "GODDARD 0.7 N, KS US",
      "datacoverage": 0.8986,
      "id": "GHCND:US1KSSG0116",
      "elevationUnit": "METERS",
      "longitude": -97.577031
    },
    {
      "elevation": 417.3,
      "mindate": "2016-05-27",
      "maxdate": "2023-07-21",
      "latitude": 37.765614,
      "name": "COLWICH 1.1 S, KS US",
      "datacoverage": 0.0838,
      "id": "GHCND:US1KSSG0117",
      "elevationUnit": "METERS",
      "longitude": -97.536132
    },
    {
      "elevation": 412.4,
      "mindate": "2016-07-08",
      "maxdate": "2017-08-21",
      "latitude": 37.7792915,
      "name": "MAIZE 0.5 NNW, KS US",
      "datacoverage": 0.7098,
      "id": "GHCND:US1KSSG0122",
      "elevationUnit": "METERS",
      "longitude": -97.4680699
    },
    {
      "elevation": 423.7,
      "mindate": "2016-10-01",
      "maxdate": "2022-06-23",
      "latitude": 37.702683,
      "name": "WICHITA 7.5 E, KS US",
      "datacoverage": 0.9991,
      "id": "GHCND:US1KSSG0123",
      "elevationUnit": "METERS",
      "longitude": -97.206687
    },
    {
      "elevation": 408.7,
      "mindate": "2016-10-01",
      "maxdate": "2025-03-05",
      "latitude": 37.696095,
      "name": "WICHITA 6.3 W, KS US",
      "datacoverage": 0.9489,
      "id": "GHCND:US1KSSG0124",
      "elevationUnit": "METERS",
      "longitude": -97.457821
    },
    {
      "elevation": 390.4,
      "mindate": "2017-01-30",
      "maxdate": "2025-03-06",
      "latitude": 37.5134887695313,
      "name": "PECK 3.0 NW, KS US",
      "datacoverage": 0.9989,
      "id": "GHCND:US1KSSG0125",
      "elevationUnit": "METERS",
      "longitude": -97.4048690795898
    },
    {
      "elevation": 457.5,
      "mindate": "2017-04-27",
      "maxdate": "2025-03-06",
      "latitude": 37.73327,
      "name": "ANDALE 4.2 SSW, KS US",
      "datacoverage": 0.7412,
      "id": "GHCND:US1KSSG0126",
      "elevationUnit": "METERS",
      "longitude": -97.64462
    },
    {
      "elevation": 419.1,
      "mindate": "2017-08-20",
      "maxdate": "2025-03-05",
      "latitude": 37.7185,
      "name": "WICHITA 6.3 ENE, KS US",
      "datacoverage": 0.2036,
      "id": "GHCND:US1KSSG0127",
      "elevationUnit": "METERS",
      "longitude": -97.2352
    },
    {
      "elevation": 394.7,
      "mindate": "2017-05-17",
      "maxdate": "2025-03-07",
      "latitude": 37.658757,
      "name": "ANDOVER 2.4 SSW, KS US",
      "datacoverage": 0.4057,
      "id": "GHCND:US1KSSG0128",
      "elevationUnit": "METERS",
      "longitude": -97.155213
    },
    {
      "elevation": 422.8,
      "mindate": "2017-05-26",
      "maxdate": "2025-03-06",
      "latitude": 37.76391176,
      "name": "BEL AIRE 0.2 ESE, KS US",
      "datacoverage": 0.9894,
      "id": "GHCND:US1KSSG0129",
      "elevationUnit": "METERS",
      "longitude": -97.26509158
    },
    {
      "elevation": 437.4,
      "mindate": "2017-07-28",
      "maxdate": "2025-03-07",
      "latitude": 37.86543,
      "name": "VALLEY CENTER 3.5 NE, KS US",
      "datacoverage": 1,
      "id": "GHCND:US1KSSG0130",
      "elevationUnit": "METERS",
      "longitude": -97.32257
    },
    {
      "elevation": 405.1,
      "mindate": "2017-10-01",
      "maxdate": "2023-07-23",
      "latitude": 37.753223,
      "name": "MAIZE 2.9 ESE, KS US",
      "datacoverage": 0.9993,
      "id": "GHCND:US1KSSG0133",
      "elevationUnit": "METERS",
      "longitude": -97.418218
    },
    {
      "elevation": 402.9,
      "mindate": "2017-12-01",
      "maxdate": "2021-11-03",
      "latitude": 37.6767715,
      "name": "WICHITA 9.6 E, KS US",
      "datacoverage": 0.6974,
      "id": "GHCND:US1KSSG0134",
      "elevationUnit": "METERS",
      "longitude": -97.1671501
    },
    {
      "elevation": 445.9,
      "mindate": "2019-03-06",
      "maxdate": "2025-03-04",
      "latitude": 37.6668,
      "name": "GARDEN PLAIN 0.4 N, KS US",
      "datacoverage": 0.429,
      "id": "GHCND:US1KSSG0140",
      "elevationUnit": "METERS",
      "longitude": -97.6829
    },
    {
      "elevation": 409.7,
      "mindate": "2018-06-13",
      "maxdate": "2025-03-04",
      "latitude": 37.6959,
      "name": "WICHITA 5.0 W, KS US",
      "datacoverage": 0.9925,
      "id": "GHCND:US1KSSG0141",
      "elevationUnit": "METERS",
      "longitude": -97.4329
    },
    {
      "elevation": 407.2,
      "mindate": "2019-04-07",
      "maxdate": "2021-11-12",
      "latitude": 37.6675,
      "name": "WICHITA 3.1 ESE, KS US",
      "datacoverage": 0.2271,
      "id": "GHCND:US1KSSG0142",
      "elevationUnit": "METERS",
      "longitude": -97.2922
    },
    {
      "elevation": 1396.3,
      "mindate": "2019-04-18",
      "maxdate": "2024-08-23",
      "latitude": 37.69852,
      "name": "WICHITA 1.0 NW, KS US",
      "datacoverage": 0.4363,
      "id": "GHCND:US1KSSG0143",
      "elevationUnit": "METERS",
      "longitude": -97.35309
    },
    {
      "elevation": 428.2,
      "mindate": "2019-05-01",
      "maxdate": "2025-03-05",
      "latitude": 37.7678,
      "name": "BEL AIRE 0.7 WNW, KS US",
      "datacoverage": 0.9998,
      "id": "GHCND:US1KSSG0144",
      "elevationUnit": "METERS",
      "longitude": -97.2798
    },
    {
      "elevation": 390.8,
      "mindate": "2019-05-18",
      "maxdate": "2024-04-28",
      "latitude": 37.50683,
      "name": "CLEARWATER 0.1 NE, KS US",
      "datacoverage": 0.302,
      "id": "GHCND:US1KSSG0145",
      "elevationUnit": "METERS",
      "longitude": -97.49989
    },
    {
      "elevation": 411.2,
      "mindate": "2019-07-01",
      "maxdate": "2020-09-11",
      "latitude": 37.8404,
      "name": "VALLEY CENTER 0.4 NNE, KS US",
      "datacoverage": 0.9819,
      "id": "GHCND:US1KSSG0148",
      "elevationUnit": "METERS",
      "longitude": -97.3699
    },
    {
      "elevation": 396.2,
      "mindate": "2020-02-07",
      "maxdate": "2024-01-05",
      "latitude": 37.699345,
      "name": "WICHITA 1.9 WNW, KS US",
      "datacoverage": 0.8181,
      "id": "GHCND:US1KSSG0151",
      "elevationUnit": "METERS",
      "longitude": -97.373693
    },
    {
      "elevation": 423.7,
      "mindate": "2020-05-01",
      "maxdate": "2020-09-11",
      "latitude": 37.789167,
      "name": "COLWICH 0.5 N, KS US",
      "datacoverage": 0.9898,
      "id": "GHCND:US1KSSG0153",
      "elevationUnit": "METERS",
      "longitude": -97.53656
    },
    {
      "elevation": 411.8,
      "mindate": "2020-07-18",
      "maxdate": "2025-03-07",
      "latitude": 37.50306,
      "name": "VIOLA 3.0 WNW, KS US",
      "datacoverage": 0.9991,
      "id": "GHCND:US1KSSG0157",
      "elevationUnit": "METERS",
      "longitude": -97.6918
    },
    {
      "elevation": 402.3,
      "mindate": "2018-01-22",
      "maxdate": "2024-12-17",
      "latitude": 37.5831,
      "name": "DERBY 2.3 N, KS US",
      "datacoverage": 0.8262,
      "id": "GHCND:US1KSSG0159",
      "elevationUnit": "METERS",
      "longitude": -97.2616
    },
    {
      "elevation": 434.3,
      "mindate": "2020-12-30",
      "maxdate": "2025-02-19",
      "latitude": 37.790551,
      "name": "ANDALE 0.4 ESE, KS US",
      "datacoverage": 0.1243,
      "id": "GHCND:US1KSSG0162",
      "elevationUnit": "METERS",
      "longitude": -97.622898
    },
    {
      "elevation": 420.9,
      "mindate": "2021-03-23",
      "maxdate": "2024-11-18",
      "latitude": 37.59278,
      "name": "CLEARWATER 6.1 N, KS US",
      "datacoverage": 0.9819,
      "id": "GHCND:US1KSSG0164",
      "elevationUnit": "METERS",
      "longitude": -97.523027
    },
    {
      "elevation": 419.1,
      "mindate": "2021-04-09",
      "maxdate": "2023-12-24",
      "latitude": 37.867798,
      "name": "SEDGWICK 4.2 SSW, KS US",
      "datacoverage": 0.9819,
      "id": "GHCND:US1KSSG0165",
      "elevationUnit": "METERS",
      "longitude": -97.468394
    },
    {
      "elevation": 417.6,
      "mindate": "2022-03-30",
      "maxdate": "2025-03-06",
      "latitude": 37.8044482,
      "name": "WICHITA 10.9 NE, KS US",
      "datacoverage": 0.8155,
      "id": "GHCND:US1KSSG0174",
      "elevationUnit": "METERS",
      "longitude": -97.2091657
    },
    {
      "elevation": 431,
      "mindate": "2022-08-20",
      "maxdate": "2024-11-19",
      "latitude": 37.5936,
      "name": "GODDARD 4.9 SSW, KS US",
      "datacoverage": 0.2977,
      "id": "GHCND:US1KSSG0176",
      "elevationUnit": "METERS",
      "longitude": -97.6075
    },
    {
      "elevation": 420.3,
      "mindate": "2022-06-10",
      "maxdate": "2024-11-13",
      "latitude": 37.736463,
      "name": "COLWICH 3.1 S, KS US",
      "datacoverage": 0.116,
      "id": "GHCND:US1KSSG0178",
      "elevationUnit": "METERS",
      "longitude": -97.544226
    },
    {
      "elevation": 392,
      "mindate": "2022-06-29",
      "maxdate": "2025-03-07",
      "latitude": 37.653823,
      "name": "WICHITA 3.2 SE, KS US",
      "datacoverage": 0.6562,
      "id": "GHCND:US1KSSG0179",
      "elevationUnit": "METERS",
      "longitude": -97.302783
    },
    {
      "elevation": 402,
      "mindate": "2022-08-27",
      "maxdate": "2024-06-03",
      "latitude": 37.718083,
      "name": "WICHITA 3.2 NW, KS US",
      "datacoverage": 0.7728,
      "id": "GHCND:US1KSSG0182",
      "elevationUnit": "METERS",
      "longitude": -97.387599
    },
    {
      "elevation": 419.1,
      "mindate": "2022-08-28",
      "maxdate": "2024-11-19",
      "latitude": 37.63628,
      "name": "CHENEY 0.6 NNE, KS US",
      "datacoverage": 0.162,
      "id": "GHCND:US1KSSG0183",
      "elevationUnit": "METERS",
      "longitude": -97.77709
    },
    {
      "elevation": 402.6,
      "mindate": "2023-01-10",
      "maxdate": "2025-03-06",
      "latitude": 37.7709,
      "name": "WICHITA 5.9 NNW, KS US",
      "datacoverage": 1,
      "id": "GHCND:US1KSSG0184",
      "elevationUnit": "METERS",
      "longitude": -97.36859
    },
    {
      "elevation": 412.4,
      "mindate": "2023-06-01",
      "maxdate": "2025-03-07",
      "latitude": 37.697081,
      "name": "WICHITA 7.4 W, KS US",
      "datacoverage": 1,
      "id": "GHCND:US1KSSG0188",
      "elevationUnit": "METERS",
      "longitude": -97.477239
    },
    {
      "elevation": 436.5,
      "mindate": "2023-06-27",
      "maxdate": "2025-03-06",
      "latitude": 37.790804,
      "name": "ANDALE 0.1 S, KS US",
      "datacoverage": 0.8854,
      "id": "GHCND:US1KSSG0189",
      "elevationUnit": "METERS",
      "longitude": -97.629202
    },
    {
      "elevation": 440.4,
      "mindate": "2023-07-30",
      "maxdate": "2025-03-07",
      "latitude": 37.655068,
      "name": "GARDEN PLAIN 0.5 SSW, KS US",
      "datacoverage": 0.9046,
      "id": "GHCND:US1KSSG0191",
      "elevationUnit": "METERS",
      "longitude": -97.685873
    },
    {
      "elevation": 387.7,
      "mindate": "2023-08-12",
      "maxdate": "2024-11-18",
      "latitude": 37.53611,
      "name": "DERBY 0.9 SSE, KS US",
      "datacoverage": 1,
      "id": "GHCND:US1KSSG0193",
      "elevationUnit": "METERS",
      "longitude": -97.254045
    },
    {
      "elevation": 419.1,
      "mindate": "2023-10-25",
      "maxdate": "2025-03-05",
      "latitude": 37.687707,
      "name": "WICHITA 5.1 E, KS US",
      "datacoverage": 0.9967,
      "id": "GHCND:US1KSSG0195",
      "elevationUnit": "METERS",
      "longitude": -97.250356
    }
  ]
}
