{
  "metadata": {
    "resultset": {
      "offset": 32600,
      "count": 154115,
      "limit": 100
    }
  },
  "results": [
    {
      "elevation": 790,
      "mindate": "1940-01-01",
      "maxdate": "2024-12-31",
      "latitude": -30.0034,
      "name": "STANBOROUGH ROCKFIELD, AS",
      "datacoverage": 0.7529,
      "id": "GHCND:ASN00056167",
      "elevationUnit": "METERS",
      "longitude": 151.0833
    },
    {
      "elevation": 756,
      "mindate": "1965-01-01",
      "maxdate": "1980-05-31",
      "latitude": -30.05,
      "name": "BUNDARRA GLEN HAZEL, AS",
      "datacoverage": 0.9623,
      "id": "GHCND:ASN00056168",
      "elevationUnit": "METERS",
      "longitude": 151.0667
    },
    {
      "elevation": 795,
      "mindate": "1959-01-01",
      "maxdate": "2001-12-31",
      "latitude": -30.0242,
      "name": "TINGHA CHESTERTON, AS",
      "datacoverage": 0.9845,
      "id": "GHCND:ASN00056169",
      "elevationUnit": "METERS",
      "longitude": 151.1462
    },
    {
      "elevation": 705,
      "mindate": "1965-01-01",
      "maxdate": "1999-06-30",
      "latitude": -30.0767,
      "name": "TINGHA MOOKI, AS",
      "datacoverage": 0.9325,
      "id": "GHCND:ASN00056170",
      "elevationUnit": "METERS",
      "longitude": 151.2067
    },
    {
      "elevation": 823,
      "mindate": "1965-01-01",
      "maxdate": "1972-11-30",
      "latitude": -29.9833,
      "name": "KOORINGLE, AS",
      "datacoverage": 1,
      "id": "GHCND:ASN00056171",
      "elevationUnit": "METERS",
      "longitude": 151.2833
    },
    {
      "elevation": 944.9,
      "mindate": "1964-01-01",
      "maxdate": "1969-10-31",
      "latitude": -30.0833,
      "name": "WESTBROOK, AS",
      "datacoverage": 0.9998,
      "id": "GHCND:ASN00056172",
      "elevationUnit": "METERS",
      "longitude": 151.3167
    },
    {
      "elevation": 676.7,
      "mindate": "1965-03-01",
      "maxdate": "1967-07-31",
      "latitude": -30.1167,
      "name": "TORSDALE, AS",
      "datacoverage": 0.9683,
      "id": "GHCND:ASN00056173",
      "elevationUnit": "METERS",
      "longitude": 151.1
    },
    {
      "elevation": 688.8,
      "mindate": "1936-01-01",
      "maxdate": "1967-02-28",
      "latitude": -30.2333,
      "name": "LAURA, AS",
      "datacoverage": 1,
      "id": "GHCND:ASN00056174",
      "elevationUnit": "METERS",
      "longitude": 151.1333
    },
    {
      "elevation": 701,
      "mindate": "1965-01-01",
      "maxdate": "1965-11-30",
      "latitude": -30.2,
      "name": "BUNDARRA PRESTBURY, AS",
      "datacoverage": 1,
      "id": "GHCND:ASN00056175",
      "elevationUnit": "METERS",
      "longitude": 151.1833
    },
    {
      "elevation": 756,
      "mindate": "1750-03-11",
      "maxdate": "2025-01-31",
      "latitude": -30.1369,
      "name": "BUNDARRA BIMBADEEN, AS",
      "datacoverage": 0.9942,
      "id": "GHCND:ASN00056176",
      "elevationUnit": "METERS",
      "longitude": 151.2581
    },
    {
      "elevation": 722.4,
      "mindate": "1947-01-01",
      "maxdate": "1967-12-31",
      "latitude": -30.3667,
      "name": "BUNDARRA FAIRFIELD, AS",
      "datacoverage": 0.9127,
      "id": "GHCND:ASN00056177",
      "elevationUnit": "METERS",
      "longitude": 151.0833
    },
    {
      "elevation": 710,
      "mindate": "1965-01-01",
      "maxdate": "1973-03-31",
      "latitude": -30.2833,
      "name": "BUNDARRA THE CEDARS, AS",
      "datacoverage": 0.9995,
      "id": "GHCND:ASN00056178",
      "elevationUnit": "METERS",
      "longitude": 151.0167
    },
    {
      "elevation": 731.5,
      "mindate": "1965-01-01",
      "maxdate": "1969-01-31",
      "latitude": -30.3667,
      "name": "BRAMBLE BERRY, AS",
      "datacoverage": 0.9792,
      "id": "GHCND:ASN00056179",
      "elevationUnit": "METERS",
      "longitude": 150.9833
    },
    {
      "elevation": 715,
      "mindate": "1750-07-15",
      "maxdate": "2024-12-31",
      "latitude": -30.2979,
      "name": "BUNDARRA SOUTH WINSCOMBE, AS",
      "datacoverage": 0.9935,
      "id": "GHCND:ASN00056180",
      "elevationUnit": "METERS",
      "longitude": 151.0772
    },
    {
      "elevation": 730,
      "mindate": "1965-01-01",
      "maxdate": "1975-11-30",
      "latitude": -30.3,
      "name": "BUNDARRA BINDAWALLA, AS",
      "datacoverage": 0.9163,
      "id": "GHCND:ASN00056182",
      "elevationUnit": "METERS",
      "longitude": 151.2833
    },
    {
      "elevation": 680,
      "mindate": "1960-01-01",
      "maxdate": "1974-10-31",
      "latitude": -30.3167,
      "name": "ABINGTON GLANMIRE, AS",
      "datacoverage": 0.9213,
      "id": "GHCND:ASN00056183",
      "elevationUnit": "METERS",
      "longitude": 151.2
    },
    {
      "elevation": 725.4,
      "mindate": "1955-01-01",
      "maxdate": "1969-02-28",
      "latitude": -30.3667,
      "name": "MERRIFIELD, AS",
      "datacoverage": 0.9885,
      "id": "GHCND:ASN00056184",
      "elevationUnit": "METERS",
      "longitude": 151.2333
    },
    {
      "elevation": 1080,
      "mindate": "1963-07-01",
      "maxdate": "1977-02-28",
      "latitude": -30.1833,
      "name": "TENTERDEN RAMAH, AS",
      "datacoverage": 0.9817,
      "id": "GHCND:ASN00056185",
      "elevationUnit": "METERS",
      "longitude": 151.3333
    },
    {
      "mindate": "1906-07-01",
      "maxdate": "1917-02-28",
      "latitude": -30.5667,
      "name": "HILLGROVE BURROWA, AS",
      "datacoverage": 1,
      "id": "GHCND:ASN00056186",
      "longitude": 151.9
    },
    {
      "elevation": 141.5,
      "mindate": "1966-02-01",
      "maxdate": "1974-01-31",
      "latitude": -30.0167,
      "name": "BEN LOMOND MOUNT PLEASANT, AS",
      "datacoverage": 0.8646,
      "id": "GHCND:ASN00056189",
      "elevationUnit": "METERS",
      "longitude": 151.7
    },
    {
      "elevation": 1280.2,
      "mindate": "1966-02-01",
      "maxdate": "1969-01-31",
      "latitude": -30.1333,
      "name": "GUYRA LLANGOTHLIN, AS",
      "datacoverage": 0.9998,
      "id": "GHCND:ASN00056190",
      "elevationUnit": "METERS",
      "longitude": 151.6833
    },
    {
      "elevation": 980,
      "mindate": "1966-02-01",
      "maxdate": "1974-11-30",
      "latitude": -30.45,
      "name": "ARMIDALE TILBUSTER, AS",
      "datacoverage": 0.8683,
      "id": "GHCND:ASN00056191",
      "elevationUnit": "METERS",
      "longitude": 151.6833
    },
    {
      "elevation": 731.5,
      "mindate": "1966-04-01",
      "maxdate": "1974-03-02",
      "latitude": -30.5,
      "name": "KINGSTOWN 2, AS",
      "datacoverage": 0.9896,
      "id": "GHCND:ASN00056192",
      "elevationUnit": "METERS",
      "longitude": 151.1
    },
    {
      "mindate": "1889-01-01",
      "maxdate": "1925-05-31",
      "latitude": -29.6833,
      "name": "GLEN INNES GLENDON 1, AS",
      "datacoverage": 0.8056,
      "id": "GHCND:ASN00056193",
      "longitude": 151.6667
    },
    {
      "elevation": 930,
      "mindate": "1995-01-01",
      "maxdate": "2024-01-21",
      "latitude": -29.2716,
      "name": "TENTERFIELD KOOKYNIE, AS",
      "datacoverage": 0.7937,
      "id": "GHCND:ASN00056194",
      "elevationUnit": "METERS",
      "longitude": 151.8612
    },
    {
      "elevation": 762,
      "mindate": "1887-01-01",
      "maxdate": "1915-12-31",
      "latitude": -29.8333,
      "name": "NEWSTEAD, AS",
      "datacoverage": 0.98,
      "id": "GHCND:ASN00056195",
      "elevationUnit": "METERS",
      "longitude": 151.3667
    },
    {
      "elevation": 1066.8,
      "mindate": "1903-07-01",
      "maxdate": "1927-01-31",
      "latitude": -30.4667,
      "name": "DUMARESQ, AS",
      "datacoverage": 0.9993,
      "id": "GHCND:ASN00056196",
      "elevationUnit": "METERS",
      "longitude": 151.5833
    },
    {
      "elevation": 1145.1,
      "mindate": "1912-01-01",
      "maxdate": "1925-09-30",
      "latitude": -29.7,
      "name": "TATIARA GENCAIRN, AS",
      "datacoverage": 0.697,
      "id": "GHCND:ASN00056197",
      "elevationUnit": "METERS",
      "longitude": 151.7
    },
    {
      "elevation": 795,
      "mindate": "1987-01-01",
      "maxdate": "2007-06-30",
      "latitude": -29.9453,
      "name": "TINGHA DARBYS ROAD, AS",
      "datacoverage": 1,
      "id": "GHCND:ASN00056198",
      "elevationUnit": "METERS",
      "longitude": 151.2076
    },
    {
      "elevation": 914.4,
      "mindate": "1970-02-01",
      "maxdate": "1974-04-30",
      "latitude": -30.5833,
      "name": "ARDING BOOYONG, AS",
      "datacoverage": 0.9819,
      "id": "GHCND:ASN00056200",
      "elevationUnit": "METERS",
      "longitude": 151.55
    },
    {
      "elevation": 1310.6,
      "mindate": "1966-12-01",
      "maxdate": "1974-07-31",
      "latitude": -31.3833,
      "name": "NIANGALA PINDARI TOPS, AS",
      "datacoverage": 1,
      "id": "GHCND:ASN00056201",
      "elevationUnit": "METERS",
      "longitude": 151.55
    },
    {
      "elevation": 820,
      "mindate": "1750-03-09",
      "maxdate": "2025-02-25",
      "latitude": -28.9776,
      "name": "BLACK SWAMP MAXWELL, AS",
      "datacoverage": 0.9978,
      "id": "GHCND:ASN00056202",
      "elevationUnit": "METERS",
      "longitude": 152.1552
    },
    {
      "elevation": 865,
      "mindate": "1968-01-01",
      "maxdate": "2012-12-31",
      "latitude": -29.0455,
      "name": "BLACK SWAMP ATHLYNE, AS",
      "datacoverage": 0.824,
      "id": "GHCND:ASN00056203",
      "elevationUnit": "METERS",
      "longitude": 152.1343
    },
    {
      "elevation": 640,
      "mindate": "1970-04-01",
      "maxdate": "1982-05-31",
      "latitude": -29.2167,
      "name": "SANDY FLAT CRAIGNOOK, AS",
      "datacoverage": 0.9178,
      "id": "GHCND:ASN00056204",
      "elevationUnit": "METERS",
      "longitude": 151.95
    },
    {
      "elevation": 1105,
      "mindate": "1750-08-08",
      "maxdate": "2024-12-31",
      "latitude": -29.8995,
      "name": "PINKETT BENBOOKRA, AS",
      "datacoverage": 0.9068,
      "id": "GHCND:ASN00056205",
      "elevationUnit": "METERS",
      "longitude": 151.965
    },
    {
      "elevation": 870,
      "mindate": "1750-03-09",
      "maxdate": "2025-01-31",
      "latitude": -28.5417,
      "name": "MARYLAND, AS",
      "datacoverage": 0.9004,
      "id": "GHCND:ASN00056207",
      "elevationUnit": "METERS",
      "longitude": 151.9909
    },
    {
      "elevation": 678,
      "mindate": "1970-04-01",
      "maxdate": "1980-06-30",
      "latitude": -28.4833,
      "name": "CULLENDORE BORDER, AS",
      "datacoverage": 0.9999,
      "id": "GHCND:ASN00056208",
      "elevationUnit": "METERS",
      "longitude": 152.1333
    },
    {
      "elevation": 616,
      "mindate": "1958-08-01",
      "maxdate": "1973-09-30",
      "latitude": -29.7333,
      "name": "INVERELL YARRAWONGA, AS",
      "datacoverage": 0.9999,
      "id": "GHCND:ASN00056209",
      "elevationUnit": "METERS",
      "longitude": 151.0833
    },
    {
      "elevation": 335,
      "mindate": "1971-11-01",
      "maxdate": "1979-11-30",
      "latitude": -29.2167,
      "name": "BONSHAW HAYSTACK, AS",
      "datacoverage": 0.9991,
      "id": "GHCND:ASN00056210",
      "elevationUnit": "METERS",
      "longitude": 151.3833
    },
    {
      "elevation": 560,
      "mindate": "1964-12-01",
      "maxdate": "2015-01-31",
      "latitude": -28.91,
      "name": "SANDY HILLS TOURELLO PARK, AS",
      "datacoverage": 0.6884,
      "id": "GHCND:ASN00056211",
      "elevationUnit": "METERS",
      "longitude": 152.2528
    },
    {
      "elevation": 585,
      "mindate": "1970-04-01",
      "maxdate": "2009-06-30",
      "latitude": -28.8433,
      "name": "TENTERFIELD SANDY HILL BOORO, AS",
      "datacoverage": 1,
      "id": "GHCND:ASN00056212",
      "elevationUnit": "METERS",
      "longitude": 152.2533
    },
    {
      "elevation": 1225.3,
      "mindate": "1947-01-01",
      "maxdate": "1973-03-31",
      "latitude": -31.35,
      "name": "NIANGALA THE FLAGS, AS",
      "datacoverage": 0.994,
      "id": "GHCND:ASN00056213",
      "elevationUnit": "METERS",
      "longitude": 151.5333
    },
    {
      "elevation": 731,
      "mindate": "1969-01-01",
      "maxdate": "2017-12-31",
      "latitude": -30.3123,
      "name": "BUNDARRA WILLOWBANK, AS",
      "datacoverage": 0.9408,
      "id": "GHCND:ASN00056214",
      "elevationUnit": "METERS",
      "longitude": 150.9964
    },
    {
      "elevation": 944.9,
      "mindate": "1969-01-01",
      "maxdate": "1974-03-31",
      "latitude": -28.8833,
      "name": "BOONOO BOONOO POST OFFICE, AS",
      "datacoverage": 0.9993,
      "id": "GHCND:ASN00056215",
      "elevationUnit": "METERS",
      "longitude": 152.1
    },
    {
      "elevation": 390,
      "mindate": "1939-02-01",
      "maxdate": "1961-03-31",
      "latitude": -28.9667,
      "name": "MOLE RIVER DARTHULA, AS",
      "datacoverage": 0.8326,
      "id": "GHCND:ASN00056216",
      "elevationUnit": "METERS",
      "longitude": 151.55
    },
    {
      "elevation": 1310,
      "mindate": "1973-05-01",
      "maxdate": "1978-05-31",
      "latitude": -30.34,
      "name": "GUYRA SPRINGMOUNT, AS",
      "datacoverage": 0.9671,
      "id": "GHCND:ASN00056217",
      "elevationUnit": "METERS",
      "longitude": 151.72
    },
    {
      "elevation": 1025,
      "mindate": "1973-05-01",
      "maxdate": "1976-08-23",
      "latitude": -30.35,
      "name": "BLACK MOUNTAIN ST.ELMO, AS",
      "datacoverage": 0.8989,
      "id": "GHCND:ASN00056218",
      "elevationUnit": "METERS",
      "longitude": 151.3833
    },
    {
      "elevation": 980,
      "mindate": "1958-09-01",
      "maxdate": "1976-11-30",
      "latitude": -29.7167,
      "name": "MATHESON BRUDAV, AS",
      "datacoverage": 1,
      "id": "GHCND:ASN00056220",
      "elevationUnit": "METERS",
      "longitude": 151.5
    },
    {
      "elevation": 914,
      "mindate": "1976-09-01",
      "maxdate": "1980-07-31",
      "latitude": -30.4833,
      "name": "DUMARESQ KIEWA, AS",
      "datacoverage": 1,
      "id": "GHCND:ASN00056221",
      "elevationUnit": "METERS",
      "longitude": 151.5833
    },
    {
      "elevation": 1097.3,
      "mindate": "1964-11-01",
      "maxdate": "1969-06-30",
      "latitude": -29.9167,
      "name": "RED RANGE COORUMBONG, AS",
      "datacoverage": 1,
      "id": "GHCND:ASN00056222",
      "elevationUnit": "METERS",
      "longitude": 151.9833
    },
    {
      "elevation": 1180,
      "mindate": "1978-01-01",
      "maxdate": "1984-07-31",
      "latitude": -31.0333,
      "name": "WALCHA CHERRY BANK, AS",
      "datacoverage": 1,
      "id": "GHCND:ASN00056225",
      "elevationUnit": "METERS",
      "longitude": 151.65
    },
    {
      "elevation": 711,
      "mindate": "1981-01-01",
      "maxdate": "2020-12-29",
      "latitude": -30.5078,
      "name": "KINGSTOWN POST OFFICE, AS",
      "datacoverage": 0.9953,
      "id": "GHCND:ASN00056228",
      "elevationUnit": "METERS",
      "longitude": 151.1141
    },
    {
      "elevation": 1332,
      "mindate": "1750-03-09",
      "maxdate": "2025-02-27",
      "latitude": -30.2126,
      "name": "GUYRA HOSPITAL, AS",
      "datacoverage": 1,
      "id": "GHCND:ASN00056229",
      "elevationUnit": "METERS",
      "longitude": 151.6787
    },
    {
      "elevation": 574,
      "mindate": "1954-05-01",
      "maxdate": "1992-12-31",
      "latitude": -28.4083,
      "name": "LEGUME POST OFFICE, AS",
      "datacoverage": 0.9589,
      "id": "GHCND:ASN00056231",
      "elevationUnit": "METERS",
      "longitude": 152.3067
    },
    {
      "elevation": 830,
      "mindate": "1990-08-01",
      "maxdate": "2005-10-31",
      "latitude": -29.7753,
      "name": "SWAN VALE PIETA, AS",
      "datacoverage": 0.9994,
      "id": "GHCND:ASN00056233",
      "elevationUnit": "METERS",
      "longitude": 151.4852
    },
    {
      "elevation": 1120,
      "mindate": "1750-03-13",
      "maxdate": "2025-01-31",
      "latitude": -30.9874,
      "name": "WALCHA THEE ST, AS",
      "datacoverage": 1,
      "id": "GHCND:ASN00056234",
      "elevationUnit": "METERS",
      "longitude": 151.5855
    },
    {
      "elevation": 1151,
      "mindate": "1750-03-11",
      "maxdate": "2025-01-31",
      "latitude": -31.0109,
      "name": "WALCHA INGLEWOOD, AS",
      "datacoverage": 0.9998,
      "id": "GHCND:ASN00056236",
      "elevationUnit": "METERS",
      "longitude": 151.6246
    },
    {
      "elevation": 700,
      "mindate": "2000-12-01",
      "maxdate": "2025-02-27",
      "latitude": -29.8025,
      "name": "INVERELL ELSMORE VILLAGE, AS",
      "datacoverage": 0.9947,
      "id": "GHCND:ASN00056237",
      "elevationUnit": "METERS",
      "longitude": 151.2726
    },
    {
      "elevation": 1079,
      "mindate": "1994-06-01",
      "maxdate": "2025-02-27",
      "latitude": -30.5273,
      "name": "ARMIDALE AIRPORT AWS, AS",
      "datacoverage": 0.9924,
      "id": "GHCND:ASN00056238",
      "elevationUnit": "METERS",
      "longitude": 151.6158
    },
    {
      "elevation": 965,
      "mindate": "1750-03-09",
      "maxdate": "2025-02-22",
      "latitude": -28.7014,
      "name": "WILSONS DOWNFALL, AS",
      "datacoverage": 1,
      "id": "GHCND:ASN00056239",
      "elevationUnit": "METERS",
      "longitude": 152.0974
    },
    {
      "elevation": 1340,
      "mindate": "2000-12-01",
      "maxdate": "2025-02-27",
      "latitude": -30.3358,
      "name": "GUYRA BOX POINT, AS",
      "datacoverage": 0.9838,
      "id": "GHCND:ASN00056240",
      "elevationUnit": "METERS",
      "longitude": 151.7367
    },
    {
      "elevation": 1055,
      "mindate": "1994-01-01",
      "maxdate": "2023-01-31",
      "latitude": -29.6808,
      "name": "WELLINGROVE MORILLA, AS",
      "datacoverage": 0.9546,
      "id": "GHCND:ASN00056241",
      "elevationUnit": "METERS",
      "longitude": 151.6253
    },
    {
      "elevation": 582,
      "mindate": "1995-03-01",
      "maxdate": "2025-02-27",
      "latitude": -29.7796,
      "name": "INVERELL RAGLAN ST, AS",
      "datacoverage": 0.9999,
      "id": "GHCND:ASN00056242",
      "elevationUnit": "METERS",
      "longitude": 151.1121
    },
    {
      "elevation": 1044.3,
      "mindate": "1996-10-01",
      "maxdate": "2025-02-27",
      "latitude": -29.678,
      "name": "GLEN INNES AIRPORT AWS, AS",
      "datacoverage": 1,
      "id": "GHCND:ASN00056243",
      "elevationUnit": "METERS",
      "longitude": 151.694
    },
    {
      "elevation": 914.4,
      "mindate": "1885-09-01",
      "maxdate": "1970-12-31",
      "latitude": -30.2667,
      "name": "ABERFOYLE, AS",
      "datacoverage": 0.9053,
      "id": "GHCND:ASN00057000",
      "elevationUnit": "METERS",
      "longitude": 152.0167
    },
    {
      "elevation": 1285,
      "mindate": "1902-01-01",
      "maxdate": "2020-09-30",
      "latitude": -30.3659,
      "name": "EBOR GLENOWEN, AS",
      "datacoverage": 0.913,
      "id": "GHCND:ASN00057001",
      "elevationUnit": "METERS",
      "longitude": 152.2315
    },
    {
      "mindate": "1941-04-01",
      "maxdate": "1991-02-28",
      "latitude": -30.2,
      "name": "BILLABONG, AS",
      "datacoverage": 0.9577,
      "id": "GHCND:ASN00057002",
      "longitude": 151.9
    },
    {
      "elevation": 170,
      "mindate": "1750-03-09",
      "maxdate": "2025-02-26",
      "latitude": -28.737,
      "name": "BONALBO POST OFFICE, AS",
      "datacoverage": 0.6996,
      "id": "GHCND:ASN00057003",
      "elevationUnit": "METERS",
      "longitude": 152.6228
    },
    {
      "elevation": 274.3,
      "mindate": "1896-04-01",
      "maxdate": "1970-09-30",
      "latitude": -29.8317,
      "name": "DALMORTON HOMESTEAD, AS",
      "datacoverage": 0.8915,
      "id": "GHCND:ASN00057004",
      "elevationUnit": "METERS",
      "longitude": 152.4067
    },
    {
      "elevation": 490,
      "mindate": "1750-03-09",
      "maxdate": "2025-02-22",
      "latitude": -28.9279,
      "name": "DRAKE VILLAGE RESOURCE CENTRE, AS",
      "datacoverage": 0.9947,
      "id": "GHCND:ASN00057005",
      "elevationUnit": "METERS",
      "longitude": 152.3759
    },
    {
      "elevation": 97,
      "mindate": "1921-01-01",
      "maxdate": "1971-05-31",
      "latitude": -29.4667,
      "name": "DUMPE, AS",
      "datacoverage": 0.9935,
      "id": "GHCND:ASN00057006",
      "elevationUnit": "METERS",
      "longitude": 152.45
    },
    {
      "elevation": 609.9,
      "mindate": "1937-01-01",
      "maxdate": "1975-12-31",
      "latitude": -30.45,
      "name": "ARMIDALE FORGLEN, AS",
      "datacoverage": 0.9787,
      "id": "GHCND:ASN00057007",
      "elevationUnit": "METERS",
      "longitude": 151.9167
    },
    {
      "mindate": "1918-01-01",
      "maxdate": "1961-06-30",
      "latitude": -30.75,
      "name": "GEORGES CREEK, AS",
      "datacoverage": 0.9752,
      "id": "GHCND:ASN00057008",
      "longitude": 152.2
    },
    {
      "elevation": 670.6,
      "mindate": "1934-01-01",
      "maxdate": "1968-06-30",
      "latitude": -28.9,
      "name": "GIRARD STATE FOREST, AS",
      "datacoverage": 0.9977,
      "id": "GHCND:ASN00057009",
      "elevationUnit": "METERS",
      "longitude": 152.3
    },
    {
      "elevation": 1335,
      "mindate": "1887-04-01",
      "maxdate": "1994-12-31",
      "latitude": -30.4333,
      "name": "EBOR KOTUPNA, AS",
      "datacoverage": 0.9892,
      "id": "GHCND:ASN00057010",
      "elevationUnit": "METERS",
      "longitude": 152.3292
    },
    {
      "elevation": 950,
      "mindate": "1907-01-01",
      "maxdate": "2022-12-31",
      "latitude": -30.5774,
      "name": "JEOGLA STATION, AS",
      "datacoverage": 0.9679,
      "id": "GHCND:ASN00057011",
      "elevationUnit": "METERS",
      "longitude": 152.1099
    },
    {
      "elevation": 1004.9,
      "mindate": "1944-12-01",
      "maxdate": "1974-08-31",
      "latitude": -30.4333,
      "name": "KILCOY, AS",
      "datacoverage": 1,
      "id": "GHCND:ASN00057012",
      "elevationUnit": "METERS",
      "longitude": 152
    },
    {
      "mindate": "1899-12-01",
      "maxdate": "1954-08-13",
      "latitude": -30.8,
      "name": "KUNDERANG EAST KENEBREE, AS",
      "datacoverage": 0.9955,
      "id": "GHCND:ASN00057013",
      "longitude": 152.1
    },
    {
      "elevation": 895,
      "mindate": "1750-03-10",
      "maxdate": "2025-02-27",
      "latitude": -29.5577,
      "name": "GLEN ELGIN GLENBROOK, AS",
      "datacoverage": 0.9328,
      "id": "GHCND:ASN00057014",
      "elevationUnit": "METERS",
      "longitude": 152.1388
    },
    {
      "elevation": 190,
      "mindate": "1915-07-01",
      "maxdate": "2010-12-31",
      "latitude": -28.6538,
      "name": "OLD BONALBO POST OFFICE, AS",
      "datacoverage": 0.8473,
      "id": "GHCND:ASN00057015",
      "elevationUnit": "METERS",
      "longitude": 152.5953
    },
    {
      "elevation": 1350,
      "mindate": "1936-07-01",
      "maxdate": "1988-11-30",
      "latitude": -30.5053,
      "name": "NEW ENGLAND NAT.PARK NEW ENGL, AS",
      "datacoverage": 0.6661,
      "id": "GHCND:ASN00057016",
      "elevationUnit": "METERS",
      "longitude": 152.3858
    },
    {
      "elevation": 1030,
      "mindate": "1929-12-01",
      "maxdate": "1994-06-27",
      "latitude": -30.6167,
      "name": "JEOGLA JEOLGA OLD.SF.SITE, AS",
      "datacoverage": 0.9881,
      "id": "GHCND:ASN00057017",
      "elevationUnit": "METERS",
      "longitude": 152.1833
    },
    {
      "elevation": 130,
      "mindate": "1887-05-01",
      "maxdate": "2022-10-28",
      "latitude": -28.8914,
      "name": "TABULAM POST OFFICE, AS",
      "datacoverage": 0.9793,
      "id": "GHCND:ASN00057018",
      "elevationUnit": "METERS",
      "longitude": 152.5663
    },
    {
      "elevation": 185,
      "mindate": "1987-01-01",
      "maxdate": "2014-08-31",
      "latitude": -28.9066,
      "name": "MALLANGANEE SANDILANDS ST, AS",
      "datacoverage": 1,
      "id": "GHCND:ASN00057019",
      "elevationUnit": "METERS",
      "longitude": 152.7255
    },
    {
      "elevation": 370,
      "mindate": "1750-03-09",
      "maxdate": "2025-02-27",
      "latitude": -28.4735,
      "name": "URBENVILLE OLD POST OFFICE, AS",
      "datacoverage": 0.9988,
      "id": "GHCND:ASN00057020",
      "elevationUnit": "METERS",
      "longitude": 152.5481
    },
    {
      "elevation": 365.8,
      "mindate": "1938-04-01",
      "maxdate": "1995-01-31",
      "latitude": -28.4667,
      "name": "URBENVILLE STATE FOREST, AS",
      "datacoverage": 0.9649,
      "id": "GHCND:ASN00057021",
      "elevationUnit": "METERS",
      "longitude": 152.55
    },
    {
      "elevation": 980,
      "mindate": "1901-01-01",
      "maxdate": "2021-12-31",
      "latitude": -30.4905,
      "name": "WOLLOMOMBI WALLAMUMBI, AS",
      "datacoverage": 0.9131,
      "id": "GHCND:ASN00057022",
      "elevationUnit": "METERS",
      "longitude": 152.1004
    },
    {
      "elevation": 1195,
      "mindate": "1750-03-11",
      "maxdate": "2025-02-12",
      "latitude": -30.2892,
      "name": "EBOR WONGWIBINDA, AS",
      "datacoverage": 0.9917,
      "id": "GHCND:ASN00057023",
      "elevationUnit": "METERS",
      "longitude": 152.1701
    },
    {
      "elevation": 395,
      "mindate": "1933-11-01",
      "maxdate": "2024-12-31",
      "latitude": -28.3879,
      "name": "WOODENBONG UNUMGAR ST, AS",
      "datacoverage": 0.997,
      "id": "GHCND:ASN00057024",
      "elevationUnit": "METERS",
      "longitude": 152.6083
    },
    {
      "mindate": "1939-07-01",
      "maxdate": "1944-04-30",
      "latitude": -29.2,
      "name": "TENTERFIELD SURFACE HILL, AS",
      "datacoverage": 1,
      "id": "GHCND:ASN00057025",
      "longitude": 152.3
    },
    {
      "elevation": 565,
      "mindate": "1894-09-01",
      "maxdate": "2018-03-31",
      "latitude": -28.2846,
      "name": "OLD KOREELAH WHITE SWAMP EDE, AS",
      "datacoverage": 0.9306,
      "id": "GHCND:ASN00057026",
      "elevationUnit": "METERS",
      "longitude": 152.5034
    },
    {
      "elevation": 304.8,
      "mindate": "1952-10-01",
      "maxdate": "1971-07-31",
      "latitude": -28.8167,
      "name": "TUNGLEBUNG WINGFIELD, AS",
      "datacoverage": 0.9603,
      "id": "GHCND:ASN00057027",
      "elevationUnit": "METERS",
      "longitude": 152.6833
    },
    {
      "elevation": 997,
      "mindate": "1889-01-01",
      "maxdate": "2022-01-31",
      "latitude": -30.5644,
      "name": "HILLGROVE HILLVIEW, AS",
      "datacoverage": 0.8071,
      "id": "GHCND:ASN00057028",
      "elevationUnit": "METERS",
      "longitude": 151.907
    },
    {
      "mindate": "1940-07-01",
      "maxdate": "1965-03-31",
      "latitude": -30.7167,
      "name": "URALLA TALGAI, AS",
      "datacoverage": 0.9467,
      "id": "GHCND:ASN00057029",
      "longitude": 151.8333
    },
    {
      "elevation": 1215,
      "mindate": "2002-11-01",
      "maxdate": "2005-08-31",
      "latitude": -30.3198,
      "name": "WONGWIBINDA DIAMOND FALLS, AS",
      "datacoverage": 0.9411,
      "id": "GHCND:ASN00057030",
      "elevationUnit": "METERS",
      "longitude": 152.2383
    },
    {
      "elevation": 1036.3,
      "mindate": "1954-06-01",
      "maxdate": "1970-04-30",
      "latitude": -28.35,
      "name": "ACACIA PLATEAU BELMONT, AS",
      "datacoverage": 1,
      "id": "GHCND:ASN00057031",
      "elevationUnit": "METERS",
      "longitude": 152.4333
    },
    {
      "elevation": 1278,
      "mindate": "2003-12-01",
      "maxdate": "2006-05-31",
      "latitude": -30.4829,
      "name": "POINT LOOKOUT YARAANDOO, AS",
      "datacoverage": 0.7001,
      "id": "GHCND:ASN00057032",
      "elevationUnit": "METERS",
      "longitude": 152.3025
    },
    {
      "elevation": 960,
      "mindate": "1959-06-01",
      "maxdate": "2014-03-31",
      "latitude": -30.5112,
      "name": "WOLLOMOMBI POST OFFICE, AS",
      "datacoverage": 0.6322,
      "id": "GHCND:ASN00057033",
      "elevationUnit": "METERS",
      "longitude": 152.0427
    },
    {
      "elevation": 985,
      "mindate": "1961-02-01",
      "maxdate": "1984-02-29",
      "latitude": -30.45,
      "name": "ARMIDALE GOOYONG, AS",
      "datacoverage": 0.993,
      "id": "GHCND:ASN00057034",
      "elevationUnit": "METERS",
      "longitude": 151.8167
    },
    {
      "elevation": 975,
      "mindate": "1750-03-15",
      "maxdate": "2025-02-21",
      "latitude": -31.1333,
      "name": "YARROWITCH BENDITI, AS",
      "datacoverage": 0.9885,
      "id": "GHCND:ASN00057035",
      "elevationUnit": "METERS",
      "longitude": 152.1253
    }
  ]
}
