{
  "metadata": {
    "resultset": {
      "offset": 66400,
      "count": 154115,
      "limit": 100
    }
  },
  "results": [
    {
      "elevation": 1678.8,
      "mindate": "1968-01-01",
      "maxdate": "2002-11-30",
      "latitude": 19.9333,
      "name": "TOMA VEINTISEIS CLFC, MX",
      "datacoverage": 0.4801,
      "id": "GHCND:MXN00021099",
      "elevationUnit": "METERS",
      "longitude": -97.9333
    },
    {
      "elevation": 2441.8,
      "mindate": "1967-01-01",
      "maxdate": "2009-12-31",
      "latitude": 19.1167,
      "name": "VISTA HERMOSA, MX",
      "datacoverage": 0.7422,
      "id": "GHCND:MXN00021100",
      "elevationUnit": "METERS",
      "longitude": -97.7333
    },
    {
      "elevation": 2224.7,
      "mindate": "2009-01-01",
      "maxdate": "2009-12-31",
      "latitude": 19.0333,
      "name": "FLOR DEL BOSQUE, MX",
      "datacoverage": 1,
      "id": "GHCND:MXN00021101",
      "elevationUnit": "METERS",
      "longitude": -98.1
    },
    {
      "elevation": 1949.8,
      "mindate": "1940-03-01",
      "maxdate": "2009-12-31",
      "latitude": 18.7167,
      "name": "XOCHITLAN TODOS SANTOS, MX",
      "datacoverage": 0.8012,
      "id": "GHCND:MXN00021102",
      "elevationUnit": "METERS",
      "longitude": -97.7833
    },
    {
      "elevation": 1827.9,
      "mindate": "1944-07-01",
      "maxdate": "2009-12-31",
      "latitude": 19.8667,
      "name": "ZACAPOAXTLA SMN, MX",
      "datacoverage": 0.8904,
      "id": "GHCND:MXN00021103",
      "elevationUnit": "METERS",
      "longitude": -97.5833
    },
    {
      "elevation": 1732.8,
      "mindate": "1958-01-01",
      "maxdate": "1986-12-31",
      "latitude": 19.8833,
      "name": "ZACAPOAXTLA DGE, MX",
      "datacoverage": 0.888,
      "id": "GHCND:MXN00021104",
      "elevationUnit": "METERS",
      "longitude": -97.5833
    },
    {
      "elevation": 2374.7,
      "mindate": "1945-08-01",
      "maxdate": "1990-01-31",
      "latitude": 19.25,
      "name": "ZACATEPEC, MX",
      "datacoverage": 0.7112,
      "id": "GHCND:MXN00021105",
      "elevationUnit": "METERS",
      "longitude": -97.5333
    },
    {
      "elevation": 2038.8,
      "mindate": "1969-07-01",
      "maxdate": "1983-12-31",
      "latitude": 19.9167,
      "name": "ZACATLAN CLFC, MX",
      "datacoverage": 0.5841,
      "id": "GHCND:MXN00021106",
      "elevationUnit": "METERS",
      "longitude": -97.95
    },
    {
      "elevation": 2083.9,
      "mindate": "1955-12-01",
      "maxdate": "2009-12-31",
      "latitude": 19.95,
      "name": "ZACATLAN, MX",
      "datacoverage": 0.7442,
      "id": "GHCND:MXN00021107",
      "elevationUnit": "METERS",
      "longitude": -97.95
    },
    {
      "elevation": 983,
      "mindate": "1944-05-01",
      "maxdate": "1991-10-31",
      "latitude": 19.9833,
      "name": "ZAPOTITLAN DE MENDEZ, MX",
      "datacoverage": 0.8075,
      "id": "GHCND:MXN00021108",
      "elevationUnit": "METERS",
      "longitude": -97.7167
    },
    {
      "elevation": 1499.9,
      "mindate": "1942-11-01",
      "maxdate": "2009-12-31",
      "latitude": 18.3167,
      "name": "ZAPOTITLAN SALINAS SMN, MX",
      "datacoverage": 0.7097,
      "id": "GHCND:MXN00021109",
      "elevationUnit": "METERS",
      "longitude": -97.4667
    },
    {
      "elevation": 1856.8,
      "mindate": "1972-01-01",
      "maxdate": "1984-12-31",
      "latitude": 18.3333,
      "name": "ZAPOTITLAN SALINAS DGE, MX",
      "datacoverage": 0.987,
      "id": "GHCND:MXN00021110",
      "elevationUnit": "METERS",
      "longitude": -97.4667
    },
    {
      "elevation": 1982.7,
      "mindate": "1954-10-19",
      "maxdate": "2009-09-30",
      "latitude": 19.7,
      "name": "SANTIAGO ZAUTLA CFE, MX",
      "datacoverage": 0.9074,
      "id": "GHCND:MXN00021111",
      "elevationUnit": "METERS",
      "longitude": -97.6667
    },
    {
      "elevation": 1478.9,
      "mindate": "1968-01-01",
      "maxdate": "2002-11-30",
      "latitude": 20.0833,
      "name": "ZEMPOALA CLFC, MX",
      "datacoverage": 0.4872,
      "id": "GHCND:MXN00021112",
      "elevationUnit": "METERS",
      "longitude": -97.9833
    },
    {
      "elevation": 2520.7,
      "mindate": "1942-10-01",
      "maxdate": "1984-06-30",
      "latitude": 18.3333,
      "name": "ZINACATEPEC SMN, MX",
      "datacoverage": 0.7605,
      "id": "GHCND:MXN00021113",
      "elevationUnit": "METERS",
      "longitude": -97.25
    },
    {
      "elevation": 2076.9,
      "mindate": "1953-10-21",
      "maxdate": "2009-12-31",
      "latitude": 18.35,
      "name": "ZOQUITLAN, MX",
      "datacoverage": 0.8916,
      "id": "GHCND:MXN00021114",
      "elevationUnit": "METERS",
      "longitude": -97.0167
    },
    {
      "elevation": 1432,
      "mindate": "2009-01-01",
      "maxdate": "2009-12-31",
      "latitude": 17.9667,
      "name": "SAN CRISTOBAL TULCINGO, MX",
      "datacoverage": 0.9589,
      "id": "GHCND:MXN00021115",
      "elevationUnit": "METERS",
      "longitude": -98.3833
    },
    {
      "elevation": 990.9,
      "mindate": "1927-10-01",
      "maxdate": "1993-11-30",
      "latitude": 18.2833,
      "name": "CHIAUTLA DE TAPIA, MX",
      "datacoverage": 0.6814,
      "id": "GHCND:MXN00021116",
      "elevationUnit": "METERS",
      "longitude": -98.6
    },
    {
      "elevation": 1319.8,
      "mindate": "1969-01-01",
      "maxdate": "2009-12-31",
      "latitude": 19.2833,
      "name": "GUADALUPE VICTORIA, MX",
      "datacoverage": 0.8986,
      "id": "GHCND:MXN00021117",
      "elevationUnit": "METERS",
      "longitude": -97.3333
    },
    {
      "elevation": 1414,
      "mindate": "1921-12-01",
      "maxdate": "2009-12-31",
      "latitude": 20.1833,
      "name": "HUAUCHINANGO, MX",
      "datacoverage": 0.8344,
      "id": "GHCND:MXN00021118",
      "elevationUnit": "METERS",
      "longitude": -98.05
    },
    {
      "elevation": 2896.8,
      "mindate": "1932-01-01",
      "maxdate": "2009-12-31",
      "latitude": 19.5,
      "name": "LIBRES SMN, MX",
      "datacoverage": 0.5809,
      "id": "GHCND:MXN00021119",
      "elevationUnit": "METERS",
      "longitude": -97.75
    },
    {
      "elevation": 1319.8,
      "mindate": "1968-01-01",
      "maxdate": "2002-11-30",
      "latitude": 20.1667,
      "name": "NEXAPA CLFC, MX",
      "datacoverage": 0.537,
      "id": "GHCND:MXN00021121",
      "elevationUnit": "METERS",
      "longitude": -97.9833
    },
    {
      "elevation": 2349.7,
      "mindate": "1944-06-01",
      "maxdate": "1974-05-31",
      "latitude": 19.3667,
      "name": "ORIENTAL, MX",
      "datacoverage": 0.7064,
      "id": "GHCND:MXN00021122",
      "elevationUnit": "METERS",
      "longitude": -97.6167
    },
    {
      "elevation": 1624,
      "mindate": "1942-03-01",
      "maxdate": "2009-12-31",
      "latitude": 18.7667,
      "name": "HUAQUECHULA, MX",
      "datacoverage": 0.5909,
      "id": "GHCND:MXN00021123",
      "elevationUnit": "METERS",
      "longitude": -98.5333
    },
    {
      "elevation": 979.9,
      "mindate": "1942-01-01",
      "maxdate": "1960-11-30",
      "latitude": 18.3667,
      "name": "HUEHUETLAN EL CHICO, MX",
      "datacoverage": 0.9472,
      "id": "GHCND:MXN00021124",
      "elevationUnit": "METERS",
      "longitude": -98.6833
    },
    {
      "elevation": 2219.9,
      "mindate": "1969-07-01",
      "maxdate": "2002-11-30",
      "latitude": 20.05,
      "name": "LAGUNA CLFC, MX",
      "datacoverage": 0.5336,
      "id": "GHCND:MXN00021125",
      "elevationUnit": "METERS",
      "longitude": -98.15
    },
    {
      "elevation": 2327.8,
      "mindate": "1961-03-11",
      "maxdate": "2008-08-31",
      "latitude": 19.8167,
      "name": "LOMA ALTA CFE, MX",
      "datacoverage": 0.9086,
      "id": "GHCND:MXN00021126",
      "elevationUnit": "METERS",
      "longitude": -97.9833
    },
    {
      "elevation": 1097.9,
      "mindate": "1942-11-01",
      "maxdate": "2009-12-31",
      "latitude": 20.2833,
      "name": "XICOTEPEC DE JUAREZ, MX",
      "datacoverage": 0.9463,
      "id": "GHCND:MXN00021127",
      "elevationUnit": "METERS",
      "longitude": -97.95
    },
    {
      "elevation": 502.9,
      "mindate": "1954-10-17",
      "maxdate": "1966-10-09",
      "latitude": 20.0167,
      "name": "EL ROSARIO CFE, MX",
      "datacoverage": 0.9863,
      "id": "GHCND:MXN00021128",
      "elevationUnit": "METERS",
      "longitude": -97.4833
    },
    {
      "elevation": 2584.7,
      "mindate": "1965-03-01",
      "maxdate": "2009-12-31",
      "latitude": 19.6,
      "name": "FRANCISCO I. MADERO, MX",
      "datacoverage": 0.8475,
      "id": "GHCND:MXN00021129",
      "elevationUnit": "METERS",
      "longitude": -97.5
    },
    {
      "elevation": 2662.7,
      "mindate": "1969-07-01",
      "maxdate": "2002-11-30",
      "latitude": 19.8,
      "name": "LOS REYES CLFC, MX",
      "datacoverage": 0.4663,
      "id": "GHCND:MXN00021130",
      "elevationUnit": "METERS",
      "longitude": -98.2333
    },
    {
      "elevation": 1296.9,
      "mindate": "1944-04-01",
      "maxdate": "2009-12-31",
      "latitude": 18.6,
      "name": "IZUCAR DE MATAMOROS SMN, MX",
      "datacoverage": 0.4873,
      "id": "GHCND:MXN00021132",
      "elevationUnit": "METERS",
      "longitude": -98.4667
    },
    {
      "elevation": 1984.9,
      "mindate": "1964-01-01",
      "maxdate": "1968-10-31",
      "latitude": 18.9333,
      "name": "LOS MOLINOS, MX",
      "datacoverage": 1,
      "id": "GHCND:MXN00021134",
      "elevationUnit": "METERS",
      "longitude": -98.3833
    },
    {
      "elevation": 463.9,
      "mindate": "1962-07-01",
      "maxdate": "1969-04-16",
      "latitude": 20.2333,
      "name": "PATLA CFE, MX",
      "datacoverage": 0.9998,
      "id": "GHCND:MXN00021135",
      "elevationUnit": "METERS",
      "longitude": -97.85
    },
    {
      "elevation": 2478.9,
      "mindate": "1942-10-01",
      "maxdate": "2009-12-31",
      "latitude": 19.1,
      "name": "ACAJETE, MX",
      "datacoverage": 0.5434,
      "id": "GHCND:MXN00021136",
      "elevationUnit": "METERS",
      "longitude": -97.95
    },
    {
      "elevation": 1432,
      "mindate": "1973-11-01",
      "maxdate": "1981-05-31",
      "latitude": 18.5,
      "name": "E.T.A. 051 ATENCINGO, MX",
      "datacoverage": 0.8581,
      "id": "GHCND:MXN00021139",
      "elevationUnit": "METERS",
      "longitude": -98.6167
    },
    {
      "elevation": 2290.9,
      "mindate": "1974-12-08",
      "maxdate": "2009-12-31",
      "latitude": 19.8333,
      "name": "CHIGNAHUAPAN, MX",
      "datacoverage": 0.7007,
      "id": "GHCND:MXN00021140",
      "elevationUnit": "METERS",
      "longitude": -98.0167
    },
    {
      "elevation": 976.9,
      "mindate": "1974-06-01",
      "maxdate": "1977-05-31",
      "latitude": 18.3333,
      "name": "C.R.D.F. BENITO JUAREZ, MX",
      "datacoverage": 0.7792,
      "id": "GHCND:MXN00021141",
      "elevationUnit": "METERS",
      "longitude": -98.2667
    },
    {
      "elevation": 267.9,
      "mindate": "1974-05-01",
      "maxdate": "2009-12-31",
      "latitude": 20.5,
      "name": "VENUSTIANO CARRANZA, MX",
      "datacoverage": 0.5166,
      "id": "GHCND:MXN00021142",
      "elevationUnit": "METERS",
      "longitude": -97.6667
    },
    {
      "elevation": 143.9,
      "mindate": "1975-03-19",
      "maxdate": "2009-12-31",
      "latitude": 20.1333,
      "name": "SAN JOSE ACATENO, MX",
      "datacoverage": 0.8592,
      "id": "GHCND:MXN00021143",
      "elevationUnit": "METERS",
      "longitude": -97.2
    },
    {
      "elevation": 2789.8,
      "mindate": "1958-01-01",
      "maxdate": "1988-08-31",
      "latitude": 19.3,
      "name": "GUADALUPE VICTORIA, MX",
      "datacoverage": 0.4272,
      "id": "GHCND:MXN00021145",
      "elevationUnit": "METERS",
      "longitude": -97.3
    },
    {
      "elevation": 278,
      "mindate": "1977-03-01",
      "maxdate": "2009-11-30",
      "latitude": 20.4,
      "name": "APAPANTILLA, MX",
      "datacoverage": 0.6081,
      "id": "GHCND:MXN00021147",
      "elevationUnit": "METERS",
      "longitude": -97.8333
    },
    {
      "elevation": 2582.9,
      "mindate": "1977-11-15",
      "maxdate": "2009-12-31",
      "latitude": 19.1167,
      "name": "SAN MIGUEL CANOA, MX",
      "datacoverage": 0.7035,
      "id": "GHCND:MXN00021148",
      "elevationUnit": "METERS",
      "longitude": -98.0667
    },
    {
      "elevation": 1920.8,
      "mindate": "1978-07-01",
      "maxdate": "1983-11-30",
      "latitude": 18.2833,
      "name": "SAN JUAN ATZINGO, MX",
      "datacoverage": 0.9986,
      "id": "GHCND:MXN00021149",
      "elevationUnit": "METERS",
      "longitude": -97.3833
    },
    {
      "elevation": 2012,
      "mindate": "1978-07-28",
      "maxdate": "1980-05-31",
      "latitude": 18.6667,
      "name": "SAN LUCAS EL VIEJO, MX",
      "datacoverage": 0.868,
      "id": "GHCND:MXN00021150",
      "elevationUnit": "METERS",
      "longitude": -97.7167
    },
    {
      "elevation": 1968.7,
      "mindate": "1978-01-13",
      "maxdate": "1980-05-31",
      "latitude": 18.25,
      "name": "SAN JUAN RAYA, MX",
      "datacoverage": 0.9994,
      "id": "GHCND:MXN00021151",
      "elevationUnit": "METERS",
      "longitude": -97.6167
    },
    {
      "elevation": 2121.7,
      "mindate": "1978-07-25",
      "maxdate": "1980-05-31",
      "latitude": 18.9667,
      "name": "LA COMPAIA, MX",
      "datacoverage": 1,
      "id": "GHCND:MXN00021152",
      "elevationUnit": "METERS",
      "longitude": -97.7167
    },
    {
      "elevation": 2179.9,
      "mindate": "1978-11-01",
      "maxdate": "2009-12-31",
      "latitude": 18.8667,
      "name": "SANTA CATARINA LOS REYES, MX",
      "datacoverage": 0.6818,
      "id": "GHCND:MXN00021154",
      "elevationUnit": "METERS",
      "longitude": -97.4333
    },
    {
      "elevation": 1168,
      "mindate": "1978-08-01",
      "maxdate": "1980-06-23",
      "latitude": 18.3333,
      "name": "ZINACATEPEC DGE, MX",
      "datacoverage": 0.7778,
      "id": "GHCND:MXN00021155",
      "elevationUnit": "METERS",
      "longitude": -97.25
    },
    {
      "elevation": 2507,
      "mindate": "1978-11-08",
      "maxdate": "1981-06-30",
      "latitude": 18.9167,
      "name": "SAN MIGUEL OCOTENGO, MX",
      "datacoverage": 0.558,
      "id": "GHCND:MXN00021156",
      "elevationUnit": "METERS",
      "longitude": -97.4167
    },
    {
      "elevation": 2160.7,
      "mindate": "1978-11-11",
      "maxdate": "1990-09-30",
      "latitude": 18.7167,
      "name": "SAN JOSE IXTAPA, MX",
      "datacoverage": 0.8326,
      "id": "GHCND:MXN00021157",
      "elevationUnit": "METERS",
      "longitude": -97.45
    },
    {
      "elevation": 2886.8,
      "mindate": "1978-11-08",
      "maxdate": "1980-05-31",
      "latitude": 18.9167,
      "name": "PASO CARRETAS, MX",
      "datacoverage": 0.7846,
      "id": "GHCND:MXN00021158",
      "elevationUnit": "METERS",
      "longitude": -97.25
    },
    {
      "elevation": 2304.9,
      "mindate": "1978-11-01",
      "maxdate": "1999-12-31",
      "latitude": 18.85,
      "name": "ESPERANZA, MX",
      "datacoverage": 0.4902,
      "id": "GHCND:MXN00021159",
      "elevationUnit": "METERS",
      "longitude": -97.3667
    },
    {
      "elevation": 3048,
      "mindate": "1978-12-08",
      "maxdate": "1980-06-30",
      "latitude": 18.3833,
      "name": "BOCA DEL MONTE, MX",
      "datacoverage": 0.7075,
      "id": "GHCND:MXN00021160",
      "elevationUnit": "METERS",
      "longitude": -97.0667
    },
    {
      "elevation": 2644.7,
      "mindate": "1978-11-08",
      "maxdate": "1990-12-31",
      "latitude": 18.9,
      "name": "ATZITZINTLA, MX",
      "datacoverage": 0.6247,
      "id": "GHCND:MXN00021161",
      "elevationUnit": "METERS",
      "longitude": -97.3333
    },
    {
      "elevation": 2398.8,
      "mindate": "1978-10-01",
      "maxdate": "1990-12-31",
      "latitude": 19.8,
      "name": "CAMPO EXP. TEZIUTLAN, MX",
      "datacoverage": 0.9862,
      "id": "GHCND:MXN00021162",
      "elevationUnit": "METERS",
      "longitude": -97.3667
    },
    {
      "elevation": 2108,
      "mindate": "1978-01-01",
      "maxdate": "2000-05-31",
      "latitude": 18.9667,
      "name": "EL BATAN, MX",
      "datacoverage": 0.9092,
      "id": "GHCND:MXN00021163",
      "elevationUnit": "METERS",
      "longitude": -98.1667
    },
    {
      "elevation": 3391.8,
      "mindate": "1978-04-01",
      "maxdate": "1996-11-30",
      "latitude": 19.2,
      "name": "C.A.E. SAN JUAN TETLA, MX",
      "datacoverage": 0.915,
      "id": "GHCND:MXN00021164",
      "elevationUnit": "METERS",
      "longitude": -98.5
    },
    {
      "elevation": 1823.9,
      "mindate": "1979-09-01",
      "maxdate": "2009-12-31",
      "latitude": 18.4,
      "name": "AHUATEMPAN, MX",
      "datacoverage": 0.7349,
      "id": "GHCND:MXN00021165",
      "elevationUnit": "METERS",
      "longitude": -98.0167
    },
    {
      "elevation": 976,
      "mindate": "1980-01-01",
      "maxdate": "1994-12-31",
      "latitude": 18.0167,
      "name": "ANONAS, MX",
      "datacoverage": 0.8722,
      "id": "GHCND:MXN00021166",
      "elevationUnit": "METERS",
      "longitude": -98.3
    },
    {
      "elevation": 2316.8,
      "mindate": "1980-01-01",
      "maxdate": "2009-12-31",
      "latitude": 19.1,
      "name": "SAN ANDRES CALPAN, MX",
      "datacoverage": 0.7777,
      "id": "GHCND:MXN00021167",
      "elevationUnit": "METERS",
      "longitude": -98.45
    },
    {
      "elevation": 1172.9,
      "mindate": "1979-11-16",
      "maxdate": "2001-11-30",
      "latitude": 18.2167,
      "name": "PEAS, MX",
      "datacoverage": 0.7221,
      "id": "GHCND:MXN00021169",
      "elevationUnit": "METERS",
      "longitude": -98.2167
    },
    {
      "elevation": 2436.9,
      "mindate": "1979-10-17",
      "maxdate": "1993-03-31",
      "latitude": 18.8167,
      "name": "LA PURISIMA, MX",
      "datacoverage": 0.7991,
      "id": "GHCND:MXN00021170",
      "elevationUnit": "METERS",
      "longitude": -97.5667
    },
    {
      "elevation": 2272,
      "mindate": "1979-09-19",
      "maxdate": "1993-11-30",
      "latitude": 18.8833,
      "name": "SANTA CRUZ MONTERROSAS, MX",
      "datacoverage": 0.611,
      "id": "GHCND:MXN00021171",
      "elevationUnit": "METERS",
      "longitude": -97.55
    },
    {
      "elevation": 897.9,
      "mindate": "1979-08-23",
      "maxdate": "1990-11-30",
      "latitude": 18.1833,
      "name": "SANTA MARIA COHETZALA, MX",
      "datacoverage": 0.8931,
      "id": "GHCND:MXN00021172",
      "elevationUnit": "METERS",
      "longitude": -98.8
    },
    {
      "elevation": 2034.8,
      "mindate": "1979-12-01",
      "maxdate": "1995-04-30",
      "latitude": 18.95,
      "name": "SANTA MARIA TECHACHALCO, MX",
      "datacoverage": 0.7401,
      "id": "GHCND:MXN00021173",
      "elevationUnit": "METERS",
      "longitude": -97.4667
    },
    {
      "elevation": 1051.9,
      "mindate": "1979-09-01",
      "maxdate": "1997-04-30",
      "latitude": 19.9667,
      "name": "TEPECAPAN CFE, MX",
      "datacoverage": 0.9993,
      "id": "GHCND:MXN00021174",
      "elevationUnit": "METERS",
      "longitude": -97.6333
    },
    {
      "elevation": 1449.9,
      "mindate": "1980-03-29",
      "maxdate": "1995-12-31",
      "latitude": 18.05,
      "name": "SANTA ANA TEPEJILLO, MX",
      "datacoverage": 0.8568,
      "id": "GHCND:MXN00021175",
      "elevationUnit": "METERS",
      "longitude": -97.8333
    },
    {
      "elevation": 1440.8,
      "mindate": "1979-08-01",
      "maxdate": "2009-12-31",
      "latitude": 18.1833,
      "name": "TONAHUIXTLA, MX",
      "datacoverage": 0.684,
      "id": "GHCND:MXN00021176",
      "elevationUnit": "METERS",
      "longitude": -97.9167
    },
    {
      "elevation": 1088.7,
      "mindate": "1980-09-01",
      "maxdate": "2009-12-31",
      "latitude": 18.6333,
      "name": "TEPEXCO, MX",
      "datacoverage": 0.4943,
      "id": "GHCND:MXN00021177",
      "elevationUnit": "METERS",
      "longitude": -98.6833
    },
    {
      "elevation": 1428,
      "mindate": "1980-08-01",
      "maxdate": "1987-03-31",
      "latitude": 18.0333,
      "name": "TULCINGO DEL VALLE, MX",
      "datacoverage": 0.9991,
      "id": "GHCND:MXN00021178",
      "elevationUnit": "METERS",
      "longitude": -98.0167
    },
    {
      "elevation": 966.8,
      "mindate": "1980-09-11",
      "maxdate": "1985-09-30",
      "latitude": 18.4167,
      "name": "TLACUALPICAN, MX",
      "datacoverage": 0.9993,
      "id": "GHCND:MXN00021179",
      "elevationUnit": "METERS",
      "longitude": -98.6833
    },
    {
      "elevation": 849.8,
      "mindate": "1979-01-28",
      "maxdate": "1980-05-31",
      "latitude": 18.3667,
      "name": "OZTOPULCO, MX",
      "datacoverage": 1,
      "id": "GHCND:MXN00021180",
      "elevationUnit": "METERS",
      "longitude": -96.9
    },
    {
      "elevation": 1059.8,
      "mindate": "1979-03-01",
      "maxdate": "1980-05-31",
      "latitude": 18.4833,
      "name": "XONOTIPA, MX",
      "datacoverage": 1,
      "id": "GHCND:MXN00021181",
      "elevationUnit": "METERS",
      "longitude": -96.8833
    },
    {
      "elevation": 235.9,
      "mindate": "1979-03-16",
      "maxdate": "1984-12-31",
      "latitude": 18.9,
      "name": "PALMARITO, MX",
      "datacoverage": 0.9993,
      "id": "GHCND:MXN00021182",
      "elevationUnit": "METERS",
      "longitude": -97.6333
    },
    {
      "elevation": 1269.8,
      "mindate": "1981-05-27",
      "maxdate": "1993-08-31",
      "latitude": 18,
      "name": "ACAXTLAHUACAN, MX",
      "datacoverage": 0.85,
      "id": "GHCND:MXN00021183",
      "elevationUnit": "METERS",
      "longitude": -98.5333
    },
    {
      "elevation": 2422.9,
      "mindate": "1979-09-01",
      "maxdate": "1988-07-31",
      "latitude": 19.4333,
      "name": "LIBRES DGE, MX",
      "datacoverage": 0.6661,
      "id": "GHCND:MXN00021184",
      "elevationUnit": "METERS",
      "longitude": -97.6833
    },
    {
      "elevation": 424.9,
      "mindate": "1979-11-01",
      "maxdate": "2009-12-31",
      "latitude": 20.4333,
      "name": "PIEDRAS NEGRAS, MX",
      "datacoverage": 0.3611,
      "id": "GHCND:MXN00021185",
      "elevationUnit": "METERS",
      "longitude": -97.75
    },
    {
      "elevation": 1227.7,
      "mindate": "1981-06-12",
      "maxdate": "1986-12-31",
      "latitude": 18.2167,
      "name": "SAN JUAN PILCAYA, MX",
      "datacoverage": 0.9993,
      "id": "GHCND:MXN00021187",
      "elevationUnit": "METERS",
      "longitude": -98.7
    },
    {
      "elevation": 994.9,
      "mindate": "1981-06-18",
      "maxdate": "1993-01-31",
      "latitude": 18.1333,
      "name": "TECUATITLAN, MX",
      "datacoverage": 0.5367,
      "id": "GHCND:MXN00021188",
      "elevationUnit": "METERS",
      "longitude": -98.3
    },
    {
      "elevation": 978.7,
      "mindate": "1981-01-01",
      "maxdate": "2009-12-31",
      "latitude": 18.4667,
      "name": "TEOTLALCO, MX",
      "datacoverage": 0.5632,
      "id": "GHCND:MXN00021189",
      "elevationUnit": "METERS",
      "longitude": -98.7667
    },
    {
      "elevation": 2124.8,
      "mindate": "1981-01-01",
      "maxdate": "2009-12-31",
      "latitude": 20.1167,
      "name": "VENTA GRANDE, MX",
      "datacoverage": 0.4655,
      "id": "GHCND:MXN00021190",
      "elevationUnit": "METERS",
      "longitude": -98.1
    },
    {
      "elevation": 2608.8,
      "mindate": "1981-01-01",
      "maxdate": "1990-12-31",
      "latitude": 19.3333,
      "name": "TLAHUAPAN, MX",
      "datacoverage": 0.4834,
      "id": "GHCND:MXN00021191",
      "elevationUnit": "METERS",
      "longitude": -98.5667
    },
    {
      "elevation": 2024.8,
      "mindate": "1982-01-01",
      "maxdate": "2009-12-31",
      "latitude": 18.85,
      "name": "HUILANGO E 2, MX",
      "datacoverage": 0.7709,
      "id": "GHCND:MXN00021192",
      "elevationUnit": "METERS",
      "longitude": -98.5833
    },
    {
      "elevation": 2142.7,
      "mindate": "1963-01-01",
      "maxdate": "2009-12-31",
      "latitude": 18.9167,
      "name": "SAN PEDRO BENITO JUAREZ E 1, MX",
      "datacoverage": 0.7206,
      "id": "GHCND:MXN00021193",
      "elevationUnit": "METERS",
      "longitude": -98.55
    },
    {
      "elevation": 1449.9,
      "mindate": "1982-01-01",
      "maxdate": "1993-06-30",
      "latitude": 18.9,
      "name": "SANTA CATARINA E 28, MX",
      "datacoverage": 0.7611,
      "id": "GHCND:MXN00021194",
      "elevationUnit": "METERS",
      "longitude": -98.6167
    },
    {
      "elevation": 2158,
      "mindate": "1963-01-01",
      "maxdate": "1996-08-31",
      "latitude": 18.9,
      "name": "SANTA CRUZ CUAUTOMATITLA E 3, MX",
      "datacoverage": 0.6931,
      "id": "GHCND:MXN00021195",
      "elevationUnit": "METERS",
      "longitude": -98.55
    },
    {
      "elevation": 1952.9,
      "mindate": "1982-01-01",
      "maxdate": "1991-12-31",
      "latitude": 18.85,
      "name": "TOCHIMILCO D 1, MX",
      "datacoverage": 0.7834,
      "id": "GHCND:MXN00021196",
      "elevationUnit": "METERS",
      "longitude": -98.55
    },
    {
      "elevation": 2162.9,
      "mindate": "1982-01-01",
      "maxdate": "2009-12-31",
      "latitude": 18.8333,
      "name": "TOCHIMILCO D 2, MX",
      "datacoverage": 0.6431,
      "id": "GHCND:MXN00021197",
      "elevationUnit": "METERS",
      "longitude": -98.6
    },
    {
      "elevation": 1058.9,
      "mindate": "1982-01-01",
      "maxdate": "2009-12-31",
      "latitude": 18.1,
      "name": "CHILA DE LA SAL, MX",
      "datacoverage": 0.2738,
      "id": "GHCND:MXN00021198",
      "elevationUnit": "METERS",
      "longitude": -98.4833
    },
    {
      "elevation": 1099.7,
      "mindate": "1982-01-01",
      "maxdate": "1985-09-30",
      "latitude": 18.0833,
      "name": "GUADALUPE, MX",
      "datacoverage": 0.9343,
      "id": "GHCND:MXN00021199",
      "elevationUnit": "METERS",
      "longitude": -98.15
    },
    {
      "elevation": 3493.9,
      "mindate": "1980-02-01",
      "maxdate": "1994-03-31",
      "latitude": 19.45,
      "name": "LIBRES CRP, MX",
      "datacoverage": 0.6661,
      "id": "GHCND:MXN00021200",
      "elevationUnit": "METERS",
      "longitude": -97.6833
    },
    {
      "elevation": 2421.9,
      "mindate": "1982-07-22",
      "maxdate": "2009-12-31",
      "latitude": 19.9833,
      "name": "LAS MARGARITAS, MX",
      "datacoverage": 0.3999,
      "id": "GHCND:MXN00021201",
      "elevationUnit": "METERS",
      "longitude": -97.2833
    },
    {
      "elevation": 146.9,
      "mindate": "1982-07-01",
      "maxdate": "1984-11-30",
      "latitude": 20.6167,
      "name": "MECAPALAPA, MX",
      "datacoverage": 1,
      "id": "GHCND:MXN00021202",
      "elevationUnit": "METERS",
      "longitude": -97.8833
    },
    {
      "elevation": 1727,
      "mindate": "1982-05-13",
      "maxdate": "2009-12-31",
      "latitude": 18.7333,
      "name": "MOLCAXAC, MX",
      "datacoverage": 0.6529,
      "id": "GHCND:MXN00021203",
      "elevationUnit": "METERS",
      "longitude": -97.9
    },
    {
      "elevation": 1298.8,
      "mindate": "1982-07-01",
      "maxdate": "1991-12-31",
      "latitude": 20.1833,
      "name": "NEXAPA, MX",
      "datacoverage": 0.9986,
      "id": "GHCND:MXN00021204",
      "elevationUnit": "METERS",
      "longitude": -97.9833
    },
    {
      "elevation": 1040.9,
      "mindate": "1981-08-01",
      "maxdate": "2009-12-31",
      "latitude": 18.3667,
      "name": "SANTA CRUZ TEJALPA, MX",
      "datacoverage": 0.7067,
      "id": "GHCND:MXN00021205",
      "elevationUnit": "METERS",
      "longitude": -98.35
    },
    {
      "elevation": 1414,
      "mindate": "1982-02-26",
      "maxdate": "1989-04-30",
      "latitude": 18.6167,
      "name": "SANTA CATARINA TLALTEMPAN, MX",
      "datacoverage": 0.9986,
      "id": "GHCND:MXN00021206",
      "elevationUnit": "METERS",
      "longitude": -98.0833
    },
    {
      "elevation": 2493,
      "mindate": "1982-07-12",
      "maxdate": "2009-12-31",
      "latitude": 19.7833,
      "name": "ZARAGOZA, MX",
      "datacoverage": 0.2808,
      "id": "GHCND:MXN00021207",
      "elevationUnit": "METERS",
      "longitude": -97.55
    },
    {
      "elevation": 1029.9,
      "mindate": "1983-01-01",
      "maxdate": "1997-04-30",
      "latitude": 19.9333,
      "name": "GOMEZ PONIENTE CFE, MX",
      "datacoverage": 0.9479,
      "id": "GHCND:MXN00021208",
      "elevationUnit": "METERS",
      "longitude": -97.4833
    }
  ]
}
