{
  "metadata": {
    "resultset": {
      "offset": 104000,
      "count": 154115,
      "limit": 100
    }
  },
  "results": [
    {
      "elevation": 125.3,
      "mindate": "2008-03-01",
      "maxdate": "2015-10-03",
      "latitude": 40.971307,
      "name": "NORTH HALEDON 0.6 N, NJ US",
      "datacoverage": 0.4455,
      "id": "GHCND:US1NJPS0004",
      "elevationUnit": "METERS",
      "longitude": -74.185553
    },
    {
      "elevation": 24.4,
      "mindate": "2008-03-01",
      "maxdate": "2019-08-16",
      "latitude": 40.951692,
      "name": "HAWTHORNE 0.4 S, NJ US",
      "datacoverage": 1,
      "id": "GHCND:US1NJPS0005",
      "elevationUnit": "METERS",
      "longitude": -74.157339
    },
    {
      "elevation": 69.2,
      "mindate": "2008-07-01",
      "maxdate": "2010-12-25",
      "latitude": 40.94117,
      "name": "WAYNE TWP 1.1 ESE, NJ US",
      "datacoverage": 0.999,
      "id": "GHCND:US1NJPS0008",
      "elevationUnit": "METERS",
      "longitude": -74.226746
    },
    {
      "elevation": 92.4,
      "mindate": "2009-05-01",
      "maxdate": "2011-08-27",
      "latitude": 41.110675,
      "name": "RINGWOOD 1.0 ENE, NJ US",
      "datacoverage": 0.6295,
      "id": "GHCND:US1NJPS0010",
      "elevationUnit": "METERS",
      "longitude": -74.257472
    },
    {
      "elevation": 58.5,
      "mindate": "2009-08-01",
      "maxdate": "2025-03-07",
      "latitude": 40.879633,
      "name": "LITTLE FALLS TWP 0.5 WNW, NJ US",
      "datacoverage": 1,
      "id": "GHCND:US1NJPS0012",
      "elevationUnit": "METERS",
      "longitude": -74.227041
    },
    {
      "elevation": 200.6,
      "mindate": "2010-01-01",
      "maxdate": "2013-01-28",
      "latitude": 41.170455,
      "name": "WEST MILFORD TWP 5.5 NE, NJ US",
      "datacoverage": 1,
      "id": "GHCND:US1NJPS0013",
      "elevationUnit": "METERS",
      "longitude": -74.329297
    },
    {
      "elevation": 18,
      "mindate": "2010-01-01",
      "maxdate": "2025-03-06",
      "latitude": 40.9436378,
      "name": "HAWTHORNE 1.0 SSE, NJ US",
      "datacoverage": 1,
      "id": "GHCND:US1NJPS0014",
      "elevationUnit": "METERS",
      "longitude": -74.1522675
    },
    {
      "elevation": 59.1,
      "mindate": "2010-04-01",
      "maxdate": "2025-03-06",
      "latitude": 40.9369056,
      "name": "WAYNE TWP 0.8 SSW, NJ US",
      "datacoverage": 0.998,
      "id": "GHCND:US1NJPS0015",
      "elevationUnit": "METERS",
      "longitude": -74.2515049
    },
    {
      "elevation": 194.2,
      "mindate": "2010-04-01",
      "maxdate": "2013-06-16",
      "latitude": 41.140991,
      "name": "WEST MILFORD TWP 3.2 NE, NJ US",
      "datacoverage": 1,
      "id": "GHCND:US1NJPS0016",
      "elevationUnit": "METERS",
      "longitude": -74.353632
    },
    {
      "elevation": 89.9,
      "mindate": "2010-04-01",
      "maxdate": "2012-06-13",
      "latitude": 40.89175,
      "name": "WOODLAND PARK 0.1 NW, NJ US",
      "datacoverage": 0.5925,
      "id": "GHCND:US1NJPS0017",
      "elevationUnit": "METERS",
      "longitude": -74.19602
    },
    {
      "elevation": 39.3,
      "mindate": "2010-06-01",
      "maxdate": "2023-04-29",
      "latitude": 40.91631,
      "name": "PATERSON 2.0 W, NJ US",
      "datacoverage": 0.4531,
      "id": "GHCND:US1NJPS0018",
      "elevationUnit": "METERS",
      "longitude": -74.200476
    },
    {
      "elevation": 69.8,
      "mindate": "2010-07-01",
      "maxdate": "2014-07-16",
      "latitude": 41.0350772,
      "name": "WANAQUE 0.6 S, NJ US",
      "datacoverage": 0.9996,
      "id": "GHCND:US1NJPS0019",
      "elevationUnit": "METERS",
      "longitude": -74.289165
    },
    {
      "elevation": 284.4,
      "mindate": "2010-09-01",
      "maxdate": "2025-03-07",
      "latitude": 41.073932,
      "name": "WEST MILFORD TWP 2.5 SSE, NJ US",
      "datacoverage": 1,
      "id": "GHCND:US1NJPS0021",
      "elevationUnit": "METERS",
      "longitude": -74.367994
    },
    {
      "elevation": 185.9,
      "mindate": "2011-07-01",
      "maxdate": "2025-03-07",
      "latitude": 41.065332,
      "name": "RINGWOOD 3.0 SSE, NJ US",
      "datacoverage": 0.9994,
      "id": "GHCND:US1NJPS0022",
      "elevationUnit": "METERS",
      "longitude": -74.2571509
    },
    {
      "elevation": 110.3,
      "mindate": "2014-11-01",
      "maxdate": "2019-07-19",
      "latitude": 41.020218,
      "name": "BLOOMINGDALE 0.7 SSE, NJ US",
      "datacoverage": 1,
      "id": "GHCND:US1NJPS0025",
      "elevationUnit": "METERS",
      "longitude": -74.3289
    },
    {
      "elevation": 43,
      "mindate": "2016-02-09",
      "maxdate": "2024-11-15",
      "latitude": 40.87818,
      "name": "LITTLE FALLS TWP 0.2 NE, NJ US",
      "datacoverage": 0.2815,
      "id": "GHCND:US1NJPS0028",
      "elevationUnit": "METERS",
      "longitude": -74.21576
    },
    {
      "elevation": 354.2,
      "mindate": "2018-04-01",
      "maxdate": "2022-01-02",
      "latitude": 41.187427,
      "name": "WEST MILFORD TWP 5.7 N, NJ US",
      "datacoverage": 0.8365,
      "id": "GHCND:US1NJPS0032",
      "elevationUnit": "METERS",
      "longitude": -74.379846
    },
    {
      "elevation": 110.6,
      "mindate": "1998-06-17",
      "maxdate": "2024-08-04",
      "latitude": 41.007317,
      "name": "BLOOMINGDALE 1.6 S, NJ US",
      "datacoverage": 0.0877,
      "id": "GHCND:US1NJPS0038",
      "elevationUnit": "METERS",
      "longitude": -74.331047
    },
    {
      "elevation": 67.4,
      "mindate": "2019-06-22",
      "maxdate": "2019-11-18",
      "latitude": 41.01218,
      "name": "POMPTON LAKES 0.8 NNE, NJ US",
      "datacoverage": 0.9898,
      "id": "GHCND:US1NJPS0039",
      "elevationUnit": "METERS",
      "longitude": -74.27771
    },
    {
      "elevation": 89,
      "mindate": "2019-11-08",
      "maxdate": "2025-03-07",
      "latitude": 41.006785,
      "name": "WAYNE TWP 4.2 NNW, NJ US",
      "datacoverage": 0.9993,
      "id": "GHCND:US1NJPS0040",
      "elevationUnit": "METERS",
      "longitude": -74.266384
    },
    {
      "elevation": 137.5,
      "mindate": "2020-04-29",
      "maxdate": "2025-03-07",
      "latitude": 40.9306,
      "name": "WAYNE TWP 2.3 ESE, NJ US",
      "datacoverage": 0.8753,
      "id": "GHCND:US1NJPS0042",
      "elevationUnit": "METERS",
      "longitude": -74.207
    },
    {
      "elevation": 91.4,
      "mindate": "2020-07-09",
      "maxdate": "2022-04-08",
      "latitude": 41.00377,
      "name": "BLOOMINGDALE 1.8 S, NJ US",
      "datacoverage": 0.998,
      "id": "GHCND:US1NJPS0043",
      "elevationUnit": "METERS",
      "longitude": -74.3319
    },
    {
      "elevation": 33.8,
      "mindate": "2009-01-01",
      "maxdate": "2010-04-14",
      "latitude": 39.589911,
      "name": "ELMER 0.1 S, NJ US",
      "datacoverage": 1,
      "id": "GHCND:US1NJSL0001",
      "elevationUnit": "METERS",
      "longitude": -75.172675
    },
    {
      "elevation": 14.3,
      "mindate": "1998-06-01",
      "maxdate": "2025-03-07",
      "latitude": 39.656066,
      "name": "WOODSTOWN 0.6 NW, NJ US",
      "datacoverage": 0.9805,
      "id": "GHCND:US1NJSL0002",
      "elevationUnit": "METERS",
      "longitude": -75.333833
    },
    {
      "elevation": 24.1,
      "mindate": "2011-10-01",
      "maxdate": "2021-01-30",
      "latitude": 39.513747,
      "name": "PITTSGROVE TWP 1.9 S, NJ US",
      "datacoverage": 0.9998,
      "id": "GHCND:US1NJSL0003",
      "elevationUnit": "METERS",
      "longitude": -75.136298
    },
    {
      "elevation": 2.7,
      "mindate": "2012-01-01",
      "maxdate": "2021-07-26",
      "latitude": 39.653731,
      "name": "PENNSVILLE TWP 2.0 NNW, NJ US",
      "datacoverage": 1,
      "id": "GHCND:US1NJSL0007",
      "elevationUnit": "METERS",
      "longitude": -75.518191
    },
    {
      "elevation": 5.2,
      "mindate": "2018-12-08",
      "maxdate": "2024-12-05",
      "latitude": 39.631996,
      "name": "PENNSVILLE TWP 0.7 NE, NJ US",
      "datacoverage": 0.886,
      "id": "GHCND:US1NJSL0013",
      "elevationUnit": "METERS",
      "longitude": -75.498436
    },
    {
      "elevation": 36.9,
      "mindate": "2024-01-01",
      "maxdate": "2025-03-07",
      "latitude": 39.56361,
      "name": "PITTSGROVE TWP 1.9 NNE, NJ US",
      "datacoverage": 0.713,
      "id": "GHCND:US1NJSL0014",
      "elevationUnit": "METERS",
      "longitude": -75.11139
    },
    {
      "elevation": 29.9,
      "mindate": "2008-01-01",
      "maxdate": "2017-12-31",
      "latitude": 40.472647,
      "name": "HILLSBOROUGH TWP 4.7 ESE, NJ US",
      "datacoverage": 1,
      "id": "GHCND:US1NJSM0001",
      "elevationUnit": "METERS",
      "longitude": -74.590393
    },
    {
      "elevation": 91.7,
      "mindate": "2008-01-01",
      "maxdate": "2025-03-07",
      "latitude": 40.683056,
      "name": "BERNARDS TWP 0.9 ENE, NJ US",
      "datacoverage": 0.9193,
      "id": "GHCND:US1NJSM0002",
      "elevationUnit": "METERS",
      "longitude": -74.552361
    },
    {
      "elevation": 32,
      "mindate": "2008-02-01",
      "maxdate": "2015-11-16",
      "latitude": 40.4929639816729,
      "name": "FRANKLIN TWP 2.1 ENE, NJ US",
      "datacoverage": 1,
      "id": "GHCND:US1NJSM0003",
      "elevationUnit": "METERS",
      "longitude": -74.5174527168274
    },
    {
      "elevation": 92.7,
      "mindate": "1998-06-01",
      "maxdate": "2025-03-07",
      "latitude": 40.683417,
      "name": "BERNARDS TWP 0.6 NNW, NJ US",
      "datacoverage": 0.9392,
      "id": "GHCND:US1NJSM0004",
      "elevationUnit": "METERS",
      "longitude": -74.573111
    },
    {
      "elevation": 32.9,
      "mindate": "2008-03-01",
      "maxdate": "2025-03-06",
      "latitude": 40.626247,
      "name": "BRIDGEWATER TWP 3.3 NW, NJ US",
      "datacoverage": 0.9998,
      "id": "GHCND:US1NJSM0005",
      "elevationUnit": "METERS",
      "longitude": -74.653535
    },
    {
      "elevation": 22.6,
      "mindate": "2008-05-01",
      "maxdate": "2011-08-28",
      "latitude": 40.5266,
      "name": "FRANKLIN TWP 4.5 NW, NJ US",
      "datacoverage": 0.5248,
      "id": "GHCND:US1NJSM0007",
      "elevationUnit": "METERS",
      "longitude": -74.5792
    },
    {
      "elevation": 42.1,
      "mindate": "2008-12-01",
      "maxdate": "2011-01-27",
      "latitude": 40.593649,
      "name": "BRIDGEWATER TWP 1.9 W, NJ US",
      "datacoverage": 0.9992,
      "id": "GHCND:US1NJSM0009",
      "elevationUnit": "METERS",
      "longitude": -74.643393
    },
    {
      "elevation": 157.3,
      "mindate": "2009-04-01",
      "maxdate": "2025-03-07",
      "latitude": 40.656339,
      "name": "BEDMINSTER TWP 2.9 ESE, NJ US",
      "datacoverage": 0.9999,
      "id": "GHCND:US1NJSM0011",
      "elevationUnit": "METERS",
      "longitude": -74.630458
    },
    {
      "elevation": 25.6,
      "mindate": "2009-04-01",
      "maxdate": "2025-03-06",
      "latitude": 40.500581,
      "name": "FRANKLIN TWP 3.8 ENE, NJ US",
      "datacoverage": 0.9999,
      "id": "GHCND:US1NJSM0012",
      "elevationUnit": "METERS",
      "longitude": -74.487521
    },
    {
      "elevation": 18.6,
      "mindate": "2009-07-01",
      "maxdate": "2024-04-12",
      "latitude": 40.570408,
      "name": "SOMERVILLE 0.2 ENE, NJ US",
      "datacoverage": 0.9998,
      "id": "GHCND:US1NJSM0013",
      "elevationUnit": "METERS",
      "longitude": -74.605258
    },
    {
      "elevation": 31.4,
      "mindate": "2009-07-01",
      "maxdate": "2014-06-16",
      "latitude": 40.50174,
      "name": "HILLSBOROUGH TWP 0.4 ENE, NJ US",
      "datacoverage": 0.9501,
      "id": "GHCND:US1NJSM0015",
      "elevationUnit": "METERS",
      "longitude": -74.667081
    },
    {
      "elevation": 29.9,
      "mindate": "2009-10-01",
      "maxdate": "2011-12-23",
      "latitude": 40.431018,
      "name": "MONTGOMERY TWP 1.3 ENE, NJ US",
      "datacoverage": 0.9627,
      "id": "GHCND:US1NJSM0020",
      "elevationUnit": "METERS",
      "longitude": -74.65478
    },
    {
      "elevation": 27.7,
      "mindate": "2009-11-01",
      "maxdate": "2019-01-05",
      "latitude": 40.455171,
      "name": "MONTGOMERY TWP 3.0 NE, NJ US",
      "datacoverage": 1,
      "id": "GHCND:US1NJSM0021",
      "elevationUnit": "METERS",
      "longitude": -74.636121
    },
    {
      "elevation": 30.5,
      "mindate": "2009-09-01",
      "maxdate": "2020-06-16",
      "latitude": 40.393599,
      "name": "MONTGOMERY TWP 2.3 S, NJ US",
      "datacoverage": 1,
      "id": "GHCND:US1NJSM0022",
      "elevationUnit": "METERS",
      "longitude": -74.677282
    },
    {
      "elevation": 31.4,
      "mindate": "2009-10-01",
      "maxdate": "2016-10-10",
      "latitude": 40.4511,
      "name": "MONTGOMERY TWP 1.8 NNE, NJ US",
      "datacoverage": 1,
      "id": "GHCND:US1NJSM0023",
      "elevationUnit": "METERS",
      "longitude": -74.6699
    },
    {
      "elevation": 31.1,
      "mindate": "2012-09-01",
      "maxdate": "2021-02-10",
      "latitude": 40.51232791,
      "name": "FRANKLIN TWP 3.1 NE, NJ US",
      "datacoverage": 1,
      "id": "GHCND:US1NJSM0026",
      "elevationUnit": "METERS",
      "longitude": -74.51740483
    },
    {
      "elevation": 36,
      "mindate": "2010-03-01",
      "maxdate": "2014-01-03",
      "latitude": 40.51376225,
      "name": "HILLSBOROUGH TWP 1.0 N, NJ US",
      "datacoverage": 0.9983,
      "id": "GHCND:US1NJSM0027",
      "elevationUnit": "METERS",
      "longitude": -74.6739391
    },
    {
      "elevation": 211.8,
      "mindate": "2010-03-01",
      "maxdate": "2010-12-02",
      "latitude": 40.72813,
      "name": "BERNARDSVILLE 0.2 WNW, NJ US",
      "datacoverage": 1,
      "id": "GHCND:US1NJSM0028",
      "elevationUnit": "METERS",
      "longitude": -74.59456
    },
    {
      "elevation": 98.1,
      "mindate": "2010-10-01",
      "maxdate": "2012-10-01",
      "latitude": 40.6830463,
      "name": "BERNARDS TWP 0.7 NW, NJ US",
      "datacoverage": 1,
      "id": "GHCND:US1NJSM0030",
      "elevationUnit": "METERS",
      "longitude": -74.577703
    },
    {
      "elevation": 135,
      "mindate": "2011-05-01",
      "maxdate": "2021-03-16",
      "latitude": 40.73434,
      "name": "PEAPACK GLADSTONE 1.3 NNE, NJ US",
      "datacoverage": 0.9824,
      "id": "GHCND:US1NJSM0031",
      "elevationUnit": "METERS",
      "longitude": -74.64776
    },
    {
      "elevation": 25.3,
      "mindate": "2011-04-01",
      "maxdate": "2017-11-30",
      "latitude": 40.5247212,
      "name": "HILLSBOROUGH TWP 2.4 NW, NJ US",
      "datacoverage": 0.883,
      "id": "GHCND:US1NJSM0033",
      "elevationUnit": "METERS",
      "longitude": -74.7029517
    },
    {
      "elevation": 28.7,
      "mindate": "2011-05-01",
      "maxdate": "2024-01-26",
      "latitude": 40.573289,
      "name": "BRIDGEWATER TWP 1.6 SSE, NJ US",
      "datacoverage": 0.813,
      "id": "GHCND:US1NJSM0034",
      "elevationUnit": "METERS",
      "longitude": -74.590783
    },
    {
      "elevation": 15.5,
      "mindate": "2012-03-01",
      "maxdate": "2020-09-03",
      "latitude": 40.546163,
      "name": "FRANKLIN TWP 4.6 NNW, NJ US",
      "datacoverage": 0.9996,
      "id": "GHCND:US1NJSM0039",
      "elevationUnit": "METERS",
      "longitude": -74.52874
    },
    {
      "elevation": 88.1,
      "mindate": "2012-04-01",
      "maxdate": "2020-03-19",
      "latitude": 40.61485,
      "name": "WARREN TWP 1.5 SSE, NJ US",
      "datacoverage": 1,
      "id": "GHCND:US1NJSM0040",
      "elevationUnit": "METERS",
      "longitude": -74.49939
    },
    {
      "elevation": 26.5,
      "mindate": "2012-09-01",
      "maxdate": "2014-09-30",
      "latitude": 40.560619354248,
      "name": "BRIDGEWATER TWP 3.8 SW, NJ US",
      "datacoverage": 1,
      "id": "GHCND:US1NJSM0045",
      "elevationUnit": "METERS",
      "longitude": -74.6649475097656
    },
    {
      "elevation": 57.3,
      "mindate": "2012-08-01",
      "maxdate": "2015-01-07",
      "latitude": 40.61399167,
      "name": "BRIDGEWATER TWP 1.6 NNW, NJ US",
      "datacoverage": 0.999,
      "id": "GHCND:US1NJSM0046",
      "elevationUnit": "METERS",
      "longitude": -74.622775
    },
    {
      "elevation": 32.9,
      "mindate": "2012-10-01",
      "maxdate": "2015-01-19",
      "latitude": 40.581615447998,
      "name": "BRIDGEWATER TWP 3.2 WSW, NJ US",
      "datacoverage": 1,
      "id": "GHCND:US1NJSM0049",
      "elevationUnit": "METERS",
      "longitude": -74.667350769043
    },
    {
      "elevation": 58.2,
      "mindate": "2012-08-01",
      "maxdate": "2018-11-05",
      "latitude": 40.609153,
      "name": "BRANCHBURG TWP 3.3 NNE, NJ US",
      "datacoverage": 0.9775,
      "id": "GHCND:US1NJSM0050",
      "elevationUnit": "METERS",
      "longitude": -74.699205
    },
    {
      "elevation": 68.6,
      "mindate": "2013-07-01",
      "maxdate": "2019-03-04",
      "latitude": 40.6541997939348,
      "name": "BERNARDS TWP 1.5 S, NJ US",
      "datacoverage": 0.5,
      "id": "GHCND:US1NJSM0053",
      "elevationUnit": "METERS",
      "longitude": -74.5678360015154
    },
    {
      "elevation": 92,
      "mindate": "2013-08-01",
      "maxdate": "2015-08-06",
      "latitude": 40.726758,
      "name": "PEAPACK GLADSTONE 1.0 NW, NJ US",
      "datacoverage": 0.8799,
      "id": "GHCND:US1NJSM0054",
      "elevationUnit": "METERS",
      "longitude": -74.671036
    },
    {
      "elevation": 27.4,
      "mindate": "2014-01-03",
      "maxdate": "2018-03-08",
      "latitude": 40.5584,
      "name": "BRIDGEWATER TWP 4.0 SW, NJ US",
      "datacoverage": 0.9819,
      "id": "GHCND:US1NJSM0055",
      "elevationUnit": "METERS",
      "longitude": -74.6687
    },
    {
      "elevation": 48.5,
      "mindate": "2014-01-01",
      "maxdate": "2025-03-06",
      "latitude": 40.4078674316406,
      "name": "FRANKLIN TWP 5.9 SW, NJ US",
      "datacoverage": 1,
      "id": "GHCND:US1NJSM0056",
      "elevationUnit": "METERS",
      "longitude": -74.6198501586914
    },
    {
      "elevation": 39.3,
      "mindate": "2014-03-01",
      "maxdate": "2015-10-29",
      "latitude": 40.576791,
      "name": "RARITAN 0.3 NNE, NJ US",
      "datacoverage": 0.998,
      "id": "GHCND:US1NJSM0057",
      "elevationUnit": "METERS",
      "longitude": -74.64018
    },
    {
      "elevation": 103.6,
      "mindate": "2014-06-01",
      "maxdate": "2018-11-01",
      "latitude": 40.713358,
      "name": "BERNARDSVILLE 1.2 SE, NJ US",
      "datacoverage": 0.9939,
      "id": "GHCND:US1NJSM0059",
      "elevationUnit": "METERS",
      "longitude": -74.578519
    },
    {
      "elevation": 13.7,
      "mindate": "2014-08-01",
      "maxdate": "2019-05-08",
      "latitude": 40.538178,
      "name": "MANVILLE 0.3 SSW, NJ US",
      "datacoverage": 1,
      "id": "GHCND:US1NJSM0061",
      "elevationUnit": "METERS",
      "longitude": -74.592144
    },
    {
      "elevation": 32.3,
      "mindate": "2014-10-01",
      "maxdate": "2017-08-27",
      "latitude": 40.52176,
      "name": "HILLSBOROUGH TWP 2.0 NE, NJ US",
      "datacoverage": 0.9998,
      "id": "GHCND:US1NJSM0062",
      "elevationUnit": "METERS",
      "longitude": -74.649778
    },
    {
      "elevation": 28.7,
      "mindate": "2015-11-15",
      "maxdate": "2025-03-06",
      "latitude": 40.4997978210449,
      "name": "FRANKLIN TWP 2.7 NE, NJ US",
      "datacoverage": 0.862,
      "id": "GHCND:US1NJSM0063",
      "elevationUnit": "METERS",
      "longitude": -74.5114059448242
    },
    {
      "elevation": 23.8,
      "mindate": "2016-01-30",
      "maxdate": "2025-03-07",
      "latitude": 40.52888889,
      "name": "FRANKLIN TWP 3.9 NNW, NJ US",
      "datacoverage": 0.9549,
      "id": "GHCND:US1NJSM0064",
      "elevationUnit": "METERS",
      "longitude": -74.575
    },
    {
      "elevation": 34.7,
      "mindate": "2016-03-25",
      "maxdate": "2025-03-07",
      "latitude": 40.467727,
      "name": "HILLSBOROUGH TWP 3.5 SE, NJ US",
      "datacoverage": 1,
      "id": "GHCND:US1NJSM0065",
      "elevationUnit": "METERS",
      "longitude": -74.621788
    },
    {
      "elevation": 82.3,
      "mindate": "2016-05-26",
      "maxdate": "2025-03-06",
      "latitude": 40.67335,
      "name": "FAR HILLS 1.2 S, NJ US",
      "datacoverage": 0.9717,
      "id": "GHCND:US1NJSM0066",
      "elevationUnit": "METERS",
      "longitude": -74.62358333
    },
    {
      "elevation": 36,
      "mindate": "2017-08-13",
      "maxdate": "2025-03-07",
      "latitude": 40.491701,
      "name": "FRANKLIN TWP 2.4 ENE, NJ US",
      "datacoverage": 0.9986,
      "id": "GHCND:US1NJSM0067",
      "elevationUnit": "METERS",
      "longitude": -74.510772
    },
    {
      "elevation": 18.6,
      "mindate": "1998-06-17",
      "maxdate": "2025-03-07",
      "latitude": 40.54261,
      "name": "MANVILLE 0.6 W, NJ US",
      "datacoverage": 1,
      "id": "GHCND:US1NJSM0068",
      "elevationUnit": "METERS",
      "longitude": -74.60065
    },
    {
      "elevation": 95.4,
      "mindate": "2018-05-07",
      "maxdate": "2025-03-07",
      "latitude": 40.7291,
      "name": "PEAPACK GLADSTONE 1.2 NW, NJ US",
      "datacoverage": 0.8891,
      "id": "GHCND:US1NJSM0071",
      "elevationUnit": "METERS",
      "longitude": -74.6737
    },
    {
      "elevation": 101.2,
      "mindate": "2019-06-25",
      "maxdate": "2025-03-07",
      "latitude": 40.634733,
      "name": "WARREN TWP 1.3 W, NJ US",
      "datacoverage": 0.5967,
      "id": "GHCND:US1NJSM0082",
      "elevationUnit": "METERS",
      "longitude": -74.538928
    },
    {
      "elevation": 44.8,
      "mindate": "2018-12-08",
      "maxdate": "2025-03-06",
      "latitude": 40.586,
      "name": "BRANCHBURG TWP 2.0 NE, NJ US",
      "datacoverage": 0.3805,
      "id": "GHCND:US1NJSM0084",
      "elevationUnit": "METERS",
      "longitude": -74.692
    },
    {
      "elevation": 26.2,
      "mindate": "2019-01-11",
      "maxdate": "2022-09-30",
      "latitude": 40.56607,
      "name": "BRIDGEWATER TWP 3.1 SW, NJ US",
      "datacoverage": 0.9986,
      "id": "GHCND:US1NJSM0086",
      "elevationUnit": "METERS",
      "longitude": -74.65406
    },
    {
      "elevation": 76.5,
      "mindate": "2019-08-01",
      "maxdate": "2023-10-22",
      "latitude": 40.60978,
      "name": "BRIDGEWATER TWP 1.5 NE, NJ US",
      "datacoverage": 0.9462,
      "id": "GHCND:US1NJSM0088",
      "elevationUnit": "METERS",
      "longitude": -74.58889
    },
    {
      "elevation": 27.7,
      "mindate": "2020-01-15",
      "maxdate": "2025-03-06",
      "latitude": 40.4888,
      "name": "HILLSBOROUGH TWP 2.6 ESE, NJ US",
      "datacoverage": 0.669,
      "id": "GHCND:US1NJSM0089",
      "elevationUnit": "METERS",
      "longitude": -74.62564
    },
    {
      "elevation": 91.4,
      "mindate": "2020-11-22",
      "maxdate": "2022-01-20",
      "latitude": 40.414281,
      "name": "FRANKLIN TWP 4.9 SSW, NJ US",
      "datacoverage": 0.8118,
      "id": "GHCND:US1NJSM0091",
      "elevationUnit": "METERS",
      "longitude": -74.597889
    },
    {
      "elevation": 25.6,
      "mindate": "2021-02-17",
      "maxdate": "2025-03-07",
      "latitude": 40.523236,
      "name": "FRANKLIN TWP 3.4 NNW, NJ US",
      "datacoverage": 1,
      "id": "GHCND:US1NJSM0092",
      "elevationUnit": "METERS",
      "longitude": -74.570204
    },
    {
      "elevation": 36,
      "mindate": "2021-03-21",
      "maxdate": "2025-03-06",
      "latitude": 40.565272,
      "name": "BRIDGEWATER TWP 3.7 WSW, NJ US",
      "datacoverage": 0.998,
      "id": "GHCND:US1NJSM0093",
      "elevationUnit": "METERS",
      "longitude": -74.668147
    },
    {
      "elevation": 15.8,
      "mindate": "2021-09-01",
      "maxdate": "2025-03-06",
      "latitude": 40.5915,
      "name": "GREEN BROOK TWP 0.9 S, NJ US",
      "datacoverage": 0.9772,
      "id": "GHCND:US1NJSM0094",
      "elevationUnit": "METERS",
      "longitude": -74.4848
    },
    {
      "elevation": 113.7,
      "mindate": "2021-11-29",
      "maxdate": "2022-08-15",
      "latitude": 40.6121,
      "name": "WARREN TWP 2.1 SW, NJ US",
      "datacoverage": 1,
      "id": "GHCND:US1NJSM0095",
      "elevationUnit": "METERS",
      "longitude": -74.5433
    },
    {
      "elevation": 65.2,
      "mindate": "2021-01-30",
      "maxdate": "2022-12-23",
      "latitude": 40.6899,
      "name": "BEDMINSTER TWP 2.2 NE, NJ US",
      "datacoverage": 0.2309,
      "id": "GHCND:US1NJSM0096",
      "elevationUnit": "METERS",
      "longitude": -74.6494
    },
    {
      "elevation": 39,
      "mindate": "2022-08-21",
      "maxdate": "2024-01-02",
      "latitude": 40.611584,
      "name": "BRIDGEWATER TWP 2.1 NW, NJ US",
      "datacoverage": 0.8804,
      "id": "GHCND:US1NJSM0098",
      "elevationUnit": "METERS",
      "longitude": -74.640437
    },
    {
      "elevation": 117.7,
      "mindate": "2022-08-31",
      "maxdate": "2025-03-06",
      "latitude": 40.648571,
      "name": "WATCHUNG 1.4 WNW, NJ US",
      "datacoverage": 0.7454,
      "id": "GHCND:US1NJSM0099",
      "elevationUnit": "METERS",
      "longitude": -74.464775
    },
    {
      "elevation": 51.8,
      "mindate": "2023-04-12",
      "maxdate": "2025-03-07",
      "latitude": 40.613822,
      "name": "BRIDGEWATER TWP 1.7 NW, NJ US",
      "datacoverage": 0.9465,
      "id": "GHCND:US1NJSM0101",
      "elevationUnit": "METERS",
      "longitude": -74.626501
    },
    {
      "elevation": 118.9,
      "mindate": "2023-07-04",
      "maxdate": "2025-01-18",
      "latitude": 40.7117,
      "name": "BERNARDSVILLE 1.1 SSE, NJ US",
      "datacoverage": 0.9356,
      "id": "GHCND:US1NJSM0103",
      "elevationUnit": "METERS",
      "longitude": -74.58473
    },
    {
      "elevation": 237.7,
      "mindate": "2023-09-01",
      "maxdate": "2025-03-07",
      "latitude": 40.727317,
      "name": "BERNARDSVILLE 0.7 W, NJ US",
      "datacoverage": 1,
      "id": "GHCND:US1NJSM0104",
      "elevationUnit": "METERS",
      "longitude": -74.604128
    },
    {
      "elevation": 93.6,
      "mindate": "2024-03-05",
      "maxdate": "2025-02-23",
      "latitude": 40.628285,
      "name": "BRIDGEWATER TWP 2.4 N, NJ US",
      "datacoverage": 0.8316,
      "id": "GHCND:US1NJSM0105",
      "elevationUnit": "METERS",
      "longitude": -74.610452
    },
    {
      "elevation": 125.6,
      "mindate": "2024-04-29",
      "maxdate": "2025-03-06",
      "latitude": 40.603889,
      "name": "BRIDGEWATER TWP 0.9 NE, NJ US",
      "datacoverage": 0.7515,
      "id": "GHCND:US1NJSM0107",
      "elevationUnit": "METERS",
      "longitude": -74.597222
    },
    {
      "elevation": 202.1,
      "mindate": "2008-02-01",
      "maxdate": "2024-07-03",
      "latitude": 41.0197442772322,
      "name": "ANDOVER TWP 1.7 W, NJ US",
      "datacoverage": 1,
      "id": "GHCND:US1NJSS0001",
      "elevationUnit": "METERS",
      "longitude": -74.761061668396
    },
    {
      "elevation": 139.9,
      "mindate": "2008-02-01",
      "maxdate": "2025-03-07",
      "latitude": 41.221509,
      "name": "VERNON TWP 1.7 N, NJ US",
      "datacoverage": 1,
      "id": "GHCND:US1NJSS0003",
      "elevationUnit": "METERS",
      "longitude": -74.487989
    },
    {
      "elevation": 323.4,
      "mindate": "2008-03-01",
      "maxdate": "2025-03-07",
      "latitude": 41.089027,
      "name": "HARDYSTON TWP 3.2 SE, NJ US",
      "datacoverage": 0.9998,
      "id": "GHCND:US1NJSS0007",
      "elevationUnit": "METERS",
      "longitude": -74.539946
    },
    {
      "elevation": 250.9,
      "mindate": "2008-11-01",
      "maxdate": "2011-08-28",
      "latitude": 41.0812920966557,
      "name": "NEWTON 1.9 N, NJ US",
      "datacoverage": 0.7179,
      "id": "GHCND:US1NJSS0009",
      "elevationUnit": "METERS",
      "longitude": -74.7463738918304
    },
    {
      "elevation": 308.5,
      "mindate": "2008-11-01",
      "maxdate": "2010-02-15",
      "latitude": 41.02436,
      "name": "SPARTA TWP 1.6 S, NJ US",
      "datacoverage": 1,
      "id": "GHCND:US1NJSS0010",
      "elevationUnit": "METERS",
      "longitude": -74.623401
    },
    {
      "elevation": 198.1,
      "mindate": "2009-08-01",
      "maxdate": "2010-05-23",
      "latitude": 41.178442,
      "name": "VERNON TWP 2.4 WSW, NJ US",
      "datacoverage": 1,
      "id": "GHCND:US1NJSS0016",
      "elevationUnit": "METERS",
      "longitude": -74.523264
    },
    {
      "elevation": 185.3,
      "mindate": "2009-08-01",
      "maxdate": "2016-09-21",
      "latitude": 41.292887,
      "name": "WANTAGE TWP 3.5 N, NJ US",
      "datacoverage": 0.998,
      "id": "GHCND:US1NJSS0017",
      "elevationUnit": "METERS",
      "longitude": -74.617582
    },
    {
      "elevation": 174,
      "mindate": "2009-08-01",
      "maxdate": "2016-09-30",
      "latitude": 41.228838,
      "name": "WANTAGE TWP 1.5 SE, NJ US",
      "datacoverage": 1,
      "id": "GHCND:US1NJSS0020",
      "elevationUnit": "METERS",
      "longitude": -74.60585
    },
    {
      "elevation": 210.6,
      "mindate": "2009-08-01",
      "maxdate": "2012-04-24",
      "latitude": 41.2122380582868,
      "name": "VERNON TWP 2.2 WNW, NJ US",
      "datacoverage": 1,
      "id": "GHCND:US1NJSS0022",
      "elevationUnit": "METERS",
      "longitude": -74.5221519470215
    },
    {
      "elevation": 378,
      "mindate": "2009-08-01",
      "maxdate": "2011-06-24",
      "latitude": 41.0524066,
      "name": "SPARTA TWP 3.7 E, NJ US",
      "datacoverage": 1,
      "id": "GHCND:US1NJSS0023",
      "elevationUnit": "METERS",
      "longitude": -74.5558995
    },
    {
      "elevation": 172.5,
      "mindate": "2010-06-01",
      "maxdate": "2012-10-29",
      "latitude": 41.15688,
      "name": "LAFAYETTE TWP 3.6 NE, NJ US",
      "datacoverage": 0.5165,
      "id": "GHCND:US1NJSS0026",
      "elevationUnit": "METERS",
      "longitude": -74.63484
    }
  ]
}
