{
  "metadata": {
    "resultset": {
      "offset": 22300,
      "count": 154115,
      "limit": 100
    }
  },
  "results": [
    {
      "elevation": 175,
      "mindate": "1964-04-01",
      "maxdate": "1970-12-31",
      "latitude": -20.635,
      "name": "CALLAWA, AS",
      "datacoverage": 0.4197,
      "id": "GHCND:ASN00004080",
      "elevationUnit": "METERS",
      "longitude": 120.5
    },
    {
      "elevation": 244,
      "mindate": "1944-05-01",
      "maxdate": "1945-04-30",
      "latitude": -21.4333,
      "name": "CORUNNA DOWNS AIRSTRIP, AS",
      "datacoverage": 0.417,
      "id": "GHCND:ASN00004081",
      "elevationUnit": "METERS",
      "longitude": 119.7833
    },
    {
      "elevation": 20,
      "mindate": "1971-11-01",
      "maxdate": "2003-10-31",
      "latitude": -20.615,
      "name": "CAPE LAMBERT, AS",
      "datacoverage": 0.776,
      "id": "GHCND:ASN00004082",
      "elevationUnit": "METERS",
      "longitude": 117.1633
    },
    {
      "elevation": 7,
      "mindate": "1750-03-10",
      "maxdate": "2025-02-27",
      "latitude": -20.7097,
      "name": "KARRATHA AERO, AS",
      "datacoverage": 0.9639,
      "id": "GHCND:ASN00004083",
      "elevationUnit": "METERS",
      "longitude": 116.7742
    },
    {
      "elevation": 164,
      "mindate": "1972-08-01",
      "maxdate": "1993-10-31",
      "latitude": -20.4958,
      "name": "SHAY GAP, AS",
      "datacoverage": 0.8862,
      "id": "GHCND:ASN00004084",
      "elevationUnit": "METERS",
      "longitude": 120.1672
    },
    {
      "mindate": "1898-07-01",
      "maxdate": "1900-11-30",
      "latitude": -21.75,
      "name": "TAMBOURAH, AS",
      "datacoverage": 0.4826,
      "id": "GHCND:ASN00004085",
      "longitude": 119.1833
    },
    {
      "elevation": 30,
      "mindate": "1750-03-10",
      "maxdate": "2025-02-13",
      "latitude": -20.8956,
      "name": "SHERLOCK, AS",
      "datacoverage": 0.6292,
      "id": "GHCND:ASN00004086",
      "elevationUnit": "METERS",
      "longitude": 117.6447
    },
    {
      "elevation": 200,
      "mindate": "1984-01-01",
      "maxdate": "1986-12-03",
      "latitude": -21.2333,
      "name": "HARDING RIVER 3, AS",
      "datacoverage": 0.6665,
      "id": "GHCND:ASN00004087",
      "elevationUnit": "METERS",
      "longitude": 117.05
    },
    {
      "elevation": 200,
      "mindate": "1977-03-01",
      "maxdate": "1984-02-29",
      "latitude": -21.1467,
      "name": "NORTH POLE, AS",
      "datacoverage": 0.6071,
      "id": "GHCND:ASN00004088",
      "elevationUnit": "METERS",
      "longitude": 119.4333
    },
    {
      "elevation": 10,
      "mindate": "1981-02-01",
      "maxdate": "2009-12-31",
      "latitude": -20.6744,
      "name": "WICKHAM, AS",
      "datacoverage": 0.9609,
      "id": "GHCND:ASN00004089",
      "elevationUnit": "METERS",
      "longitude": 117.1428
    },
    {
      "elevation": 10.7,
      "mindate": "2001-06-01",
      "maxdate": "2025-02-27",
      "latitude": -20.7594,
      "name": "ROEBOURNE AERO, AS",
      "datacoverage": 1,
      "id": "GHCND:ASN00004090",
      "elevationUnit": "METERS",
      "longitude": 117.1583
    },
    {
      "elevation": 60,
      "mindate": "1983-04-01",
      "maxdate": "2004-12-31",
      "latitude": -20.9786,
      "name": "HARDING DAM, AS",
      "datacoverage": 0.6627,
      "id": "GHCND:ASN00004092",
      "elevationUnit": "METERS",
      "longitude": 117.0953
    },
    {
      "elevation": 60,
      "mindate": "1983-12-01",
      "maxdate": "2001-02-28",
      "latitude": -20.3292,
      "name": "STRELLEY PUMPING STATION, AS",
      "datacoverage": 0.8328,
      "id": "GHCND:ASN00004093",
      "elevationUnit": "METERS",
      "longitude": 119.1878
    },
    {
      "elevation": 160,
      "mindate": "1989-09-01",
      "maxdate": "1992-02-29",
      "latitude": -20.4119,
      "name": "NIMINGARRA MINE, AS",
      "datacoverage": 1,
      "id": "GHCND:ASN00004094",
      "elevationUnit": "METERS",
      "longitude": 120.0103
    },
    {
      "elevation": 450,
      "mindate": "1988-01-01",
      "maxdate": "1996-11-30",
      "latitude": -22.4272,
      "name": "MOUNT DIVIDE, AS",
      "datacoverage": 0.9345,
      "id": "GHCND:ASN00004096",
      "elevationUnit": "METERS",
      "longitude": 120.8578
    },
    {
      "elevation": 48,
      "mindate": "1991-07-01",
      "maxdate": "2001-09-01",
      "latitude": -20.6175,
      "name": "DAMPIER PORT, AS",
      "datacoverage": 1,
      "id": "GHCND:ASN00004097",
      "elevationUnit": "METERS",
      "longitude": 116.7517
    },
    {
      "elevation": 22,
      "mindate": "1990-06-01",
      "maxdate": "2001-02-28",
      "latitude": -20.2906,
      "name": "DE GREY BOREFIELD, AS",
      "datacoverage": 0.9148,
      "id": "GHCND:ASN00004098",
      "elevationUnit": "METERS",
      "longitude": 119.28
    },
    {
      "elevation": 18,
      "mindate": "1992-05-01",
      "maxdate": "1994-04-30",
      "latitude": -20.7381,
      "name": "KARRATHA TOWN, AS",
      "datacoverage": 0.728,
      "id": "GHCND:ASN00004099",
      "elevationUnit": "METERS",
      "longitude": 116.8489
    },
    {
      "mindate": "1973-01-01",
      "maxdate": "1983-11-30",
      "latitude": -20.3167,
      "name": "R 1 BOREHOLE, AS",
      "datacoverage": 0.5345,
      "id": "GHCND:ASN00004101",
      "longitude": 119.3333
    },
    {
      "elevation": 220,
      "mindate": "1993-12-01",
      "maxdate": "2024-06-30",
      "latitude": -21.2933,
      "name": "MEENTHEENA, AS",
      "datacoverage": 0.4282,
      "id": "GHCND:ASN00004102",
      "elevationUnit": "METERS",
      "longitude": 120.4658
    },
    {
      "elevation": 290,
      "mindate": "1996-04-01",
      "maxdate": "2013-02-28",
      "latitude": -21.6672,
      "name": "NIFTY COPPER MINE, AS",
      "datacoverage": 0.4997,
      "id": "GHCND:ASN00004103",
      "elevationUnit": "METERS",
      "longitude": 121.5756
    },
    {
      "elevation": 9,
      "mindate": "1998-12-01",
      "maxdate": "2001-09-30",
      "latitude": -20.3736,
      "name": "PORT HEDLAND MILOS AWS COMPARI, AS",
      "datacoverage": 1,
      "id": "GHCND:ASN00004104",
      "elevationUnit": "METERS",
      "longitude": 118.6297
    },
    {
      "elevation": 182.3,
      "mindate": "2000-09-01",
      "maxdate": "2025-02-27",
      "latitude": -21.1756,
      "name": "MARBLE BAR, AS",
      "datacoverage": 0.9949,
      "id": "GHCND:ASN00004106",
      "elevationUnit": "METERS",
      "longitude": 119.7497
    },
    {
      "mindate": "1911-07-01",
      "maxdate": "1951-01-31",
      "latitude": -22.5833,
      "name": "BOOLALOO, AS",
      "datacoverage": 0.9662,
      "id": "GHCND:ASN00005000",
      "longitude": 115.85
    },
    {
      "elevation": 360,
      "mindate": "1750-03-14",
      "maxdate": "2025-02-27",
      "latitude": -21.8047,
      "name": "COOLAWANYAH, AS",
      "datacoverage": 0.8471,
      "id": "GHCND:ASN00005001",
      "elevationUnit": "METERS",
      "longitude": 117.8056
    },
    {
      "elevation": 280,
      "mindate": "1946-01-01",
      "maxdate": "1998-06-30",
      "latitude": -22.515,
      "name": "DUCK CREEK, AS",
      "datacoverage": 0.5829,
      "id": "GHCND:ASN00005002",
      "elevationUnit": "METERS",
      "longitude": 116.5825
    },
    {
      "elevation": 425,
      "mindate": "1907-01-01",
      "maxdate": "2015-07-22",
      "latitude": -22.8975,
      "name": "ETHEL CREEK, AS",
      "datacoverage": 0.8435,
      "id": "GHCND:ASN00005003",
      "elevationUnit": "METERS",
      "longitude": 120.1733
    },
    {
      "elevation": 15,
      "mindate": "1915-01-01",
      "maxdate": "2022-09-02",
      "latitude": -22.3761,
      "name": "EXMOUTH GULF, AS",
      "datacoverage": 0.9756,
      "id": "GHCND:ASN00005004",
      "elevationUnit": "METERS",
      "longitude": 114.1108
    },
    {
      "elevation": 590,
      "mindate": "1912-01-01",
      "maxdate": "2015-07-22",
      "latitude": -22.2792,
      "name": "HAMERSLEY, AS",
      "datacoverage": 0.8705,
      "id": "GHCND:ASN00005005",
      "elevationUnit": "METERS",
      "longitude": 117.6772
    },
    {
      "elevation": 160,
      "mindate": "1750-03-15",
      "maxdate": "2025-02-25",
      "latitude": -22.9119,
      "name": "KOOLINE, AS",
      "datacoverage": 0.678,
      "id": "GHCND:ASN00005006",
      "elevationUnit": "METERS",
      "longitude": 116.2903
    },
    {
      "elevation": 5,
      "mindate": "1750-03-09",
      "maxdate": "2025-03-06",
      "latitude": -22.2406,
      "name": "LEARMONTH AIRPORT, AS",
      "datacoverage": 0.8599,
      "id": "GHCND:ASN00005007",
      "elevationUnit": "METERS",
      "longitude": 114.0967
    },
    {
      "elevation": 11,
      "mindate": "1750-03-09",
      "maxdate": "2025-02-27",
      "latitude": -21.1906,
      "name": "MARDIE, AS",
      "datacoverage": 0.9191,
      "id": "GHCND:ASN00005008",
      "elevationUnit": "METERS",
      "longitude": 115.9797
    },
    {
      "elevation": 430,
      "mindate": "1936-12-01",
      "maxdate": "2020-03-31",
      "latitude": -22.6331,
      "name": "MARILLANA, AS",
      "datacoverage": 0.8154,
      "id": "GHCND:ASN00005009",
      "elevationUnit": "METERS",
      "longitude": 119.4081
    },
    {
      "elevation": 120,
      "mindate": "1927-01-01",
      "maxdate": "1999-02-28",
      "latitude": -22.9742,
      "name": "MARRILLA, AS",
      "datacoverage": 0.8089,
      "id": "GHCND:ASN00005010",
      "elevationUnit": "METERS",
      "longitude": 114.4597
    },
    {
      "mindate": "1914-03-01",
      "maxdate": "1958-03-31",
      "latitude": -22.7,
      "name": "MEILGA, AS",
      "datacoverage": 0.7675,
      "id": "GHCND:ASN00005011",
      "longitude": 115.8
    },
    {
      "elevation": 300,
      "mindate": "1750-05-11",
      "maxdate": "2025-01-31",
      "latitude": -21.5906,
      "name": "MILLSTREAM, AS",
      "datacoverage": 0.903,
      "id": "GHCND:ASN00005012",
      "elevationUnit": "METERS",
      "longitude": 117.0656
    },
    {
      "elevation": 15,
      "mindate": "1912-04-01",
      "maxdate": "2023-12-31",
      "latitude": -21.9961,
      "name": "MINDEROO, AS",
      "datacoverage": 0.8592,
      "id": "GHCND:ASN00005013",
      "elevationUnit": "METERS",
      "longitude": 115.0456
    },
    {
      "elevation": 450,
      "mindate": "1750-03-14",
      "maxdate": "2025-02-26",
      "latitude": -21.7869,
      "name": "MOUNT FLORANCE, AS",
      "datacoverage": 0.8771,
      "id": "GHCND:ASN00005014",
      "elevationUnit": "METERS",
      "longitude": 117.8647
    },
    {
      "elevation": 400,
      "mindate": "1898-03-01",
      "maxdate": "2018-06-08",
      "latitude": -22.1039,
      "name": "MULGA DOWNS, AS",
      "datacoverage": 0.8878,
      "id": "GHCND:ASN00005015",
      "elevationUnit": "METERS",
      "longitude": 118.4703
    },
    {
      "elevation": 4,
      "mindate": "1886-04-01",
      "maxdate": "2012-07-19",
      "latitude": -21.6364,
      "name": "ONSLOW, AS",
      "datacoverage": 0.9137,
      "id": "GHCND:ASN00005016",
      "elevationUnit": "METERS",
      "longitude": 115.1117
    },
    {
      "elevation": 10.5,
      "mindate": "1750-03-09",
      "maxdate": "2025-02-27",
      "latitude": -21.6689,
      "name": "ONSLOW AIRPORT, AS",
      "datacoverage": 0.689,
      "id": "GHCND:ASN00005017",
      "elevationUnit": "METERS",
      "longitude": 115.1092
    },
    {
      "elevation": 150,
      "mindate": "1895-01-01",
      "maxdate": "1973-12-31",
      "latitude": -21.85,
      "name": "PEEDAMULLAH, AS",
      "datacoverage": 0.7672,
      "id": "GHCND:ASN00005018",
      "elevationUnit": "METERS",
      "longitude": 115.6167
    },
    {
      "elevation": 11,
      "mindate": "1961-08-01",
      "maxdate": "1963-02-28",
      "latitude": -21.6333,
      "name": "WARRAMBOO, AS",
      "datacoverage": 1,
      "id": "GHCND:ASN00005019",
      "elevationUnit": "METERS",
      "longitude": 115.85
    },
    {
      "elevation": 10,
      "mindate": "1898-10-01",
      "maxdate": "2018-08-31",
      "latitude": -22.6975,
      "name": "NINGALOO, AS",
      "datacoverage": 0.9602,
      "id": "GHCND:ASN00005020",
      "elevationUnit": "METERS",
      "longitude": 113.6747
    },
    {
      "mindate": "1927-10-01",
      "maxdate": "1968-12-31",
      "latitude": -22.2667,
      "name": "RANGE, AS",
      "datacoverage": 0.9413,
      "id": "GHCND:ASN00005021",
      "longitude": 115.4167
    },
    {
      "elevation": 150,
      "mindate": "1750-03-10",
      "maxdate": "2025-02-23",
      "latitude": -21.975,
      "name": "RED HILL, AS",
      "datacoverage": 0.9063,
      "id": "GHCND:ASN00005022",
      "elevationUnit": "METERS",
      "longitude": 116.0653
    },
    {
      "elevation": 410,
      "mindate": "1750-04-04",
      "maxdate": "2025-02-15",
      "latitude": -22.6217,
      "name": "ROY HILL, AS",
      "datacoverage": 0.8411,
      "id": "GHCND:ASN00005023",
      "elevationUnit": "METERS",
      "longitude": 119.9564
    },
    {
      "elevation": 12,
      "mindate": "1913-01-01",
      "maxdate": "1994-12-31",
      "latitude": -21.8067,
      "name": "VLAMINGH HEAD, AS",
      "datacoverage": 0.6098,
      "id": "GHCND:ASN00005024",
      "elevationUnit": "METERS",
      "longitude": 114.1072
    },
    {
      "mindate": "1927-11-01",
      "maxdate": "1964-05-31",
      "latitude": -22.4,
      "name": "WARRIE, AS",
      "datacoverage": 0.9909,
      "id": "GHCND:ASN00005025",
      "longitude": 119.5333
    },
    {
      "elevation": 463,
      "mindate": "1950-08-01",
      "maxdate": "2019-08-31",
      "latitude": -22.2425,
      "name": "WITTENOOM, AS",
      "datacoverage": 0.9385,
      "id": "GHCND:ASN00005026",
      "elevationUnit": "METERS",
      "longitude": 118.3358
    },
    {
      "elevation": 610,
      "mindate": "1949-09-01",
      "maxdate": "1950-12-31",
      "latitude": -22.3167,
      "name": "WITTENOOM GORGE, AS",
      "datacoverage": 0.5647,
      "id": "GHCND:ASN00005027",
      "elevationUnit": "METERS",
      "longitude": 118.3167
    },
    {
      "elevation": 150,
      "mindate": "1750-03-15",
      "maxdate": "2025-02-05",
      "latitude": -22.6906,
      "name": "WYLOO, AS",
      "datacoverage": 0.8615,
      "id": "GHCND:ASN00005028",
      "elevationUnit": "METERS",
      "longitude": 116.2328
    },
    {
      "elevation": 180,
      "mindate": "1750-03-10",
      "maxdate": "2025-02-07",
      "latitude": -21.6767,
      "name": "YALLEEN, AS",
      "datacoverage": 0.6359,
      "id": "GHCND:ASN00005029",
      "elevationUnit": "METERS",
      "longitude": 116.3928
    },
    {
      "elevation": 25,
      "mindate": "1897-03-01",
      "maxdate": "2022-02-28",
      "latitude": -22.5064,
      "name": "YANREY, AS",
      "datacoverage": 0.9294,
      "id": "GHCND:ASN00005030",
      "elevationUnit": "METERS",
      "longitude": 114.7944
    },
    {
      "elevation": 6,
      "mindate": "1915-07-01",
      "maxdate": "1969-11-30",
      "latitude": -21.8875,
      "name": "YARDIE CREEK, AS",
      "datacoverage": 0.9326,
      "id": "GHCND:ASN00005031",
      "elevationUnit": "METERS",
      "longitude": 114.0092
    },
    {
      "elevation": 50,
      "mindate": "1750-03-10",
      "maxdate": "2025-01-31",
      "latitude": -21.5703,
      "name": "YARRALOOLA, AS",
      "datacoverage": 0.9397,
      "id": "GHCND:ASN00005032",
      "elevationUnit": "METERS",
      "longitude": 115.8786
    },
    {
      "elevation": 150,
      "mindate": "1915-08-01",
      "maxdate": "2018-06-19",
      "latitude": -22.2933,
      "name": "KOORDARRIE, AS",
      "datacoverage": 0.7138,
      "id": "GHCND:ASN00005033",
      "elevationUnit": "METERS",
      "longitude": 115.0342
    },
    {
      "elevation": 160,
      "mindate": "1750-03-15",
      "maxdate": "2025-02-27",
      "latitude": -22.4558,
      "name": "MOUNT STUART, AS",
      "datacoverage": 0.6818,
      "id": "GHCND:ASN00005034",
      "elevationUnit": "METERS",
      "longitude": 116.0508
    },
    {
      "mindate": "1896-05-01",
      "maxdate": "1949-12-31",
      "latitude": -21.6,
      "name": "TAMBREY, AS",
      "datacoverage": 0.8831,
      "id": "GHCND:ASN00005035",
      "longitude": 117.6
    },
    {
      "elevation": 170,
      "mindate": "1921-09-01",
      "maxdate": "2024-01-31",
      "latitude": -22.9367,
      "name": "GLEN FLORRIE STATION, AS",
      "datacoverage": 0.6911,
      "id": "GHCND:ASN00005036",
      "elevationUnit": "METERS",
      "longitude": 115.9825
    },
    {
      "mindate": "1954-01-01",
      "maxdate": "1972-07-31",
      "latitude": -21.7,
      "name": "KANGIANGI, AS",
      "datacoverage": 0.8818,
      "id": "GHCND:ASN00005037",
      "longitude": 117.45
    },
    {
      "mindate": "1890-06-01",
      "maxdate": "1909-01-31",
      "latitude": -21.3667,
      "name": "CHINGINARRA, AS",
      "datacoverage": 0.9986,
      "id": "GHCND:ASN00005038",
      "longitude": 115.85
    },
    {
      "mindate": "1916-06-01",
      "maxdate": "1922-12-31",
      "latitude": -22.6,
      "name": "LEARMONTH ARTESIAN, AS",
      "datacoverage": 1,
      "id": "GHCND:ASN00005039",
      "longitude": 114.4
    },
    {
      "elevation": 15,
      "mindate": "1750-05-11",
      "maxdate": "2024-12-31",
      "latitude": -21.1594,
      "name": "BALMORAL, AS",
      "datacoverage": 0.7133,
      "id": "GHCND:ASN00005040",
      "elevationUnit": "METERS",
      "longitude": 116.1197
    },
    {
      "mindate": "1907-04-01",
      "maxdate": "1947-12-31",
      "latitude": -22.6,
      "name": "COORARA STATION, AS",
      "datacoverage": 0.8261,
      "id": "GHCND:ASN00005041",
      "longitude": 116.1
    },
    {
      "mindate": "1911-04-01",
      "maxdate": "1929-04-30",
      "latitude": -21.7,
      "name": "DEEPDALE 1, AS",
      "datacoverage": 0.9726,
      "id": "GHCND:ASN00005042",
      "longitude": 116.1
    },
    {
      "mindate": "1933-01-01",
      "maxdate": "1942-12-31",
      "latitude": -21.9,
      "name": "DIOMENOR, AS",
      "datacoverage": 1,
      "id": "GHCND:ASN00005043",
      "longitude": 115.2
    },
    {
      "mindate": "1887-09-01",
      "maxdate": "1927-06-30",
      "latitude": -21.1,
      "name": "FORTESCUE, AS",
      "datacoverage": 0.8494,
      "id": "GHCND:ASN00005044",
      "longitude": 116.1
    },
    {
      "elevation": 30,
      "mindate": "1913-01-01",
      "maxdate": "2021-04-10",
      "latitude": -22.685,
      "name": "GIRALIA, AS",
      "datacoverage": 0.7511,
      "id": "GHCND:ASN00005045",
      "elevationUnit": "METERS",
      "longitude": 114.3672
    },
    {
      "mindate": "1888-03-01",
      "maxdate": "1935-02-28",
      "latitude": -22.7,
      "name": "HARDY JUNCTION, AS",
      "datacoverage": 0.5552,
      "id": "GHCND:ASN00005046",
      "longitude": 116.1
    },
    {
      "mindate": "1901-01-01",
      "maxdate": "1910-01-31",
      "latitude": -22.25,
      "name": "KERDIADARY, AS",
      "datacoverage": 0.9991,
      "id": "GHCND:ASN00005047",
      "longitude": 119.1
    },
    {
      "elevation": 80,
      "mindate": "1898-10-01",
      "maxdate": "1997-07-31",
      "latitude": -22.5403,
      "name": "NANUTARRA, AS",
      "datacoverage": 0.7631,
      "id": "GHCND:ASN00005048",
      "elevationUnit": "METERS",
      "longitude": 115.4981
    },
    {
      "mindate": "1907-08-01",
      "maxdate": "1915-10-31",
      "latitude": -21.6,
      "name": "TABLELAND, AS",
      "datacoverage": 0.4476,
      "id": "GHCND:ASN00005049",
      "longitude": 117.6
    },
    {
      "mindate": "1917-01-01",
      "maxdate": "1931-05-31",
      "latitude": -21.6,
      "name": "MOUNT ENID, AS",
      "datacoverage": 0.665,
      "id": "GHCND:ASN00005050",
      "longitude": 116.4
    },
    {
      "elevation": 13,
      "mindate": "1750-03-25",
      "maxdate": "2025-02-27",
      "latitude": -21.9303,
      "name": "EXMOUTH TOWN, AS",
      "datacoverage": 0.8527,
      "id": "GHCND:ASN00005051",
      "elevationUnit": "METERS",
      "longitude": 114.1256
    },
    {
      "elevation": 30,
      "mindate": "1900-01-01",
      "maxdate": "2015-05-29",
      "latitude": -20.8831,
      "name": "KARRATHA STATION, AS",
      "datacoverage": 0.878,
      "id": "GHCND:ASN00005052",
      "elevationUnit": "METERS",
      "longitude": 116.6725
    },
    {
      "elevation": 50,
      "mindate": "1966-07-01",
      "maxdate": "1997-08-31",
      "latitude": -20.6553,
      "name": "EAST INTERCOURSE ISLAND, AS",
      "datacoverage": 0.9197,
      "id": "GHCND:ASN00005053",
      "elevationUnit": "METERS",
      "longitude": 116.6789
    },
    {
      "elevation": 441.7,
      "mindate": "1975-01-01",
      "maxdate": "2010-04-30",
      "latitude": -22.2275,
      "name": "WITTENOOM AERO, AS",
      "datacoverage": 0.9836,
      "id": "GHCND:ASN00005055",
      "elevationUnit": "METERS",
      "longitude": 118.345
    },
    {
      "mindate": "1984-01-01",
      "maxdate": "1986-12-04",
      "latitude": -21.3417,
      "name": "HARDING RIVER, AS",
      "datacoverage": 0.6665,
      "id": "GHCND:ASN00005057",
      "longitude": 117.0833
    },
    {
      "elevation": 62,
      "mindate": "1967-11-01",
      "maxdate": "2000-01-16",
      "latitude": -20.8206,
      "name": "BARROW ISLAND, AS",
      "datacoverage": 0.9328,
      "id": "GHCND:ASN00005058",
      "elevationUnit": "METERS",
      "longitude": 115.3931
    },
    {
      "mindate": "1984-01-01",
      "maxdate": "1986-12-31",
      "latitude": -22.6125,
      "name": "MOUNT LIONEL AIRSTRIP, AS",
      "datacoverage": 0.667,
      "id": "GHCND:ASN00005059",
      "longitude": 117.625
    },
    {
      "elevation": 7,
      "mindate": "1968-03-01",
      "maxdate": "1971-11-30",
      "latitude": -22.3333,
      "name": "NAVY CHARLIE, AS",
      "datacoverage": 1,
      "id": "GHCND:ASN00005060",
      "elevationUnit": "METERS",
      "longitude": 114.05
    },
    {
      "elevation": 6,
      "mindate": "1750-03-23",
      "maxdate": "2025-01-31",
      "latitude": -20.7278,
      "name": "DAMPIER SALT, AS",
      "datacoverage": 0.9758,
      "id": "GHCND:ASN00005061",
      "elevationUnit": "METERS",
      "longitude": 116.7483
    },
    {
      "mindate": "1969-02-01",
      "maxdate": "1976-06-30",
      "latitude": -22.3,
      "name": "MOUNT BROCKMAN, AS",
      "datacoverage": 1,
      "id": "GHCND:ASN00005063",
      "longitude": 117.2833
    },
    {
      "elevation": 433,
      "mindate": "1971-05-01",
      "maxdate": "1984-07-31",
      "latitude": -22.7825,
      "name": "SAND HILL, AS",
      "datacoverage": 0.9934,
      "id": "GHCND:ASN00005064",
      "elevationUnit": "METERS",
      "longitude": 119.6172
    },
    {
      "elevation": 100,
      "mindate": "1750-03-11",
      "maxdate": "2024-09-23",
      "latitude": -22.7817,
      "name": "UAROO, AS",
      "datacoverage": 0.4952,
      "id": "GHCND:ASN00005066",
      "elevationUnit": "METERS",
      "longitude": 115.3706
    },
    {
      "elevation": 80,
      "mindate": "1966-01-01",
      "maxdate": "1996-11-30",
      "latitude": -22.0894,
      "name": "CANE RIVER, AS",
      "datacoverage": 0.7844,
      "id": "GHCND:ASN00005067",
      "elevationUnit": "METERS",
      "longitude": 115.6239
    },
    {
      "elevation": 20,
      "mindate": "1957-01-01",
      "maxdate": "2018-07-31",
      "latitude": -22.6811,
      "name": "BULLARA, AS",
      "datacoverage": 0.8319,
      "id": "GHCND:ASN00005068",
      "elevationUnit": "METERS",
      "longitude": 114.0394
    },
    {
      "elevation": 200,
      "mindate": "1750-03-10",
      "maxdate": "2025-01-31",
      "latitude": -21.6392,
      "name": "PANNAWONICA, AS",
      "datacoverage": 0.9887,
      "id": "GHCND:ASN00005069",
      "elevationUnit": "METERS",
      "longitude": 116.3308
    },
    {
      "elevation": 10,
      "mindate": "1750-05-11",
      "maxdate": "2024-12-31",
      "latitude": -21.3567,
      "name": "ROBE, AS",
      "datacoverage": 0.9711,
      "id": "GHCND:ASN00005070",
      "elevationUnit": "METERS",
      "longitude": 115.8208
    },
    {
      "elevation": 11,
      "mindate": "1750-05-11",
      "maxdate": "2024-12-31",
      "latitude": -21.3444,
      "name": "PINDRAL OUTCAMP, AS",
      "datacoverage": 0.9962,
      "id": "GHCND:ASN00005071",
      "elevationUnit": "METERS",
      "longitude": 115.9356
    },
    {
      "elevation": 746,
      "mindate": "1972-10-01",
      "maxdate": "2011-04-28",
      "latitude": -22.6967,
      "name": "TOM PRICE, AS",
      "datacoverage": 0.9007,
      "id": "GHCND:ASN00005072",
      "elevationUnit": "METERS",
      "longitude": 117.7703
    },
    {
      "elevation": 500,
      "mindate": "1972-01-01",
      "maxdate": "2019-02-28",
      "latitude": -21.8836,
      "name": "HOOLEY, AS",
      "datacoverage": 0.7495,
      "id": "GHCND:ASN00005073",
      "elevationUnit": "METERS",
      "longitude": 118.2217
    },
    {
      "elevation": 726,
      "mindate": "1974-01-01",
      "maxdate": "1997-09-30",
      "latitude": -22.6344,
      "name": "MARANDOO, AS",
      "datacoverage": 0.972,
      "id": "GHCND:ASN00005074",
      "elevationUnit": "METERS",
      "longitude": 118.1119
    },
    {
      "elevation": 7,
      "mindate": "1971-12-01",
      "maxdate": "1976-06-30",
      "latitude": -21.8222,
      "name": "NAVY ALPHA, AS",
      "datacoverage": 1,
      "id": "GHCND:ASN00005075",
      "elevationUnit": "METERS",
      "longitude": 114.1714
    },
    {
      "elevation": 606,
      "mindate": "1976-03-01",
      "maxdate": "1995-07-31",
      "latitude": -22.745,
      "name": "TOM PRICE AERO, AS",
      "datacoverage": 0.9828,
      "id": "GHCND:ASN00005076",
      "elevationUnit": "METERS",
      "longitude": 117.6656
    },
    {
      "elevation": 5,
      "mindate": "1977-03-01",
      "maxdate": "2023-03-29",
      "latitude": -21.7672,
      "name": "URALA, AS",
      "datacoverage": 0.8197,
      "id": "GHCND:ASN00005078",
      "elevationUnit": "METERS",
      "longitude": 114.8211
    },
    {
      "elevation": 5,
      "mindate": "1978-02-01",
      "maxdate": "1989-06-30",
      "latitude": -21.4625,
      "name": "THEVENARD ISLAND, AS",
      "datacoverage": 0.7449,
      "id": "GHCND:ASN00005079",
      "elevationUnit": "METERS",
      "longitude": 115.0194
    },
    {
      "elevation": 50,
      "mindate": "1750-05-11",
      "maxdate": "2024-12-31",
      "latitude": -21.0544,
      "name": "ERAMURRA POOL, AS",
      "datacoverage": 0.9882,
      "id": "GHCND:ASN00005082",
      "elevationUnit": "METERS",
      "longitude": 116.2575
    },
    {
      "elevation": 15,
      "mindate": "1974-03-01",
      "maxdate": "1996-01-31",
      "latitude": -20.7692,
      "name": "KARRATHA WATER RESOURCES, AS",
      "datacoverage": 0.65,
      "id": "GHCND:ASN00005083",
      "elevationUnit": "METERS",
      "longitude": 116.8603
    }
  ]
}
