{
  "metadata": {
    "resultset": {
      "offset": 24700,
      "count": 154115,
      "limit": 100
    }
  },
  "results": [
    {
      "mindate": "1906-03-01",
      "maxdate": "1908-10-31",
      "latitude": -28.2333,
      "name": "POISON CREEK, AS",
      "datacoverage": 0.6549,
      "id": "GHCND:ASN00012252",
      "longitude": 120.9167
    },
    {
      "mindate": "1915-01-01",
      "maxdate": "1917-10-31",
      "latitude": -31,
      "name": "COONANA, AS",
      "datacoverage": 0.9986,
      "id": "GHCND:ASN00012253",
      "longitude": 123
    },
    {
      "mindate": "1973-01-01",
      "maxdate": "1974-11-25",
      "latitude": -33.65,
      "name": "NORTH HOWICK, AS",
      "datacoverage": 1,
      "id": "GHCND:ASN00012254",
      "longitude": 122.75
    },
    {
      "elevation": 190,
      "mindate": "1971-01-01",
      "maxdate": "2005-03-31",
      "latitude": -33.5656,
      "name": "WITTENOOM HILLS, AS",
      "datacoverage": 1,
      "id": "GHCND:ASN00012255",
      "elevationUnit": "METERS",
      "longitude": 122.2714
    },
    {
      "mindate": "1929-01-01",
      "maxdate": "1933-01-31",
      "latitude": -29.7333,
      "name": "WOOLING, AS",
      "datacoverage": 1,
      "id": "GHCND:ASN00012256",
      "longitude": 119.6
    },
    {
      "mindate": "1895-01-01",
      "maxdate": "1899-12-31",
      "latitude": -30.35,
      "name": "ORABANDA 42M, AS",
      "datacoverage": 0.4518,
      "id": "GHCND:ASN00012258",
      "longitude": 121.05
    },
    {
      "elevation": 180,
      "mindate": "1970-05-01",
      "maxdate": "2004-01-25",
      "latitude": -33.5222,
      "name": "CASCADES CREEK STATION, AS",
      "datacoverage": 0.9993,
      "id": "GHCND:ASN00012260",
      "elevationUnit": "METERS",
      "longitude": 121.0786
    },
    {
      "elevation": 230,
      "mindate": "1981-12-01",
      "maxdate": "2013-12-31",
      "latitude": -33.4539,
      "name": "OLDFIELD LOC 1137 COMP., AS",
      "datacoverage": 0.6661,
      "id": "GHCND:ASN00012262",
      "elevationUnit": "METERS",
      "longitude": 120.7656
    },
    {
      "elevation": 431,
      "mindate": "1971-10-01",
      "maxdate": "1994-09-30",
      "latitude": -28.49,
      "name": "WINDARRA, AS",
      "datacoverage": 0.8695,
      "id": "GHCND:ASN00012263",
      "elevationUnit": "METERS",
      "longitude": 122.2375
    },
    {
      "elevation": 240,
      "mindate": "1954-01-01",
      "maxdate": "2023-12-31",
      "latitude": -33.0603,
      "name": "CIRCLE VALLEY, AS",
      "datacoverage": 0.9616,
      "id": "GHCND:ASN00012265",
      "elevationUnit": "METERS",
      "longitude": 121.7842
    },
    {
      "elevation": 160,
      "mindate": "1972-04-01",
      "maxdate": "2019-10-30",
      "latitude": -33.5425,
      "name": "SHAMBA, AS",
      "datacoverage": 0.9051,
      "id": "GHCND:ASN00012267",
      "elevationUnit": "METERS",
      "longitude": 121.2014
    },
    {
      "elevation": 183,
      "mindate": "1972-04-01",
      "maxdate": "1973-12-31",
      "latitude": -33.45,
      "name": "THE CAMP, AS",
      "datacoverage": 1,
      "id": "GHCND:ASN00012268",
      "elevationUnit": "METERS",
      "longitude": 121.5833
    },
    {
      "elevation": 270,
      "mindate": "1939-01-31",
      "maxdate": "1997-08-31",
      "latitude": -32.8283,
      "name": "WARWICK, AS",
      "datacoverage": 0.9993,
      "id": "GHCND:ASN00012269",
      "elevationUnit": "METERS",
      "longitude": 121.7419
    },
    {
      "elevation": 200,
      "mindate": "1972-05-01",
      "maxdate": "1983-11-30",
      "latitude": -33.2617,
      "name": "CHALORA, AS",
      "datacoverage": 0.964,
      "id": "GHCND:ASN00012270",
      "elevationUnit": "METERS",
      "longitude": 121.3767
    },
    {
      "mindate": "1897-01-01",
      "maxdate": "1899-12-31",
      "latitude": -28.1167,
      "name": "GLADIATOR G.M., AS",
      "datacoverage": 0.2511,
      "id": "GHCND:ASN00012271",
      "longitude": 122.3333
    },
    {
      "elevation": 450,
      "mindate": "1973-06-01",
      "maxdate": "1996-11-30",
      "latitude": -28.8789,
      "name": "MINARA DINGO O.S., AS",
      "datacoverage": 0.9928,
      "id": "GHCND:ASN00012272",
      "elevationUnit": "METERS",
      "longitude": 121.5969
    },
    {
      "elevation": 500,
      "mindate": "1973-06-01",
      "maxdate": "1996-11-30",
      "latitude": -28.7083,
      "name": "MINARA KAURI BORE, AS",
      "datacoverage": 0.9928,
      "id": "GHCND:ASN00012273",
      "elevationUnit": "METERS",
      "longitude": 121.6908
    },
    {
      "mindate": "1973-08-01",
      "maxdate": "1974-07-31",
      "latitude": -30.95,
      "name": "AVOCA DOWNS, AS",
      "datacoverage": 1,
      "id": "GHCND:ASN00012274",
      "longitude": 122.3167
    },
    {
      "elevation": 500,
      "mindate": "1973-12-01",
      "maxdate": "1980-09-30",
      "latitude": -27.8417,
      "name": "DEPOT SPRINGS LANGFORD, AS",
      "datacoverage": 0.9999,
      "id": "GHCND:ASN00012277",
      "elevationUnit": "METERS",
      "longitude": 120.22
    },
    {
      "elevation": 420,
      "mindate": "1974-02-01",
      "maxdate": "1999-12-31",
      "latitude": -32.5811,
      "name": "MIDDLE IRON CAP, AS",
      "datacoverage": 0.8554,
      "id": "GHCND:ASN00012279",
      "elevationUnit": "METERS",
      "longitude": 119.7411
    },
    {
      "elevation": 550,
      "mindate": "1750-07-19",
      "maxdate": "2024-12-31",
      "latitude": -27.7036,
      "name": "BANJAWARN, AS",
      "datacoverage": 0.7989,
      "id": "GHCND:ASN00012280",
      "elevationUnit": "METERS",
      "longitude": 121.6131
    },
    {
      "elevation": 210,
      "mindate": "1975-04-01",
      "maxdate": "2013-08-29",
      "latitude": -33.5969,
      "name": "MUNGLINUP MELALEUCA, AS",
      "datacoverage": 0.9544,
      "id": "GHCND:ASN00012281",
      "elevationUnit": "METERS",
      "longitude": 120.7578
    },
    {
      "elevation": 350,
      "mindate": "1979-07-01",
      "maxdate": "1993-02-28",
      "latitude": -30.8544,
      "name": "MOUNT BURGES, AS",
      "datacoverage": 0.9999,
      "id": "GHCND:ASN00012282",
      "elevationUnit": "METERS",
      "longitude": 121.115
    },
    {
      "elevation": 390,
      "mindate": "1980-05-01",
      "maxdate": "2016-03-31",
      "latitude": -28.7175,
      "name": "TARMOOLA, AS",
      "datacoverage": 0.792,
      "id": "GHCND:ASN00012283",
      "elevationUnit": "METERS",
      "longitude": 121.1506
    },
    {
      "elevation": 440,
      "mindate": "1980-08-01",
      "maxdate": "2009-06-30",
      "latitude": -31.9197,
      "name": "HOLLETON, AS",
      "datacoverage": 0.9799,
      "id": "GHCND:ASN00012284",
      "elevationUnit": "METERS",
      "longitude": 119.2575
    },
    {
      "elevation": 400,
      "mindate": "1980-11-01",
      "maxdate": "2015-06-30",
      "latitude": -27.5489,
      "name": "BANDYA NORTH, AS",
      "datacoverage": 0.7995,
      "id": "GHCND:ASN00012285",
      "elevationUnit": "METERS",
      "longitude": 121.8286
    },
    {
      "elevation": 220,
      "mindate": "1979-07-01",
      "maxdate": "1989-04-30",
      "latitude": -33.2722,
      "name": "CATABY CASCADES, AS",
      "datacoverage": 0.8389,
      "id": "GHCND:ASN00012286",
      "elevationUnit": "METERS",
      "longitude": 121.0867
    },
    {
      "mindate": "1913-06-01",
      "maxdate": "1947-10-31",
      "latitude": -31.2,
      "name": "TALGOMINE DNS, AS",
      "datacoverage": 0.9734,
      "id": "GHCND:ASN00012289",
      "longitude": 118.5833
    },
    {
      "mindate": "1906-03-01",
      "maxdate": "1937-12-31",
      "latitude": -30.6,
      "name": "RPF 56 MILE, AS",
      "datacoverage": 0.848,
      "id": "GHCND:ASN00012290",
      "longitude": 118.55
    },
    {
      "elevation": 200,
      "mindate": "1750-03-25",
      "maxdate": "2024-12-17",
      "latitude": -33.4578,
      "name": "RIVER PLAINS, AS",
      "datacoverage": 0.9979,
      "id": "GHCND:ASN00012291",
      "elevationUnit": "METERS",
      "longitude": 120.915
    },
    {
      "elevation": 150,
      "mindate": "1978-06-01",
      "maxdate": "1981-09-30",
      "latitude": -33.6333,
      "name": "WYLAND HEIGHTS, AS",
      "datacoverage": 0.9996,
      "id": "GHCND:ASN00012292",
      "elevationUnit": "METERS",
      "longitude": 122.5833
    },
    {
      "elevation": 150,
      "mindate": "1982-01-01",
      "maxdate": "2015-03-23",
      "latitude": -33.6211,
      "name": "ROCKY PLAINS, AS",
      "datacoverage": 0.9194,
      "id": "GHCND:ASN00012293",
      "elevationUnit": "METERS",
      "longitude": 122.6
    },
    {
      "elevation": 180,
      "mindate": "1983-04-01",
      "maxdate": "2004-02-29",
      "latitude": -33.4133,
      "name": "KARRAMANDE, AS",
      "datacoverage": 1,
      "id": "GHCND:ASN00012294",
      "elevationUnit": "METERS",
      "longitude": 121.1442
    },
    {
      "elevation": 335,
      "mindate": "1957-11-01",
      "maxdate": "2017-01-31",
      "latitude": -31.1003,
      "name": "COPPIN ROCK, AS",
      "datacoverage": 0.8675,
      "id": "GHCND:ASN00012295",
      "elevationUnit": "METERS",
      "longitude": 118.6019
    },
    {
      "mindate": "1965-05-01",
      "maxdate": "1978-11-30",
      "latitude": -30.75,
      "name": "EENUIN, AS",
      "datacoverage": 0.9999,
      "id": "GHCND:ASN00012296",
      "longitude": 119
    },
    {
      "elevation": 180,
      "mindate": "1750-03-22",
      "maxdate": "2025-02-21",
      "latitude": -33.4853,
      "name": "BEAUMONT WEST, AS",
      "datacoverage": 0.9462,
      "id": "GHCND:ASN00012297",
      "elevationUnit": "METERS",
      "longitude": 122.5867
    },
    {
      "elevation": 400,
      "mindate": "1984-01-01",
      "maxdate": "2022-03-31",
      "latitude": -31.7575,
      "name": "MULGARA, AS",
      "datacoverage": 0.9374,
      "id": "GHCND:ASN00012298",
      "elevationUnit": "METERS",
      "longitude": 119.4522
    },
    {
      "elevation": 190,
      "mindate": "1980-01-01",
      "maxdate": "2006-12-31",
      "latitude": -33.5331,
      "name": "MUNGLINUP STATION, AS",
      "datacoverage": 0.9992,
      "id": "GHCND:ASN00012299",
      "elevationUnit": "METERS",
      "longitude": 120.8681
    },
    {
      "elevation": 508.3,
      "mindate": "1985-05-01",
      "maxdate": "2011-12-31",
      "latitude": -27.9172,
      "name": "LEINSTER, AS",
      "datacoverage": 0.8312,
      "id": "GHCND:ASN00012300",
      "elevationUnit": "METERS",
      "longitude": 120.7
    },
    {
      "elevation": 430,
      "mindate": "1987-09-01",
      "maxdate": "1994-08-31",
      "latitude": -28.4717,
      "name": "VALAIS BOREFIELD, AS",
      "datacoverage": 0.6071,
      "id": "GHCND:ASN00012301",
      "elevationUnit": "METERS",
      "longitude": 122.025
    },
    {
      "elevation": 390,
      "mindate": "1988-01-01",
      "maxdate": "1995-12-31",
      "latitude": -30.7256,
      "name": "KALGOORLIE RFDS BASE, AS",
      "datacoverage": 0.9896,
      "id": "GHCND:ASN00012302",
      "elevationUnit": "METERS",
      "longitude": 121.4653
    },
    {
      "elevation": 180,
      "mindate": "1973-04-01",
      "maxdate": "1991-10-31",
      "latitude": -33.5908,
      "name": "REOMMAR, AS",
      "datacoverage": 0.7847,
      "id": "GHCND:ASN00012303",
      "elevationUnit": "METERS",
      "longitude": 121.0142
    },
    {
      "elevation": 500,
      "mindate": "1927-01-01",
      "maxdate": "2023-12-31",
      "latitude": -27.9283,
      "name": "MELROSE, AS",
      "datacoverage": 0.7762,
      "id": "GHCND:ASN00012304",
      "elevationUnit": "METERS",
      "longitude": 121.3047
    },
    {
      "elevation": 464.3,
      "mindate": "1750-03-09",
      "maxdate": "2025-02-27",
      "latitude": -28.6133,
      "name": "LAVERTON AERO, AS",
      "datacoverage": 1,
      "id": "GHCND:ASN00012305",
      "elevationUnit": "METERS",
      "longitude": 122.4236
    },
    {
      "elevation": 140,
      "mindate": "1750-03-25",
      "maxdate": "2025-01-31",
      "latitude": -33.5239,
      "name": "SPARKLE HILL, AS",
      "datacoverage": 1,
      "id": "GHCND:ASN00012306",
      "elevationUnit": "METERS",
      "longitude": 122.9469
    },
    {
      "elevation": 120,
      "mindate": "1992-01-01",
      "maxdate": "2001-01-31",
      "latitude": -33.6844,
      "name": "KOORINGA DOWNS, AS",
      "datacoverage": 0.9996,
      "id": "GHCND:ASN00012307",
      "elevationUnit": "METERS",
      "longitude": 122.8728
    },
    {
      "elevation": 180,
      "mindate": "1750-03-25",
      "maxdate": "2025-01-31",
      "latitude": -33.3356,
      "name": "MOUNT RIDLEY, AS",
      "datacoverage": 0.9859,
      "id": "GHCND:ASN00012308",
      "elevationUnit": "METERS",
      "longitude": 122.0697
    },
    {
      "elevation": 200,
      "mindate": "1992-01-01",
      "maxdate": "1995-10-31",
      "latitude": -33.2503,
      "name": "BANKINA, AS",
      "datacoverage": 1,
      "id": "GHCND:ASN00012309",
      "elevationUnit": "METERS",
      "longitude": 122.0306
    },
    {
      "elevation": 250,
      "mindate": "1991-01-01",
      "maxdate": "1994-05-31",
      "latitude": -32.7561,
      "name": "KUMARL EAST, AS",
      "datacoverage": 0.9986,
      "id": "GHCND:ASN00012310",
      "elevationUnit": "METERS",
      "longitude": 121.7547
    },
    {
      "elevation": 160,
      "mindate": "1992-02-01",
      "maxdate": "2024-06-25",
      "latitude": -33.4656,
      "name": "HILL PLAINS, AS",
      "datacoverage": 0.6495,
      "id": "GHCND:ASN00012311",
      "elevationUnit": "METERS",
      "longitude": 122.3972
    },
    {
      "elevation": 150,
      "mindate": "1750-03-25",
      "maxdate": "2024-10-31",
      "latitude": -33.5906,
      "name": "KATTA BAREGA, AS",
      "datacoverage": 0.9778,
      "id": "GHCND:ASN00012312",
      "elevationUnit": "METERS",
      "longitude": 122.4519
    },
    {
      "elevation": 350,
      "mindate": "1993-05-01",
      "maxdate": "2006-12-31",
      "latitude": -30.6014,
      "name": "GEERANING, AS",
      "datacoverage": 0.9994,
      "id": "GHCND:ASN00012313",
      "elevationUnit": "METERS",
      "longitude": 118.5228
    },
    {
      "elevation": 497,
      "mindate": "1994-07-01",
      "maxdate": "2025-02-27",
      "latitude": -27.8386,
      "name": "LEINSTER AERO, AS",
      "datacoverage": 1,
      "id": "GHCND:ASN00012314",
      "elevationUnit": "METERS",
      "longitude": 120.7031
    },
    {
      "elevation": 180,
      "mindate": "1994-01-01",
      "maxdate": "2005-12-31",
      "latitude": -33.6575,
      "name": "WEST POINT SOUTH, AS",
      "datacoverage": 0.9993,
      "id": "GHCND:ASN00012315",
      "elevationUnit": "METERS",
      "longitude": 120.4803
    },
    {
      "elevation": 260,
      "mindate": "1994-06-01",
      "maxdate": "1997-03-31",
      "latitude": -33.005,
      "name": "SALMON GUMS WEST, AS",
      "datacoverage": 0.9999,
      "id": "GHCND:ASN00012316",
      "elevationUnit": "METERS",
      "longitude": 121.435
    },
    {
      "elevation": 550,
      "mindate": "1995-08-01",
      "maxdate": "2000-12-31",
      "latitude": -27.5517,
      "name": "BARRAMBIE, AS",
      "datacoverage": 0.9377,
      "id": "GHCND:ASN00012317",
      "elevationUnit": "METERS",
      "longitude": 119.2275
    },
    {
      "elevation": 400,
      "mindate": "1995-05-01",
      "maxdate": "2024-02-29",
      "latitude": -29.3494,
      "name": "WALLING ROCK, AS",
      "datacoverage": 0.8995,
      "id": "GHCND:ASN00012318",
      "elevationUnit": "METERS",
      "longitude": 120.4006
    },
    {
      "elevation": 347.4,
      "mindate": "1996-10-01",
      "maxdate": "2025-02-27",
      "latitude": -31.2353,
      "name": "SOUTHERN CROSS AIRFIELD, AS",
      "datacoverage": 1,
      "id": "GHCND:ASN00012320",
      "elevationUnit": "METERS",
      "longitude": 119.3564
    },
    {
      "elevation": 465,
      "mindate": "1996-03-01",
      "maxdate": "2004-02-29",
      "latitude": -28.6181,
      "name": "YOUANMI, AS",
      "datacoverage": 0.9993,
      "id": "GHCND:ASN00012321",
      "elevationUnit": "METERS",
      "longitude": 118.8294
    },
    {
      "elevation": 500,
      "mindate": "1996-08-01",
      "maxdate": "2001-03-16",
      "latitude": -30.3803,
      "name": "MOUNT WALTON EAST IWDF, AS",
      "datacoverage": 0.6263,
      "id": "GHCND:ASN00012322",
      "elevationUnit": "METERS",
      "longitude": 120.1481
    },
    {
      "elevation": 500,
      "mindate": "1930-07-01",
      "maxdate": "2015-12-31",
      "latitude": -26.0242,
      "name": "OLD CUNYU, AS",
      "datacoverage": 0.8801,
      "id": "GHCND:ASN00013000",
      "elevationUnit": "METERS",
      "longitude": 120.1033
    },
    {
      "elevation": 523,
      "mindate": "1946-01-01",
      "maxdate": "2000-04-11",
      "latitude": -25.5908,
      "name": "EARAHEEDY, AS",
      "datacoverage": 0.9967,
      "id": "GHCND:ASN00013001",
      "elevationUnit": "METERS",
      "longitude": 121.5853
    },
    {
      "elevation": 480,
      "mindate": "1950-03-01",
      "maxdate": "2024-10-31",
      "latitude": -25.2661,
      "name": "GLEN AYLE, AS",
      "datacoverage": 0.9921,
      "id": "GHCND:ASN00013002",
      "elevationUnit": "METERS",
      "longitude": 122.0433
    },
    {
      "elevation": 570,
      "mindate": "1913-01-01",
      "maxdate": "1989-05-31",
      "latitude": -23.3594,
      "name": "JIGALONG, AS",
      "datacoverage": 0.8659,
      "id": "GHCND:ASN00013003",
      "elevationUnit": "METERS",
      "longitude": 120.7797
    },
    {
      "mindate": "1929-03-01",
      "maxdate": "1942-11-30",
      "latitude": -26.1,
      "name": "MILLROSE, AS",
      "datacoverage": 0.9993,
      "id": "GHCND:ASN00013004",
      "longitude": 120.9
    },
    {
      "elevation": 550,
      "mindate": "1750-05-11",
      "maxdate": "2024-09-16",
      "latitude": -26.2225,
      "name": "LORNA GLEN, AS",
      "datacoverage": 0.9197,
      "id": "GHCND:ASN00013005",
      "elevationUnit": "METERS",
      "longitude": 121.5561
    },
    {
      "elevation": 550,
      "mindate": "1929-03-01",
      "maxdate": "2024-12-31",
      "latitude": -26.4006,
      "name": "MILLROSE, AS",
      "datacoverage": 0.9625,
      "id": "GHCND:ASN00013006",
      "elevationUnit": "METERS",
      "longitude": 120.9539
    },
    {
      "elevation": 420,
      "mindate": "1940-01-01",
      "maxdate": "2016-02-19",
      "latitude": -20.1417,
      "name": "BALGO HILLS, AS",
      "datacoverage": 0.9016,
      "id": "GHCND:ASN00013007",
      "elevationUnit": "METERS",
      "longitude": 127.9867
    },
    {
      "mindate": "1913-01-01",
      "maxdate": "1948-07-31",
      "latitude": -25,
      "name": "RPF 477 MILE, AS",
      "datacoverage": 0.9696,
      "id": "GHCND:ASN00013008",
      "longitude": 120.1
    },
    {
      "mindate": "1913-01-01",
      "maxdate": "1948-07-31",
      "latitude": -24.55,
      "name": "RPF 510 MILE, AS",
      "datacoverage": 0.9556,
      "id": "GHCND:ASN00013010",
      "longitude": 120.1
    },
    {
      "elevation": 459,
      "mindate": "1750-03-09",
      "maxdate": "2025-02-27",
      "latitude": -26.1317,
      "name": "WARBURTON AIRFIELD, AS",
      "datacoverage": 0.7604,
      "id": "GHCND:ASN00013011",
      "elevationUnit": "METERS",
      "longitude": 126.5839
    },
    {
      "elevation": 521,
      "mindate": "1899-05-01",
      "maxdate": "2019-12-04",
      "latitude": -26.5914,
      "name": "WILUNA, AS",
      "datacoverage": 0.9815,
      "id": "GHCND:ASN00013012",
      "elevationUnit": "METERS",
      "longitude": 120.225
    },
    {
      "mindate": "1913-02-01",
      "maxdate": "1947-04-30",
      "latitude": -23.9,
      "name": "RPF 561 MILE, AS",
      "datacoverage": 0.9735,
      "id": "GHCND:ASN00013013",
      "longitude": 120.4
    },
    {
      "elevation": 600,
      "mindate": "1910-05-01",
      "maxdate": "2021-03-11",
      "latitude": -25.8181,
      "name": "CUNYU SHEARING SHED, AS",
      "datacoverage": 0.8967,
      "id": "GHCND:ASN00013014",
      "elevationUnit": "METERS",
      "longitude": 120.1706
    },
    {
      "elevation": 448,
      "mindate": "1750-03-09",
      "maxdate": "2025-02-27",
      "latitude": -25.7964,
      "name": "CARNEGIE, AS",
      "datacoverage": 0.833,
      "id": "GHCND:ASN00013015",
      "elevationUnit": "METERS",
      "longitude": 122.9753
    },
    {
      "mindate": "1955-12-01",
      "maxdate": "1957-01-31",
      "latitude": -26.1,
      "name": "BLACKSTONE RANGE, AS",
      "datacoverage": 1,
      "id": "GHCND:ASN00013016",
      "longitude": 128.2
    },
    {
      "elevation": 598,
      "mindate": "1750-03-09",
      "maxdate": "2025-03-06",
      "latitude": -25.0341,
      "name": "GILES METEOROLOGICAL OFFICE, AS",
      "datacoverage": 1,
      "id": "GHCND:ASN00013017",
      "elevationUnit": "METERS",
      "longitude": 128.301
    },
    {
      "elevation": 500,
      "mindate": "1750-05-11",
      "maxdate": "2025-02-17",
      "latitude": -26.1208,
      "name": "WONGAWOL, AS",
      "datacoverage": 0.8867,
      "id": "GHCND:ASN00013018",
      "elevationUnit": "METERS",
      "longitude": 121.9403
    },
    {
      "elevation": 500,
      "mindate": "1967-05-01",
      "maxdate": "1992-11-30",
      "latitude": -26.3867,
      "name": "WINDIDDA, AS",
      "datacoverage": 0.697,
      "id": "GHCND:ASN00013019",
      "elevationUnit": "METERS",
      "longitude": 122.21
    },
    {
      "mindate": "1968-01-01",
      "maxdate": "1972-02-29",
      "latitude": -25.0333,
      "name": "WELD SPRINGS, AS",
      "datacoverage": 1,
      "id": "GHCND:ASN00013020",
      "longitude": 121.5667
    },
    {
      "elevation": 500,
      "mindate": "1968-10-01",
      "maxdate": "1983-01-31",
      "latitude": -25.8233,
      "name": "NEW SPRINGS, AS",
      "datacoverage": 0.4997,
      "id": "GHCND:ASN00013021",
      "elevationUnit": "METERS",
      "longitude": 119.9981
    },
    {
      "mindate": "1968-03-01",
      "maxdate": "1971-12-31",
      "latitude": -25.1667,
      "name": "SUNDAY WELL, AS",
      "datacoverage": 1,
      "id": "GHCND:ASN00013022",
      "longitude": 122.3
    },
    {
      "mindate": "1923-05-01",
      "maxdate": "1926-05-31",
      "latitude": -23.85,
      "name": "BURRAMBAH, AS",
      "datacoverage": 0.7562,
      "id": "GHCND:ASN00013023",
      "longitude": 120.5
    },
    {
      "elevation": 500,
      "mindate": "1750-07-03",
      "maxdate": "2025-01-18",
      "latitude": -26.5172,
      "name": "PRENTI DOWNS, AS",
      "datacoverage": 0.7932,
      "id": "GHCND:ASN00013024",
      "elevationUnit": "METERS",
      "longitude": 122.8078
    },
    {
      "elevation": 350,
      "mindate": "1970-02-01",
      "maxdate": "2005-11-30",
      "latitude": -20.1006,
      "name": "MULAN, AS",
      "datacoverage": 0.3186,
      "id": "GHCND:ASN00013025",
      "elevationUnit": "METERS",
      "longitude": 127.5958
    },
    {
      "mindate": "1971-10-01",
      "maxdate": "1972-08-31",
      "latitude": -22.5833,
      "name": "RUDALL RIVER, AS",
      "datacoverage": 0.9077,
      "id": "GHCND:ASN00013026",
      "longitude": 122.2667
    },
    {
      "elevation": 300,
      "mindate": "1973-01-01",
      "maxdate": "1993-02-28",
      "latitude": -20.5161,
      "name": "NGULUPI STATION, AS",
      "datacoverage": 0.906,
      "id": "GHCND:ASN00013027",
      "elevationUnit": "METERS",
      "longitude": 128.9361
    },
    {
      "mindate": "1972-11-01",
      "maxdate": "1973-03-31",
      "latitude": -23.2,
      "name": "WALGUN, AS",
      "datacoverage": 0.8063,
      "id": "GHCND:ASN00013028",
      "longitude": 120.7333
    },
    {
      "mindate": "1960-01-01",
      "maxdate": "1974-03-31",
      "latitude": -23.0333,
      "name": "BILLINNOOKA, AS",
      "datacoverage": 0.9943,
      "id": "GHCND:ASN00013029",
      "longitude": 120.9
    },
    {
      "elevation": 291.9,
      "mindate": "1750-03-09",
      "maxdate": "2025-02-27",
      "latitude": -21.7125,
      "name": "TELFER AERO, AS",
      "datacoverage": 1,
      "id": "GHCND:ASN00013030",
      "elevationUnit": "METERS",
      "longitude": 122.2281
    },
    {
      "elevation": 500,
      "mindate": "1980-11-01",
      "maxdate": "2025-01-07",
      "latitude": -25.6361,
      "name": "GRANITE PEAK, AS",
      "datacoverage": 0.9182,
      "id": "GHCND:ASN00013032",
      "elevationUnit": "METERS",
      "longitude": 121.3533
    },
    {
      "elevation": 480,
      "mindate": "1983-03-01",
      "maxdate": "1983-06-25",
      "latitude": -26.5283,
      "name": "YOWALGA, AS",
      "datacoverage": 1,
      "id": "GHCND:ASN00013033",
      "elevationUnit": "METERS",
      "longitude": 125.6144
    },
    {
      "elevation": 450,
      "mindate": "1988-01-01",
      "maxdate": "2025-01-31",
      "latitude": -27.0336,
      "name": "BARWIDGEE, AS",
      "datacoverage": 0.9223,
      "id": "GHCND:ASN00013034",
      "elevationUnit": "METERS",
      "longitude": 120.9233
    },
    {
      "elevation": 450,
      "mindate": "1750-05-12",
      "maxdate": "2025-01-31",
      "latitude": -27.0336,
      "name": "DELETA STATION, AS",
      "datacoverage": 0.9097,
      "id": "GHCND:ASN00013035",
      "elevationUnit": "METERS",
      "longitude": 122.4439
    },
    {
      "elevation": 560,
      "mindate": "1992-08-01",
      "maxdate": "2006-01-31",
      "latitude": -26.3508,
      "name": "JUNDEE, AS",
      "datacoverage": 0.9998,
      "id": "GHCND:ASN00013036",
      "elevationUnit": "METERS",
      "longitude": 120.6408
    },
    {
      "elevation": 460,
      "mindate": "1993-01-01",
      "maxdate": "1993-12-31",
      "latitude": -26.3353,
      "name": "XMAS BORE MILLROSE, AS",
      "datacoverage": 1,
      "id": "GHCND:ASN00013037",
      "elevationUnit": "METERS",
      "longitude": 120.7786
    },
    {
      "elevation": 600,
      "mindate": "1996-01-01",
      "maxdate": "2023-04-14",
      "latitude": -25.7069,
      "name": "CUNYU, AS",
      "datacoverage": 0.934,
      "id": "GHCND:ASN00013038",
      "elevationUnit": "METERS",
      "longitude": 120.3478
    },
    {
      "elevation": 502,
      "mindate": "1995-10-01",
      "maxdate": "2020-11-02",
      "latitude": -26.5994,
      "name": "PACKSADDLE FARM, AS",
      "datacoverage": 0.9372,
      "id": "GHCND:ASN00013039",
      "elevationUnit": "METERS",
      "longitude": 120.3417
    },
    {
      "elevation": 450,
      "mindate": "1994-07-01",
      "maxdate": "2025-02-17",
      "latitude": -27.1542,
      "name": "TJUKAYIRLA, AS",
      "datacoverage": 0.5979,
      "id": "GHCND:ASN00013040",
      "elevationUnit": "METERS",
      "longitude": 124.5747
    },
    {
      "elevation": 400,
      "mindate": "2004-02-01",
      "maxdate": "2013-08-31",
      "latitude": -22.8189,
      "name": "PARNNGURR, AS",
      "datacoverage": 0.1044,
      "id": "GHCND:ASN00013043",
      "elevationUnit": "METERS",
      "longitude": 122.5956
    }
  ]
}
