{
  "metadata": {
    "resultset": {
      "offset": 130100,
      "count": 154115,
      "limit": 100
    }
  },
  "results": [
    {
      "elevation": 6.1,
      "mindate": "1892-12-01",
      "maxdate": "1905-05-31",
      "latitude": 30.06667,
      "name": "EMILIE, LA US",
      "datacoverage": 1,
      "id": "GHCND:USC00162872",
      "elevationUnit": "METERS",
      "longitude": -90.61667
    },
    {
      "mindate": "1970-09-01",
      "maxdate": "1970-12-31",
      "latitude": 29.4,
      "name": "EMPIRE, LA ",
      "datacoverage": 1,
      "id": "GHCND:USC00162884",
      "longitude": -89.6
    },
    {
      "elevation": 14.9,
      "mindate": "1942-12-01",
      "maxdate": "1965-01-31",
      "latitude": 30.7,
      "name": "ENON 7 WSW, LA US",
      "datacoverage": 0.981,
      "id": "GHCND:USC00162916",
      "elevationUnit": "METERS",
      "longitude": -90.18333
    },
    {
      "mindate": "1943-01-01",
      "maxdate": "1947-05-21",
      "latitude": 29.85,
      "name": "ESTHER, LA US",
      "datacoverage": 0.9365,
      "id": "GHCND:USC00162954",
      "longitude": -92.233333
    },
    {
      "elevation": 30.2,
      "mindate": "1967-01-01",
      "maxdate": "1986-12-31",
      "latitude": 32.61667,
      "name": "EPPS 6 WNW, LA US",
      "datacoverage": 0.9959,
      "id": "GHCND:USC00162971",
      "elevationUnit": "METERS",
      "longitude": -91.56667
    },
    {
      "mindate": "1942-09-01",
      "maxdate": "1945-08-31",
      "latitude": 31.383333,
      "name": "ESLER FIELD, LA US",
      "datacoverage": 1,
      "id": "GHCND:USC00162976",
      "longitude": -92.3
    },
    {
      "elevation": 15.2,
      "mindate": "1940-05-01",
      "maxdate": "2015-02-01",
      "latitude": 30.4916,
      "name": "EUNICE, LA US",
      "datacoverage": 1,
      "id": "GHCND:USC00162981",
      "elevationUnit": "METERS",
      "longitude": -92.4302
    },
    {
      "mindate": "1943-04-01",
      "maxdate": "1945-10-31",
      "latitude": 31.2,
      "name": "EVANGELINE GUARD STATION, LA US",
      "datacoverage": 0.7408,
      "id": "GHCND:USC00163001",
      "longitude": -92.6
    },
    {
      "mindate": "1948-05-01",
      "maxdate": "1957-04-30",
      "latitude": 30.98333,
      "name": "EVANS, LA US",
      "datacoverage": 0.9167,
      "id": "GHCND:USC00163009",
      "longitude": -93.5
    },
    {
      "elevation": 48.8,
      "mindate": "1891-02-01",
      "maxdate": "2024-06-25",
      "latitude": 32.77367,
      "name": "FARMERVILLE, LA US",
      "datacoverage": 1,
      "id": "GHCND:USC00163079",
      "elevationUnit": "METERS",
      "longitude": -92.40852
    },
    {
      "elevation": 49.1,
      "mindate": "1955-01-01",
      "maxdate": "1965-08-31",
      "latitude": 32.78333,
      "name": "FARMERVILLE 6 E, LA US",
      "datacoverage": 1,
      "id": "GHCND:USC00163087",
      "elevationUnit": "METERS",
      "longitude": -92.28333
    },
    {
      "mindate": "1907-04-01",
      "maxdate": "1912-11-30",
      "latitude": 31.63333,
      "name": "FERRIDAY, LA US",
      "datacoverage": 0.9553,
      "id": "GHCND:USC00163117",
      "longitude": -91.56667
    },
    {
      "elevation": 67.1,
      "mindate": "1983-08-01",
      "maxdate": "1986-12-31",
      "latitude": 30.83333,
      "name": "FLUKER FIRE TOWER, LA US",
      "datacoverage": 0.9992,
      "id": "GHCND:USC00163142",
      "elevationUnit": "METERS",
      "longitude": -90.56667
    },
    {
      "elevation": 21.3,
      "mindate": "1993-09-01",
      "maxdate": "2010-12-31",
      "latitude": 30.55056,
      "name": "FOLSOM 6 S, LA US",
      "datacoverage": 1,
      "id": "GHCND:USC00163165",
      "elevationUnit": "METERS",
      "longitude": -90.19194
    },
    {
      "mindate": "1956-05-01",
      "maxdate": "1956-09-30",
      "latitude": 30.35,
      "name": "FONTAINBLEAU STATE P, LA US",
      "datacoverage": 1,
      "id": "GHCND:USC00163218",
      "longitude": -90.05
    },
    {
      "elevation": 3.7,
      "mindate": "1893-01-01",
      "maxdate": "2024-11-04",
      "latitude": 29.8233,
      "name": "FRANKLIN 3 NW, LA US",
      "datacoverage": 1,
      "id": "GHCND:USC00163313",
      "elevationUnit": "METERS",
      "longitude": -91.5441
    },
    {
      "elevation": 37.8,
      "mindate": "1910-09-01",
      "maxdate": "1969-06-30",
      "latitude": 30.84333,
      "name": "FRANKLINTON, LA US",
      "datacoverage": 0.9901,
      "id": "GHCND:USC00163321",
      "elevationUnit": "METERS",
      "longitude": -90.16194
    },
    {
      "elevation": 44.2,
      "mindate": "1978-12-01",
      "maxdate": "2010-12-31",
      "latitude": 30.83528,
      "name": "FRANKLINTON 2, LA US",
      "datacoverage": 1,
      "id": "GHCND:USC00163322",
      "elevationUnit": "METERS",
      "longitude": -90.1625
    },
    {
      "elevation": 73.2,
      "mindate": "1954-01-01",
      "maxdate": "1956-07-31",
      "latitude": 30.78417,
      "name": "FRANKLINTON 5 SW, LA US",
      "datacoverage": 0.9991,
      "id": "GHCND:USC00163324",
      "elevationUnit": "METERS",
      "longitude": -90.20222
    },
    {
      "elevation": 61,
      "mindate": "1978-04-01",
      "maxdate": "1978-11-30",
      "latitude": 30.93333,
      "name": "FRANKLINTON 6 NNW, LA US",
      "datacoverage": 1,
      "id": "GHCND:USC00163326",
      "elevationUnit": "METERS",
      "longitude": -90.18333
    },
    {
      "elevation": 44.2,
      "mindate": "1956-01-01",
      "maxdate": "2010-12-31",
      "latitude": 30.81861,
      "name": "FRANKLINTON 3 SW, LA US",
      "datacoverage": 1,
      "id": "GHCND:USC00163327",
      "elevationUnit": "METERS",
      "longitude": -90.18
    },
    {
      "elevation": 73.2,
      "mindate": "1984-04-01",
      "maxdate": "2010-12-31",
      "latitude": 30.78417,
      "name": "FRANKLINTON 5 SW, LA US",
      "datacoverage": 1,
      "id": "GHCND:USC00163331",
      "elevationUnit": "METERS",
      "longitude": -90.20222
    },
    {
      "elevation": 3,
      "mindate": "1948-06-01",
      "maxdate": "1951-09-30",
      "latitude": 30.3,
      "name": "FRENCH SETTLEMENT, LA US",
      "datacoverage": 0.9004,
      "id": "GHCND:USC00163345",
      "elevationUnit": "METERS",
      "longitude": -90.8
    },
    {
      "elevation": 1.5,
      "mindate": "1968-01-01",
      "maxdate": "2021-08-25",
      "latitude": 29.4631,
      "name": "GALLIANO, LA US",
      "datacoverage": 1,
      "id": "GHCND:USC00163433",
      "elevationUnit": "METERS",
      "longitude": -90.3072
    },
    {
      "elevation": 27.1,
      "mindate": "1904-10-01",
      "maxdate": "1907-05-31",
      "latitude": 31.75,
      "name": "GEORGETOWN, LA US",
      "datacoverage": 0.7508,
      "id": "GHCND:USC00163544",
      "elevationUnit": "METERS",
      "longitude": -92.38333
    },
    {
      "elevation": 3,
      "mindate": "1947-04-01",
      "maxdate": "1947-11-21",
      "latitude": 29.7,
      "name": "GHEENS, LA US",
      "datacoverage": 0.998,
      "id": "GHCND:USC00163562",
      "elevationUnit": "METERS",
      "longitude": -90.46667
    },
    {
      "elevation": 70.7,
      "mindate": "1941-08-01",
      "maxdate": "1942-12-31",
      "latitude": 32.533333,
      "name": "GIBSLAND NEAR SOIL CONSERVATION SERVICE NUMBER 15, LA US",
      "datacoverage": 0.9989,
      "id": "GHCND:USC00163600",
      "elevationUnit": "METERS",
      "longitude": -93.033333
    },
    {
      "elevation": 24.1,
      "mindate": "1891-07-01",
      "maxdate": "1895-01-31",
      "latitude": 32.46667,
      "name": "GIRARD, LA US",
      "datacoverage": 1,
      "id": "GHCND:USC00163630",
      "elevationUnit": "METERS",
      "longitude": -91.8
    },
    {
      "elevation": 43,
      "mindate": "1948-06-01",
      "maxdate": "1951-09-30",
      "latitude": 30.96667,
      "name": "GLENMORA, LA US",
      "datacoverage": 1,
      "id": "GHCND:USC00163639",
      "elevationUnit": "METERS",
      "longitude": -92.58333
    },
    {
      "elevation": 78.9,
      "mindate": "1947-01-01",
      "maxdate": "1981-09-30",
      "latitude": 32.2,
      "name": "GLOSTER 1 W, LA US",
      "datacoverage": 1,
      "id": "GHCND:USC00163657",
      "elevationUnit": "METERS",
      "longitude": -93.83333
    },
    {
      "elevation": 0,
      "mindate": "1954-01-01",
      "maxdate": "1982-06-30",
      "latitude": 29.38333,
      "name": "GOLDEN MEADOW, LA US",
      "datacoverage": 0.4315,
      "id": "GHCND:USC00163681",
      "elevationUnit": "METERS",
      "longitude": -90.26667
    },
    {
      "elevation": 3,
      "mindate": "1978-01-01",
      "maxdate": "2025-03-07",
      "latitude": 30.2033,
      "name": "GONZALES, LA US",
      "datacoverage": 1,
      "id": "GHCND:USC00163695",
      "elevationUnit": "METERS",
      "longitude": -90.9225
    },
    {
      "elevation": 93.6,
      "mindate": "1953-11-01",
      "maxdate": "2012-02-22",
      "latitude": 31.4358,
      "name": "GORUM FIRE TOWER, LA US",
      "datacoverage": 1,
      "id": "GHCND:USC00163741",
      "elevationUnit": "METERS",
      "longitude": -92.8827
    },
    {
      "elevation": 6.1,
      "mindate": "1986-01-01",
      "maxdate": "1992-12-31",
      "latitude": 30.0388,
      "name": "LUTCHER, LA US",
      "datacoverage": 1,
      "id": "GHCND:USC00163755",
      "elevationUnit": "METERS",
      "longitude": -90.6936
    },
    {
      "elevation": 82.3,
      "mindate": "1907-01-01",
      "maxdate": "1985-05-31",
      "latitude": 32.13333,
      "name": "GRAND CANE FIRE TOWE, LA US",
      "datacoverage": 0.5757,
      "id": "GHCND:USC00163794",
      "elevationUnit": "METERS",
      "longitude": -93.8
    },
    {
      "elevation": 3,
      "mindate": "1923-07-01",
      "maxdate": "1969-12-31",
      "latitude": 29.76667,
      "name": "GRAND CHENIER, LA US",
      "datacoverage": 0.534,
      "id": "GHCND:USC00163798",
      "elevationUnit": "METERS",
      "longitude": -92.95
    },
    {
      "elevation": 16.8,
      "mindate": "1893-01-01",
      "maxdate": "2024-02-19",
      "latitude": 30.4184,
      "name": "GRAND COTEAU, LA US",
      "datacoverage": 1,
      "id": "GHCND:USC00163800",
      "elevationUnit": "METERS",
      "longitude": -92.0443
    },
    {
      "elevation": 45.7,
      "mindate": "1914-12-01",
      "maxdate": "2011-05-01",
      "latitude": 31.8077,
      "name": "GRAND ECORE, LA US",
      "datacoverage": 1,
      "id": "GHCND:USC00163804",
      "elevationUnit": "METERS",
      "longitude": -93.0866
    },
    {
      "elevation": 0.6,
      "mindate": "1947-03-01",
      "maxdate": "2016-03-01",
      "latitude": 29.2414,
      "name": "GRAND ISLE, LA US",
      "datacoverage": 1,
      "id": "GHCND:USC00163807",
      "elevationUnit": "METERS",
      "longitude": -89.9914
    },
    {
      "elevation": 1.5,
      "mindate": "1984-01-01",
      "maxdate": "2010-12-31",
      "latitude": 29.91694,
      "name": "GRETNA, LA US",
      "datacoverage": 1,
      "id": "GHCND:USC00163829",
      "elevationUnit": "METERS",
      "longitude": -90.06167
    },
    {
      "elevation": 70.1,
      "mindate": "1958-01-01",
      "maxdate": "1981-09-30",
      "latitude": 30.83333,
      "name": "GREENSBURG, LA US",
      "datacoverage": 0.9262,
      "id": "GHCND:USC00163864",
      "elevationUnit": "METERS",
      "longitude": -90.66667
    },
    {
      "elevation": 18.3,
      "mindate": "1967-06-01",
      "maxdate": "2010-12-31",
      "latitude": 30.55889,
      "name": "GREENWELL SPRINGS, LA US",
      "datacoverage": 1,
      "id": "GHCND:USC00163867",
      "elevationUnit": "METERS",
      "longitude": -90.98556
    },
    {
      "elevation": 106.7,
      "mindate": "1952-01-01",
      "maxdate": "2010-12-31",
      "latitude": 32.4174,
      "name": "GREENWOOD FIRE TOWER, LA US",
      "datacoverage": 1,
      "id": "GHCND:USC00163877",
      "elevationUnit": "METERS",
      "longitude": -94.0002
    },
    {
      "elevation": 3,
      "mindate": "1912-09-01",
      "maxdate": "1968-08-31",
      "latitude": 29.95,
      "name": "GUEYDAN 5 S, LA US",
      "datacoverage": 0.5759,
      "id": "GHCND:USC00163930",
      "elevationUnit": "METERS",
      "longitude": -92.51667
    },
    {
      "elevation": 67.1,
      "mindate": "1942-07-01",
      "maxdate": "1954-12-31",
      "latitude": 31.9,
      "name": "GUM SPRINGS FIRE TOW, LA US",
      "datacoverage": 0.7267,
      "id": "GHCND:USC00163944",
      "elevationUnit": "METERS",
      "longitude": -92.78333
    },
    {
      "elevation": 1.8,
      "mindate": "1939-01-01",
      "maxdate": "2024-01-11",
      "latitude": 29.8895,
      "name": "HACKBERRY 8 SSW, LA US",
      "datacoverage": 1,
      "id": "GHCND:USC00163979",
      "elevationUnit": "METERS",
      "longitude": -93.4021
    },
    {
      "elevation": 1.8,
      "mindate": "2001-05-01",
      "maxdate": "2005-10-31",
      "latitude": 29.9872,
      "name": "HACKBERRY 4 NE, LA US",
      "datacoverage": 0.8696,
      "id": "GHCND:USC00163981",
      "elevationUnit": "METERS",
      "longitude": -93.2694
    },
    {
      "elevation": 14.9,
      "mindate": "1893-05-01",
      "maxdate": "1894-07-31",
      "latitude": 31.01667,
      "name": "HAMBURG, LA US",
      "datacoverage": 0.7326,
      "id": "GHCND:USC00164021",
      "elevationUnit": "METERS",
      "longitude": -91.93333
    },
    {
      "elevation": 10.7,
      "mindate": "1981-01-01",
      "maxdate": "2014-12-31",
      "latitude": 30.503,
      "name": "HAMMOND 5 E, LA US",
      "datacoverage": 1,
      "id": "GHCND:USC00164030",
      "elevationUnit": "METERS",
      "longitude": -90.3772
    },
    {
      "elevation": 10.7,
      "mindate": "1892-05-01",
      "maxdate": "2024-07-31",
      "latitude": 30.4878,
      "name": "HAMMOND, LA US",
      "datacoverage": 1,
      "id": "GHCND:USC00164034",
      "elevationUnit": "METERS",
      "longitude": -90.48743
    },
    {
      "elevation": 38.7,
      "mindate": "1972-05-01",
      "maxdate": "2022-08-23",
      "latitude": 31.92716,
      "name": "HANNA 4 SSE, LA US",
      "datacoverage": 1,
      "id": "GHCND:USC00164050",
      "elevationUnit": "METERS",
      "longitude": -93.31017
    },
    {
      "elevation": 43,
      "mindate": "1948-01-01",
      "maxdate": "1959-10-31",
      "latitude": 32.06667,
      "name": "HARMON, LA US",
      "datacoverage": 0.8733,
      "id": "GHCND:USC00164088",
      "elevationUnit": "METERS",
      "longitude": -93.43333
    },
    {
      "elevation": 18,
      "mindate": "1940-12-01",
      "maxdate": "1972-03-31",
      "latitude": 31.78333,
      "name": "HARRISONBURG LOCK 2, LA US",
      "datacoverage": 0.9468,
      "id": "GHCND:USC00164100",
      "elevationUnit": "METERS",
      "longitude": -91.81667
    },
    {
      "elevation": 92.4,
      "mindate": "1940-03-01",
      "maxdate": "2012-02-16",
      "latitude": 32.9683,
      "name": "HAYNESVILLE, LA US",
      "datacoverage": 1,
      "id": "GHCND:USC00164131",
      "elevationUnit": "METERS",
      "longitude": -93.1297
    },
    {
      "elevation": 6.1,
      "mindate": "1954-06-01",
      "maxdate": "1958-11-30",
      "latitude": 30.35,
      "name": "HECKER, LA US",
      "datacoverage": 0.9986,
      "id": "GHCND:USC00164164",
      "elevationUnit": "METERS",
      "longitude": -93.08333
    },
    {
      "elevation": 6.1,
      "mindate": "1962-01-01",
      "maxdate": "1967-01-31",
      "latitude": 30.31667,
      "name": "HENDERSON 2 W, LA US",
      "datacoverage": 1,
      "id": "GHCND:USC00164186",
      "elevationUnit": "METERS",
      "longitude": -91.81667
    },
    {
      "elevation": 24.1,
      "mindate": "1937-10-01",
      "maxdate": "1961-11-30",
      "latitude": 31.06667,
      "name": "HESSMER, LA US",
      "datacoverage": 0.9793,
      "id": "GHCND:USC00164200",
      "elevationUnit": "METERS",
      "longitude": -92.11667
    },
    {
      "elevation": 21,
      "mindate": "1948-03-01",
      "maxdate": "1958-07-31",
      "latitude": 31.43333,
      "name": "HICKORY GROVE, LA US",
      "datacoverage": 0.424,
      "id": "GHCND:USC00164209",
      "elevationUnit": "METERS",
      "longitude": -92.23333
    },
    {
      "elevation": 73.2,
      "mindate": "1954-07-01",
      "maxdate": "1978-12-31",
      "latitude": 31.18333,
      "name": "HINESTON 4 NNE, LA US",
      "datacoverage": 0.9998,
      "id": "GHCND:USC00164260",
      "elevationUnit": "METERS",
      "longitude": -92.75
    },
    {
      "elevation": 128,
      "mindate": "1963-03-01",
      "maxdate": "2017-10-18",
      "latitude": 31.3747,
      "name": "HODGES GARDENS, LA US",
      "datacoverage": 1,
      "id": "GHCND:USC00164288",
      "elevationUnit": "METERS",
      "longitude": -93.3911
    },
    {
      "elevation": 24.1,
      "mindate": "1944-04-01",
      "maxdate": "1951-11-30",
      "latitude": 32.46667,
      "name": "HOLLY RIDGE, LA US",
      "datacoverage": 0.8262,
      "id": "GHCND:USC00164315",
      "elevationUnit": "METERS",
      "longitude": -91.61667
    },
    {
      "elevation": 70.1,
      "mindate": "1948-06-01",
      "maxdate": "1951-09-28",
      "latitude": 32.0775,
      "name": "MARTIN FIRE TOWER, LA US",
      "datacoverage": 0.9004,
      "id": "GHCND:USC00164316",
      "elevationUnit": "METERS",
      "longitude": -93.21667
    },
    {
      "elevation": 27.1,
      "mindate": "1957-12-01",
      "maxdate": "1967-01-23",
      "latitude": 32.61667,
      "name": "HOLLY RIDGE 10 N, LA US",
      "datacoverage": 0.9816,
      "id": "GHCND:USC00164320",
      "elevationUnit": "METERS",
      "longitude": -91.63333
    },
    {
      "mindate": "1922-12-01",
      "maxdate": "1926-01-31",
      "latitude": 29.46667,
      "name": "HOMEPLACE, LA ",
      "datacoverage": 0.8674,
      "id": "GHCND:USC00164348",
      "longitude": -89.66667
    },
    {
      "elevation": 65.5,
      "mindate": "1893-01-01",
      "maxdate": "2025-03-07",
      "latitude": 32.81,
      "name": "HOMER 1 N, LA US",
      "datacoverage": 1,
      "id": "GHCND:USC00164355",
      "elevationUnit": "METERS",
      "longitude": -93.0626
    },
    {
      "mindate": "1917-06-01",
      "maxdate": "1917-10-25",
      "latitude": 32.5,
      "name": "HONORE, LA US",
      "datacoverage": 0.998,
      "id": "GHCND:USC00164367",
      "longitude": -93.66667
    },
    {
      "elevation": 0.9,
      "mindate": "1957-01-01",
      "maxdate": "1965-11-30",
      "latitude": 29.81667,
      "name": "HOPEDALE, LA US",
      "datacoverage": 0.9496,
      "id": "GHCND:USC00164381",
      "elevationUnit": "METERS",
      "longitude": -89.65
    },
    {
      "elevation": 128,
      "mindate": "1943-11-01",
      "maxdate": "1963-04-30",
      "latitude": 31.3747,
      "name": "HODGES GARDENS, LA US",
      "datacoverage": 0.8335,
      "id": "GHCND:USC00164384",
      "elevationUnit": "METERS",
      "longitude": -93.3911
    },
    {
      "elevation": 75,
      "mindate": "1940-01-01",
      "maxdate": "2014-03-31",
      "latitude": 32.8866,
      "name": "HOSSTON, LA US",
      "datacoverage": 1,
      "id": "GHCND:USC00164398",
      "elevationUnit": "METERS",
      "longitude": -93.8733
    },
    {
      "elevation": 2.4,
      "mindate": "1893-01-01",
      "maxdate": "2013-08-16",
      "latitude": 29.6407,
      "name": "HOUMA, LA US",
      "datacoverage": 1,
      "id": "GHCND:USC00164407",
      "elevationUnit": "METERS",
      "longitude": -90.816
    },
    {
      "elevation": 3,
      "mindate": "1948-06-01",
      "maxdate": "1951-09-30",
      "latitude": 29.58333,
      "name": "HOUMA 2, LA US",
      "datacoverage": 1,
      "id": "GHCND:USC00164410",
      "elevationUnit": "METERS",
      "longitude": -90.73333
    },
    {
      "elevation": 82,
      "mindate": "1949-06-01",
      "maxdate": "1951-09-30",
      "latitude": 31.98333,
      "name": "HUNTER, LA US",
      "datacoverage": 0.6935,
      "id": "GHCND:USC00164453",
      "elevationUnit": "METERS",
      "longitude": -93.83333
    },
    {
      "elevation": 73.2,
      "mindate": "1940-01-01",
      "maxdate": "1942-12-31",
      "latitude": 31.7,
      "name": "INDIAN LOOKOUT, LA US",
      "datacoverage": 0.9991,
      "id": "GHCND:USC00164510",
      "elevationUnit": "METERS",
      "longitude": -92.5
    },
    {
      "elevation": 7.6,
      "mindate": "1941-08-01",
      "maxdate": "1941-12-31",
      "latitude": 32.216667,
      "name": "IOWA NEAR SOIL CONSERVATION SERVICE, LA US",
      "datacoverage": 1,
      "id": "GHCND:USC00164535",
      "elevationUnit": "METERS",
      "longitude": -93.033333
    },
    {
      "elevation": 45.7,
      "mindate": "1999-04-01",
      "maxdate": "2010-12-31",
      "latitude": 30.8331,
      "name": "JACKSON 3 E, LA US",
      "datacoverage": 1,
      "id": "GHCND:USC00164573",
      "elevationUnit": "METERS",
      "longitude": -91.1261
    },
    {
      "mindate": "1941-01-01",
      "maxdate": "1943-11-17",
      "latitude": 32.35,
      "name": "JAMESTOWN NEAR SOIL CONSERVATION SERVICE 16, LA US",
      "datacoverage": 1,
      "id": "GHCND:USC00164590",
      "longitude": -93.15
    },
    {
      "elevation": 57.9,
      "mindate": "1998-01-01",
      "maxdate": "2025-03-06",
      "latitude": 32.34837,
      "name": "JAMESTOWN, LA US",
      "datacoverage": 1,
      "id": "GHCND:USC00164592",
      "elevationUnit": "METERS",
      "longitude": -93.20137
    },
    {
      "elevation": 0.9,
      "mindate": "1988-02-01",
      "maxdate": "1991-12-31",
      "latitude": 29.7852,
      "name": "MARRERO 9 SSW, LA US",
      "datacoverage": 1,
      "id": "GHCND:USC00164624",
      "elevationUnit": "METERS",
      "longitude": -90.1158
    },
    {
      "elevation": 5.2,
      "mindate": "1892-05-01",
      "maxdate": "2025-03-06",
      "latitude": 29.95938,
      "name": "JEANERETTE 5 NW, LA US",
      "datacoverage": 1,
      "id": "GHCND:USC00164674",
      "elevationUnit": "METERS",
      "longitude": -91.71118
    },
    {
      "elevation": 46,
      "mindate": "1911-01-01",
      "maxdate": "1951-12-31",
      "latitude": 31.68333,
      "name": "JENA 2 E, LA US",
      "datacoverage": 0.1706,
      "id": "GHCND:USC00164693",
      "elevationUnit": "METERS",
      "longitude": -92.08333
    },
    {
      "elevation": 43.6,
      "mindate": "1985-01-01",
      "maxdate": "2025-02-01",
      "latitude": 31.6782,
      "name": "JENA, LA US",
      "datacoverage": 1,
      "id": "GHCND:USC00164696",
      "elevationUnit": "METERS",
      "longitude": -92.1288
    },
    {
      "elevation": 7.6,
      "mindate": "1897-09-01",
      "maxdate": "2025-03-07",
      "latitude": 30.2002,
      "name": "JENNINGS, LA US",
      "datacoverage": 1,
      "id": "GHCND:USC00164700",
      "elevationUnit": "METERS",
      "longitude": -92.6641
    },
    {
      "elevation": 31.1,
      "mindate": "1940-01-01",
      "maxdate": "1950-08-31",
      "latitude": 32.96667,
      "name": "JONES, LA US",
      "datacoverage": 0.8569,
      "id": "GHCND:USC00164730",
      "elevationUnit": "METERS",
      "longitude": -91.65
    },
    {
      "elevation": 100.6,
      "mindate": "1970-04-01",
      "maxdate": "2012-07-31",
      "latitude": 32.255,
      "name": "JONESBORO 4 ENE, LA US",
      "datacoverage": 1,
      "id": "GHCND:USC00164732",
      "elevationUnit": "METERS",
      "longitude": -92.6544
    },
    {
      "elevation": 21,
      "mindate": "1931-01-01",
      "maxdate": "1972-03-31",
      "latitude": 31.68333,
      "name": "JONESVILLE 4 N, LA US",
      "datacoverage": 0.9899,
      "id": "GHCND:USC00164734",
      "elevationUnit": "METERS",
      "longitude": -91.83333
    },
    {
      "elevation": 75.9,
      "mindate": "2002-01-01",
      "maxdate": "2009-12-31",
      "latitude": 32.2238,
      "name": "JONESBORO NUMBER 2, LA US",
      "datacoverage": 0.9117,
      "id": "GHCND:USC00164735",
      "elevationUnit": "METERS",
      "longitude": -92.7069
    },
    {
      "elevation": 21.3,
      "mindate": "1972-04-01",
      "maxdate": "2025-03-07",
      "latitude": 31.4825,
      "name": "JONESVILLE LOCKS, LA US",
      "datacoverage": 1,
      "id": "GHCND:USC00164739",
      "elevationUnit": "METERS",
      "longitude": -91.8627
    },
    {
      "elevation": 4.6,
      "mindate": "1994-01-01",
      "maxdate": "2025-03-02",
      "latitude": 29.9941,
      "name": "KAPLAN, LA US",
      "datacoverage": 1,
      "id": "GHCND:USC00164775",
      "elevationUnit": "METERS",
      "longitude": -92.2825
    },
    {
      "elevation": 21,
      "mindate": "1969-01-01",
      "maxdate": "1974-12-31",
      "latitude": 29.88333,
      "name": "KAPLIN 8 S, LA US",
      "datacoverage": 0.9993,
      "id": "GHCND:USC00164785",
      "elevationUnit": "METERS",
      "longitude": -92.26667
    },
    {
      "mindate": "1942-12-01",
      "maxdate": "1946-12-31",
      "latitude": 32.183333,
      "name": "KEATCHIE, LA US",
      "datacoverage": 0.8976,
      "id": "GHCND:USC00164800",
      "longitude": -93.9
    },
    {
      "elevation": 61,
      "mindate": "1940-01-01",
      "maxdate": "2025-03-07",
      "latitude": 32.355,
      "name": "KEITHVILLE, LA US",
      "datacoverage": 1,
      "id": "GHCND:USC00164816",
      "elevationUnit": "METERS",
      "longitude": -93.8619
    },
    {
      "mindate": "1914-11-01",
      "maxdate": "1926-09-30",
      "latitude": 31.91667,
      "name": "KELLY, LA US",
      "datacoverage": 1,
      "id": "GHCND:USC00164830",
      "longitude": -92.15
    },
    {
      "elevation": 70.1,
      "mindate": "1941-08-01",
      "maxdate": "2010-12-31",
      "latitude": 30.94333,
      "name": "KENTWOOD, LA US",
      "datacoverage": 1,
      "id": "GHCND:USC00164859",
      "elevationUnit": "METERS",
      "longitude": -90.51167
    },
    {
      "elevation": 3,
      "mindate": "2011-02-01",
      "maxdate": "2016-10-26",
      "latitude": 30.3727,
      "name": "KILLIAN, LA US",
      "datacoverage": 0.667,
      "id": "GHCND:USC00164878",
      "elevationUnit": "METERS",
      "longitude": -90.5505
    },
    {
      "elevation": 15.2,
      "mindate": "1942-12-22",
      "maxdate": "1986-12-31",
      "latitude": 30.5,
      "name": "KINDER 3 W, LA US",
      "datacoverage": 0.9848,
      "id": "GHCND:USC00164884",
      "elevationUnit": "METERS",
      "longitude": -92.9
    },
    {
      "elevation": 91.4,
      "mindate": "1939-03-01",
      "maxdate": "1946-02-28",
      "latitude": 31.466667,
      "name": "KISATCHIE, LA US",
      "datacoverage": 0.9523,
      "id": "GHCND:USC00164905",
      "elevationUnit": "METERS",
      "longitude": -93.183333
    },
    {
      "elevation": 53.3,
      "mindate": "1947-01-01",
      "maxdate": "2021-03-25",
      "latitude": 32.4169,
      "name": "KORAN, LA US",
      "datacoverage": 0.9625,
      "id": "GHCND:USC00164931",
      "elevationUnit": "METERS",
      "longitude": -93.4428
    },
    {
      "mindate": "1912-01-01",
      "maxdate": "1914-06-30",
      "latitude": 32.96667,
      "name": "LAARK, LA US",
      "datacoverage": 0.9679,
      "id": "GHCND:USC00164958",
      "longitude": -91.5
    },
    {
      "elevation": 7.6,
      "mindate": "1985-04-01",
      "maxdate": "2015-12-01",
      "latitude": 30.2191,
      "name": "LAFAYETTE, LA US",
      "datacoverage": 1,
      "id": "GHCND:USC00165021",
      "elevationUnit": "METERS",
      "longitude": -92.065
    },
    {
      "elevation": 3.7,
      "mindate": "1901-12-01",
      "maxdate": "2025-02-27",
      "latitude": 30.02054,
      "name": "LAKE ARTHUR 7 SW, LA US",
      "datacoverage": 1,
      "id": "GHCND:USC00165065",
      "elevationUnit": "METERS",
      "longitude": -92.76808
    }
  ]
}
