{
  "metadata": {
    "resultset": {
      "offset": 143900,
      "count": 154115,
      "limit": 100
    }
  },
  "results": [
    {
      "elevation": 328.9,
      "mindate": "1923-01-01",
      "maxdate": "1967-06-30",
      "latitude": 38.98333,
      "name": "HORNER, WV US",
      "datacoverage": 0.9619,
      "id": "GHCND:USC00464281",
      "elevationUnit": "METERS",
      "longitude": -80.36667
    },
    {
      "elevation": 865.6,
      "mindate": "1925-01-01",
      "maxdate": "1935-12-31",
      "latitude": 38.8,
      "name": "HORTON, WV US",
      "datacoverage": 0.9396,
      "id": "GHCND:USC00464292",
      "elevationUnit": "METERS",
      "longitude": -80.45
    },
    {
      "elevation": 267.9,
      "mindate": "1921-01-01",
      "maxdate": "1967-08-31",
      "latitude": 39.5,
      "name": "HOULT LOCK 15, WV US",
      "datacoverage": 1,
      "id": "GHCND:USC00464309",
      "elevationUnit": "METERS",
      "longitude": -80.13333
    },
    {
      "elevation": 304.8,
      "mindate": "1948-08-01",
      "maxdate": "1951-09-30",
      "latitude": 39.7,
      "name": "HUNDRED, WV US",
      "datacoverage": 1,
      "id": "GHCND:USC00464369",
      "elevationUnit": "METERS",
      "longitude": -80.46667
    },
    {
      "elevation": 320,
      "mindate": "1982-01-01",
      "maxdate": "1995-12-31",
      "latitude": 39.7,
      "name": "HUNDRED 1 N, WV US",
      "datacoverage": 0.8632,
      "id": "GHCND:USC00464372",
      "elevationUnit": "METERS",
      "longitude": -80.45
    },
    {
      "elevation": 207,
      "mindate": "1891-12-01",
      "maxdate": "1957-09-30",
      "latitude": 38.41667,
      "name": "HUNTINGTON 1, WV US",
      "datacoverage": 0.9279,
      "id": "GHCND:USC00464378",
      "elevationUnit": "METERS",
      "longitude": -82.36667
    },
    {
      "elevation": 182.9,
      "mindate": "1943-05-01",
      "maxdate": "1951-06-10",
      "latitude": 38.41667,
      "name": "HUNTINGTON 2, WV US",
      "datacoverage": 0.9693,
      "id": "GHCND:USC00464383",
      "elevationUnit": "METERS",
      "longitude": -82.43333
    },
    {
      "elevation": 172.2,
      "mindate": "1949-01-01",
      "maxdate": "1967-02-15",
      "latitude": 38.41667,
      "name": "HUNTINGTON FEDERAL B, WV US",
      "datacoverage": 0.9723,
      "id": "GHCND:USC00464388",
      "elevationUnit": "METERS",
      "longitude": -82.45
    },
    {
      "elevation": 158.5,
      "mindate": "1967-07-01",
      "maxdate": "2016-07-30",
      "latitude": 38.4014,
      "name": "HUNTINGTON SWG PLANT, WV US",
      "datacoverage": 1,
      "id": "GHCND:USC00464397",
      "elevationUnit": "METERS",
      "longitude": -82.5266
    },
    {
      "elevation": 326.1,
      "mindate": "1941-12-01",
      "maxdate": "2012-11-15",
      "latitude": 37.4502,
      "name": "IAEGER 1 SW, WV US",
      "datacoverage": 1,
      "id": "GHCND:USC00464408",
      "elevationUnit": "METERS",
      "longitude": -81.8236
    },
    {
      "mindate": "1940-04-01",
      "maxdate": "1941-04-24",
      "latitude": 37.566667,
      "name": "INDIAN MILLS, WV US",
      "datacoverage": 1,
      "id": "GHCND:USC00464430",
      "longitude": -80.8
    },
    {
      "elevation": 184.7,
      "mindate": "1937-04-01",
      "maxdate": "1947-11-30",
      "latitude": 38.38333,
      "name": "INSTITUTE WERTZ FIELD, WV US",
      "datacoverage": 0.9922,
      "id": "GHCND:USC00464455",
      "elevationUnit": "METERS",
      "longitude": -81.66667
    },
    {
      "elevation": 174,
      "mindate": "1923-01-01",
      "maxdate": "1948-07-31",
      "latitude": 39.36667,
      "name": "INWOOD, WV US",
      "datacoverage": 0.557,
      "id": "GHCND:USC00464470",
      "elevationUnit": "METERS",
      "longitude": -78.05
    },
    {
      "elevation": 348.1,
      "mindate": "1936-09-01",
      "maxdate": "1974-12-31",
      "latitude": 38.81667,
      "name": "IRELAND, WV US",
      "datacoverage": 0.8674,
      "id": "GHCND:USC00464478",
      "elevationUnit": "METERS",
      "longitude": -80.46667
    },
    {
      "elevation": 323.1,
      "mindate": "1946-04-01",
      "maxdate": "1954-11-30",
      "latitude": 39.2,
      "name": "ISAACS CREEK, WV US",
      "datacoverage": 0.9998,
      "id": "GHCND:USC00464499",
      "elevationUnit": "METERS",
      "longitude": -80.5
    },
    {
      "elevation": 307.8,
      "mindate": "1923-08-01",
      "maxdate": "1976-06-30",
      "latitude": 39.11667,
      "name": "JANE LEW, WV US",
      "datacoverage": 0.9354,
      "id": "GHCND:USC00464559",
      "elevationUnit": "METERS",
      "longitude": -80.41667
    },
    {
      "elevation": 342,
      "mindate": "1946-07-01",
      "maxdate": "1954-11-30",
      "latitude": 39.1,
      "name": "JESSE RUN, WV US",
      "datacoverage": 0.9997,
      "id": "GHCND:USC00464619",
      "elevationUnit": "METERS",
      "longitude": -80.33333
    },
    {
      "elevation": 235,
      "mindate": "1961-01-01",
      "maxdate": "1961-07-31",
      "latitude": 38.23333,
      "name": "JODIE, WV US",
      "datacoverage": 1,
      "id": "GHCND:USC00464631",
      "elevationUnit": "METERS",
      "longitude": -81.13333
    },
    {
      "elevation": 244.1,
      "mindate": "1951-05-01",
      "maxdate": "1954-05-25",
      "latitude": 39.31667,
      "name": "JUNCTION, WV US",
      "datacoverage": 0.9998,
      "id": "GHCND:USC00464697",
      "elevationUnit": "METERS",
      "longitude": -78.86667
    },
    {
      "elevation": 189,
      "mindate": "1917-06-01",
      "maxdate": "1941-02-28",
      "latitude": 38.13806,
      "name": "KANAWHA FALLS, WV US",
      "datacoverage": 0.9966,
      "id": "GHCND:USC00464727",
      "elevationUnit": "METERS",
      "longitude": -81.21444
    },
    {
      "elevation": 409,
      "mindate": "1916-01-01",
      "maxdate": "1952-11-30",
      "latitude": 38.01667,
      "name": "KAYFORD, WV US",
      "datacoverage": 0.97,
      "id": "GHCND:USC00464755",
      "elevationUnit": "METERS",
      "longitude": -81.45
    },
    {
      "elevation": 167.6,
      "mindate": "1930-01-01",
      "maxdate": "2010-12-31",
      "latitude": 39.38333,
      "name": "KEARNEYSVILLE, WV US",
      "datacoverage": 1,
      "id": "GHCND:USC00464763",
      "elevationUnit": "METERS",
      "longitude": -77.88333
    },
    {
      "elevation": 189,
      "mindate": "1925-11-01",
      "maxdate": "1985-10-31",
      "latitude": 37.83333,
      "name": "KERMIT, WV US",
      "datacoverage": 0.7833,
      "id": "GHCND:USC00464816",
      "elevationUnit": "METERS",
      "longitude": -82.4
    },
    {
      "elevation": 284.1,
      "mindate": "1954-01-01",
      "maxdate": "1965-05-31",
      "latitude": 39.43333,
      "name": "KEYSER, WV US",
      "datacoverage": 0.882,
      "id": "GHCND:USC00464836",
      "elevationUnit": "METERS",
      "longitude": -78.98333
    },
    {
      "elevation": 294.1,
      "mindate": "1996-01-01",
      "maxdate": "2025-03-07",
      "latitude": 39.42127,
      "name": "KEYSER 2 SSW, WV US",
      "datacoverage": 1,
      "id": "GHCND:USC00464840",
      "elevationUnit": "METERS",
      "longitude": -79.00513
    },
    {
      "elevation": 451.4,
      "mindate": "1930-10-01",
      "maxdate": "1935-07-31",
      "latitude": 37.95,
      "name": "KINGSTON, WV US",
      "datacoverage": 0.9485,
      "id": "GHCND:USC00464884",
      "elevationUnit": "METERS",
      "longitude": -81.3
    },
    {
      "elevation": 566.9,
      "mindate": "1889-05-01",
      "maxdate": "1899-12-31",
      "latitude": 39.46667,
      "name": "KINGWOOD, WV US",
      "datacoverage": 1,
      "id": "GHCND:USC00464897",
      "elevationUnit": "METERS",
      "longitude": -79.68333
    },
    {
      "elevation": 409,
      "mindate": "1938-01-01",
      "maxdate": "1961-01-21",
      "latitude": 39.36667,
      "name": "KNOBLY MOUNTAIN, WV US",
      "datacoverage": 0.9855,
      "id": "GHCND:USC00464941",
      "elevationUnit": "METERS",
      "longitude": -79
    },
    {
      "elevation": 506,
      "mindate": "1963-10-01",
      "maxdate": "2010-12-31",
      "latitude": 37.73333,
      "name": "KOPPERSTON, WV US",
      "datacoverage": 1,
      "id": "GHCND:USC00464956",
      "elevationUnit": "METERS",
      "longitude": -81.58333
    },
    {
      "elevation": 986,
      "mindate": "1939-11-01",
      "maxdate": "2023-09-30",
      "latitude": 38.63125,
      "name": "KUMBRABOW, WV US",
      "datacoverage": 1,
      "id": "GHCND:USC00464971",
      "elevationUnit": "METERS",
      "longitude": -80.08545
    },
    {
      "elevation": 338.9,
      "mindate": "1946-02-01",
      "maxdate": "1954-06-30",
      "latitude": 39.28333,
      "name": "LAKE FLOYD, WV US",
      "datacoverage": 1,
      "id": "GHCND:USC00464994",
      "elevationUnit": "METERS",
      "longitude": -80.5
    },
    {
      "elevation": 274.3,
      "mindate": "1928-01-01",
      "maxdate": "2021-05-01",
      "latitude": 39.7204,
      "name": "LAKE LYNN, WV US",
      "datacoverage": 1,
      "id": "GHCND:USC00465002",
      "elevationUnit": "METERS",
      "longitude": -79.8561
    },
    {
      "elevation": 189,
      "mindate": "1948-08-01",
      "maxdate": "1961-06-30",
      "latitude": 38.95,
      "name": "LAKIN, WV US",
      "datacoverage": 0.5807,
      "id": "GHCND:USC00465010",
      "elevationUnit": "METERS",
      "longitude": -82.08333
    },
    {
      "mindate": "1894-08-01",
      "maxdate": "1896-06-30",
      "latitude": 39.1,
      "name": "LEACHTOWN, WV US",
      "datacoverage": 1,
      "id": "GHCND:USC00465030",
      "longitude": -81.5
    },
    {
      "elevation": 1293,
      "mindate": "1901-11-01",
      "maxdate": "1908-03-31",
      "latitude": 38.066667,
      "name": "LEONARD, WV US",
      "datacoverage": 0.9873,
      "id": "GHCND:USC00465045",
      "elevationUnit": "METERS",
      "longitude": -80.4
    },
    {
      "elevation": 175.3,
      "mindate": "1997-01-01",
      "maxdate": "2001-03-31",
      "latitude": 38.56972,
      "name": "LESAGE 5 N, WV US",
      "datacoverage": 1,
      "id": "GHCND:USC00465051",
      "elevationUnit": "METERS",
      "longitude": -82.28778
    },
    {
      "elevation": 167.6,
      "mindate": "1937-09-01",
      "maxdate": "1950-02-28",
      "latitude": 38.55,
      "name": "LESAGE GREENBOTTOM, WV US",
      "datacoverage": 0.3668,
      "id": "GHCND:USC00465055",
      "elevationUnit": "METERS",
      "longitude": -82.28333
    },
    {
      "elevation": 701,
      "mindate": "1851-01-01",
      "maxdate": "2025-03-07",
      "latitude": 37.8566,
      "name": "LEWISBURG 3 N, WV US",
      "datacoverage": 1,
      "id": "GHCND:USC00465224",
      "elevationUnit": "METERS",
      "longitude": -80.4042
    },
    {
      "elevation": 605,
      "mindate": "1940-04-01",
      "maxdate": "1957-07-31",
      "latitude": 37.4797,
      "name": "LINDSIDE, WV US",
      "datacoverage": 0.976,
      "id": "GHCND:USC00465284",
      "elevationUnit": "METERS",
      "longitude": -80.6555
    },
    {
      "elevation": 326.1,
      "mindate": "1945-09-01",
      "maxdate": "1954-11-30",
      "latitude": 38.96667,
      "name": "LITTLE SKIN CREEK, WV US",
      "datacoverage": 0.9731,
      "id": "GHCND:USC00465314",
      "elevationUnit": "METERS",
      "longitude": -80.41667
    },
    {
      "elevation": 202.7,
      "mindate": "1948-08-01",
      "maxdate": "1951-09-30",
      "latitude": 38.8955,
      "name": "LIVERPOOL, WV US",
      "datacoverage": 1,
      "id": "GHCND:USC00465323",
      "elevationUnit": "METERS",
      "longitude": -81.5311
    },
    {
      "elevation": 219.5,
      "mindate": "1948-08-01",
      "maxdate": "1951-09-30",
      "latitude": 38.8532,
      "name": "LOCKNEY, WV US",
      "datacoverage": 1,
      "id": "GHCND:USC00465341",
      "elevationUnit": "METERS",
      "longitude": -80.9667
    },
    {
      "elevation": 204.8,
      "mindate": "1901-11-01",
      "maxdate": "2025-03-07",
      "latitude": 37.8663,
      "name": "LOGAN, WV US",
      "datacoverage": 1,
      "id": "GHCND:USC00465353",
      "elevationUnit": "METERS",
      "longitude": -81.98441
    },
    {
      "elevation": 192.6,
      "mindate": "1934-01-01",
      "maxdate": "2025-03-07",
      "latitude": 38.19345,
      "name": "LONDON LOCKS, WV US",
      "datacoverage": 1,
      "id": "GHCND:USC00465365",
      "elevationUnit": "METERS",
      "longitude": -81.37007
    },
    {
      "elevation": 702,
      "mindate": "1953-01-01",
      "maxdate": "1955-07-31",
      "latitude": 38.06667,
      "name": "LOOKOUT 2, WV US",
      "datacoverage": 0.9693,
      "id": "GHCND:USC00465400",
      "elevationUnit": "METERS",
      "longitude": -80.96667
    },
    {
      "elevation": 365.8,
      "mindate": "1906-01-01",
      "maxdate": "1916-01-31",
      "latitude": 38.966667,
      "name": "LOST CITY, WV US",
      "datacoverage": 0.9421,
      "id": "GHCND:USC00465440",
      "elevationUnit": "METERS",
      "longitude": -78.833333
    },
    {
      "elevation": 304.8,
      "mindate": "1896-01-01",
      "maxdate": "1942-10-31",
      "latitude": 39.2,
      "name": "LOST CREEK NEAR, WV US",
      "datacoverage": 0.9929,
      "id": "GHCND:USC00465445",
      "elevationUnit": "METERS",
      "longitude": -80.416667
    },
    {
      "elevation": 515.1,
      "mindate": "2002-11-01",
      "maxdate": "2013-09-30",
      "latitude": 38.9452,
      "name": "LOST RIVER, WV US",
      "datacoverage": 1,
      "id": "GHCND:USC00465453",
      "elevationUnit": "METERS",
      "longitude": -78.798
    },
    {
      "elevation": 609.6,
      "mindate": "1942-01-01",
      "maxdate": "1946-12-31",
      "latitude": 38.866667,
      "name": "LOST RIVER STATE PARK, WV US",
      "datacoverage": 0.8501,
      "id": "GHCND:USC00465455",
      "elevationUnit": "METERS",
      "longitude": -78.866667
    },
    {
      "elevation": 203.9,
      "mindate": "1948-08-01",
      "maxdate": "1950-07-17",
      "latitude": 39.08333,
      "name": "MACFARLAN, WV US",
      "datacoverage": 0.959,
      "id": "GHCND:USC00465547",
      "elevationUnit": "METERS",
      "longitude": -81.2
    },
    {
      "elevation": 210,
      "mindate": "1894-04-01",
      "maxdate": "2025-03-07",
      "latitude": 38.10263,
      "name": "MADISON 3 NNW, WV US",
      "datacoverage": 1,
      "id": "GHCND:USC00465563",
      "elevationUnit": "METERS",
      "longitude": -81.84643
    },
    {
      "elevation": 218.5,
      "mindate": "1941-12-01",
      "maxdate": "2025-01-31",
      "latitude": 37.74467,
      "name": "MAN, WV US",
      "datacoverage": 1,
      "id": "GHCND:USC00465600",
      "elevationUnit": "METERS",
      "longitude": -81.88732
    },
    {
      "elevation": 299,
      "mindate": "1901-02-01",
      "maxdate": "1979-04-30",
      "latitude": 39.55,
      "name": "MANNINGTON 1 N, WV US",
      "datacoverage": 0.9831,
      "id": "GHCND:USC00465621",
      "elevationUnit": "METERS",
      "longitude": -80.35
    },
    {
      "elevation": 335.3,
      "mindate": "1946-10-01",
      "maxdate": "2019-10-31",
      "latitude": 39.5436,
      "name": "MANNINGTON 8 WNW, WV US",
      "datacoverage": 1,
      "id": "GHCND:USC00465626",
      "elevationUnit": "METERS",
      "longitude": -80.4647
    },
    {
      "elevation": 655.3,
      "mindate": "1893-02-01",
      "maxdate": "2016-01-15",
      "latitude": 38.2175,
      "name": "MARLINTON, WV US",
      "datacoverage": 1,
      "id": "GHCND:USC00465672",
      "elevationUnit": "METERS",
      "longitude": -80.0914
    },
    {
      "elevation": 132.6,
      "mindate": "1891-10-01",
      "maxdate": "1944-12-31",
      "latitude": 39.45,
      "name": "MARTINSBURG 1, WV US",
      "datacoverage": 0.9123,
      "id": "GHCND:USC00465705",
      "elevationUnit": "METERS",
      "longitude": -77.95
    },
    {
      "elevation": 140.2,
      "mindate": "1998-01-01",
      "maxdate": "2025-03-07",
      "latitude": 39.46594,
      "name": "MARTINSBURG 2, WV US",
      "datacoverage": 1,
      "id": "GHCND:USC00465706",
      "elevationUnit": "METERS",
      "longitude": -77.96676
    },
    {
      "elevation": 469.4,
      "mindate": "1936-07-01",
      "maxdate": "2010-12-31",
      "latitude": 38.87222,
      "name": "MATHIAS, WV US",
      "datacoverage": 1,
      "id": "GHCND:USC00465739",
      "elevationUnit": "METERS",
      "longitude": -78.86167
    },
    {
      "elevation": 762.9,
      "mindate": "1951-09-01",
      "maxdate": "1981-05-31",
      "latitude": 37.41667,
      "name": "MATOAKA, WV US",
      "datacoverage": 0.9048,
      "id": "GHCND:USC00465747",
      "elevationUnit": "METERS",
      "longitude": -81.25
    },
    {
      "elevation": 200.9,
      "mindate": "1933-01-01",
      "maxdate": "1975-06-12",
      "latitude": 39.98333,
      "name": "MC MECHEN DAM 13, WV US",
      "datacoverage": 1,
      "id": "GHCND:USC00465847",
      "elevationUnit": "METERS",
      "longitude": -80.73333
    },
    {
      "elevation": 244.1,
      "mindate": "1948-08-01",
      "maxdate": "1948-12-31",
      "latitude": 39.15,
      "name": "MOOREFIELD MC NEILL, WV US",
      "datacoverage": 0.9947,
      "id": "GHCND:USC00465855",
      "elevationUnit": "METERS",
      "longitude": -78.9
    },
    {
      "elevation": 745.5,
      "mindate": "1955-01-01",
      "maxdate": "1988-12-31",
      "latitude": 37.98333,
      "name": "MCROSS, WV US",
      "datacoverage": 0.9824,
      "id": "GHCND:USC00465871",
      "elevationUnit": "METERS",
      "longitude": -80.75
    },
    {
      "elevation": 945.2,
      "mindate": "1989-01-01",
      "maxdate": "2025-03-07",
      "latitude": 38.05856,
      "name": "QUINWOOD, WV US",
      "datacoverage": 1,
      "id": "GHCND:USC00465875",
      "elevationUnit": "METERS",
      "longitude": -80.69893
    },
    {
      "elevation": 747.1,
      "mindate": "1961-07-01",
      "maxdate": "1962-11-30",
      "latitude": 37.88333,
      "name": "SMOOT, WV US",
      "datacoverage": 1,
      "id": "GHCND:USC00465886",
      "elevationUnit": "METERS",
      "longitude": -80.66667
    },
    {
      "elevation": 237.4,
      "mindate": "1927-05-01",
      "maxdate": "2025-03-07",
      "latitude": 39.46998,
      "name": "MIDDLEBOURNE 3 ESE, WV US",
      "datacoverage": 1,
      "id": "GHCND:USC00465963",
      "elevationUnit": "METERS",
      "longitude": -80.85708
    },
    {
      "mindate": "1886-11-01",
      "maxdate": "1887-12-31",
      "latitude": 38.516667,
      "name": "MIDDLEBROOK, WV US",
      "datacoverage": 1,
      "id": "GHCND:USC00465970",
      "longitude": -80.183333
    },
    {
      "elevation": 552,
      "mindate": "1938-01-01",
      "maxdate": "1954-07-31",
      "latitude": 38.95,
      "name": "MIDVALE, WV US",
      "datacoverage": 0.9949,
      "id": "GHCND:USC00465984",
      "elevationUnit": "METERS",
      "longitude": -80.08333
    },
    {
      "mindate": "1894-01-01",
      "maxdate": "1897-01-31",
      "latitude": 38.25,
      "name": "MONARCH, WV US",
      "datacoverage": 0.4051,
      "id": "GHCND:USC00466140",
      "longitude": -81.383333
    },
    {
      "elevation": 271.3,
      "mindate": "1892-01-01",
      "maxdate": "2017-12-31",
      "latitude": 39.0461,
      "name": "MOOREFIELD 1 SSE, WV US",
      "datacoverage": 1,
      "id": "GHCND:USC00466163",
      "elevationUnit": "METERS",
      "longitude": -78.9664
    },
    {
      "elevation": 262.1,
      "mindate": "1949-01-01",
      "maxdate": "1964-09-30",
      "latitude": 39.2,
      "name": "MOOREFIELD MC NEILL, WV US",
      "datacoverage": 1,
      "id": "GHCND:USC00466168",
      "elevationUnit": "METERS",
      "longitude": -78.85
    },
    {
      "mindate": "1906-01-01",
      "maxdate": "1907-09-30",
      "latitude": 39.666667,
      "name": "MOORESVILLE, WV US",
      "datacoverage": 1,
      "id": "GHCND:USC00466178",
      "longitude": -80.1
    },
    {
      "elevation": 320,
      "mindate": "1872-05-01",
      "maxdate": "1952-05-31",
      "latitude": 39.63333,
      "name": "MORGANTOWN 1, WV US",
      "datacoverage": 0.846,
      "id": "GHCND:USC00466207",
      "elevationUnit": "METERS",
      "longitude": -79.95
    },
    {
      "elevation": 251.5,
      "mindate": "1921-01-01",
      "maxdate": "2025-03-06",
      "latitude": 39.6203,
      "name": "MORGANTOWN LOCK AND DAM, WV US",
      "datacoverage": 1,
      "id": "GHCND:USC00466212",
      "elevationUnit": "METERS",
      "longitude": -79.9698
    },
    {
      "elevation": 189,
      "mindate": "1963-01-01",
      "maxdate": "2025-03-07",
      "latitude": 39.9055,
      "name": "MOUNDSVILLE, WV US",
      "datacoverage": 1,
      "id": "GHCND:USC00466248",
      "elevationUnit": "METERS",
      "longitude": -80.7549
    },
    {
      "mindate": "1901-10-01",
      "maxdate": "1926-11-16",
      "latitude": 39.933333,
      "name": "MOUNDSVILLE 1, OH US",
      "datacoverage": 0.9537,
      "id": "GHCND:USC00466250",
      "longitude": -80.766667
    },
    {
      "elevation": 317,
      "mindate": "1937-03-01",
      "maxdate": "1954-11-30",
      "latitude": 39.21667,
      "name": "MOUNT CLARE, WV US",
      "datacoverage": 0.9764,
      "id": "GHCND:USC00466276",
      "elevationUnit": "METERS",
      "longitude": -80.33333
    },
    {
      "elevation": 595.3,
      "mindate": "1998-01-01",
      "maxdate": "2025-03-07",
      "latitude": 38.18789,
      "name": "MOUNT NEBO 1 S, WV US",
      "datacoverage": 1,
      "id": "GHCND:USC00466284",
      "elevationUnit": "METERS",
      "longitude": -80.84841
    },
    {
      "elevation": 869,
      "mindate": "1951-05-01",
      "maxdate": "1972-06-30",
      "latitude": 39.28333,
      "name": "MOUNT STORM, WV US",
      "datacoverage": 0.996,
      "id": "GHCND:USC00466293",
      "elevationUnit": "METERS",
      "longitude": -79.23333
    },
    {
      "elevation": 476.7,
      "mindate": "1940-01-01",
      "maxdate": "2025-03-02",
      "latitude": 37.57844,
      "name": "MULLENS 3 E, WV US",
      "datacoverage": 1,
      "id": "GHCND:USC00466325",
      "elevationUnit": "METERS",
      "longitude": -81.32724
    },
    {
      "elevation": 213.4,
      "mindate": "1900-10-01",
      "maxdate": "1902-10-31",
      "latitude": 38.216667,
      "name": "MYRA, WV US",
      "datacoverage": 0.6399,
      "id": "GHCND:USC00466343",
      "elevationUnit": "METERS",
      "longitude": -82.133333
    },
    {
      "elevation": 369.1,
      "mindate": "1940-12-01",
      "maxdate": "1961-08-31",
      "latitude": 37.86667,
      "name": "NAOMA, WV US",
      "datacoverage": 0.9157,
      "id": "GHCND:USC00466362",
      "elevationUnit": "METERS",
      "longitude": -81.48333
    },
    {
      "elevation": 205.7,
      "mindate": "1892-09-01",
      "maxdate": "2025-03-07",
      "latitude": 40.5261,
      "name": "NEW CUMBERLAND L D, OH US",
      "datacoverage": 1,
      "id": "GHCND:USC00466442",
      "elevationUnit": "METERS",
      "longitude": -80.6275
    },
    {
      "elevation": 214,
      "mindate": "1892-07-01",
      "maxdate": "1975-03-31",
      "latitude": 39.68333,
      "name": "NEW MARTINSVILLE 4 N, WV US",
      "datacoverage": 0.99,
      "id": "GHCND:USC00466467",
      "elevationUnit": "METERS",
      "longitude": -80.85
    },
    {
      "mindate": "1940-02-01",
      "maxdate": "1941-02-28",
      "latitude": 38.583333,
      "name": "NEWTON, WV US",
      "datacoverage": 0.7725,
      "id": "GHCND:USC00466480",
      "longitude": -81.2
    },
    {
      "elevation": 686.4,
      "mindate": "1891-10-01",
      "maxdate": "1917-12-31",
      "latitude": 38.066667,
      "name": "NUTTALLBURG, WV US",
      "datacoverage": 0.9238,
      "id": "GHCND:USC00466565",
      "elevationUnit": "METERS",
      "longitude": -81.016667
    },
    {
      "elevation": 621.8,
      "mindate": "1941-10-01",
      "maxdate": "2012-12-10",
      "latitude": 37.9715,
      "name": "OAK HILL, WV US",
      "datacoverage": 1,
      "id": "GHCND:USC00466591",
      "elevationUnit": "METERS",
      "longitude": -81.1507
    },
    {
      "elevation": 402.3,
      "mindate": "1997-01-01",
      "maxdate": "2024-08-31",
      "latitude": 37.67614,
      "name": "OCEANA 2 SE, WV US",
      "datacoverage": 1,
      "id": "GHCND:USC00466600",
      "elevationUnit": "METERS",
      "longitude": -81.62106
    },
    {
      "elevation": 365.8,
      "mindate": "1899-03-01",
      "maxdate": "1908-02-29",
      "latitude": 37.683333,
      "name": "OCEANA 1, WV US",
      "datacoverage": 0.6852,
      "id": "GHCND:USC00466602",
      "elevationUnit": "METERS",
      "longitude": -81.633333
    },
    {
      "elevation": 292,
      "mindate": "1945-01-01",
      "maxdate": "1973-05-31",
      "latitude": 39.50932,
      "name": "CACAPON ST PARK NUMBER 2, WV US",
      "datacoverage": 0.982,
      "id": "GHCND:USC00466674",
      "elevationUnit": "METERS",
      "longitude": -78.29739
    },
    {
      "elevation": 678.2,
      "mindate": "1922-11-01",
      "maxdate": "1929-02-28",
      "latitude": 37.7,
      "name": "ORGAN CAVE, WV US",
      "datacoverage": 1,
      "id": "GHCND:USC00466725",
      "elevationUnit": "METERS",
      "longitude": -80.5
    },
    {
      "elevation": 1097.3,
      "mindate": "1912-07-01",
      "maxdate": "1914-12-31",
      "latitude": 38.716667,
      "name": "OSCEOLA 1, WV US",
      "datacoverage": 0.6327,
      "id": "GHCND:USC00466743",
      "elevationUnit": "METERS",
      "longitude": -79.633333
    },
    {
      "elevation": 541,
      "mindate": "1899-01-01",
      "maxdate": "2021-03-01",
      "latitude": 39.0736,
      "name": "PARSONS 3 SE, WV US",
      "datacoverage": 1,
      "id": "GHCND:USC00466867",
      "elevationUnit": "METERS",
      "longitude": -79.634
    },
    {
      "elevation": 580,
      "mindate": "1952-01-01",
      "maxdate": "1954-02-28",
      "latitude": 39.1,
      "name": "PARSONS 2, WV US",
      "datacoverage": 1,
      "id": "GHCND:USC00466868",
      "elevationUnit": "METERS",
      "longitude": -79.68333
    },
    {
      "elevation": 487.7,
      "mindate": "1926-01-01",
      "maxdate": "2007-03-01",
      "latitude": 39.11667,
      "name": "PARSONS 2 N, WV US",
      "datacoverage": 0.9492,
      "id": "GHCND:USC00466871",
      "elevationUnit": "METERS",
      "longitude": -79.68333
    },
    {
      "elevation": 615.7,
      "mindate": "1979-11-01",
      "maxdate": "2010-12-31",
      "latitude": 37.34528,
      "name": "PAYNESVILLE 1 N, VA US",
      "datacoverage": 1,
      "id": "GHCND:USC00466900",
      "elevationUnit": "METERS",
      "longitude": -81.90806
    },
    {
      "elevation": 178,
      "mindate": "2001-01-01",
      "maxdate": "2025-01-31",
      "latitude": 38.41969,
      "name": "PEA RIDGE PSD, WV US",
      "datacoverage": 1,
      "id": "GHCND:USC00466912",
      "elevationUnit": "METERS",
      "longitude": -82.29879
    },
    {
      "mindate": "1894-12-01",
      "maxdate": "1897-04-30",
      "latitude": 39.283333,
      "name": "PENNSBORO, WV US",
      "datacoverage": 1,
      "id": "GHCND:USC00466920",
      "longitude": -80.966667
    },
    {
      "elevation": 446.5,
      "mindate": "1928-06-01",
      "maxdate": "1930-09-30",
      "latitude": 39,
      "name": "PERRY, WV US",
      "datacoverage": 0.643,
      "id": "GHCND:USC00466940",
      "elevationUnit": "METERS",
      "longitude": -78.666667
    },
    {
      "elevation": 292.6,
      "mindate": "1994-01-01",
      "maxdate": "2025-03-06",
      "latitude": 38.99706,
      "name": "PETERSBURG, WV US",
      "datacoverage": 1,
      "id": "GHCND:USC00466952",
      "elevationUnit": "METERS",
      "longitude": -79.1342
    },
    {
      "elevation": 366.1,
      "mindate": "1971-12-01",
      "maxdate": "1978-06-30",
      "latitude": 38.96667,
      "name": "PETERSBURG 3 SW, WV US",
      "datacoverage": 0.4993,
      "id": "GHCND:USC00466956",
      "elevationUnit": "METERS",
      "longitude": -79.16667
    }
  ]
}
