{
  "metadata": {
    "resultset": {
      "offset": 97600,
      "count": 154115,
      "limit": 100
    }
  },
  "results": [
    {
      "elevation": 397.2,
      "mindate": "2016-04-01",
      "maxdate": "2025-03-07",
      "latitude": 47.33564,
      "name": "DEER RIVER 3.7 W, MN US",
      "datacoverage": 0.6816,
      "id": "GHCND:US1MNIT0010",
      "elevationUnit": "METERS",
      "longitude": -93.87514
    },
    {
      "elevation": 418.8,
      "mindate": "2018-03-23",
      "maxdate": "2020-03-18",
      "latitude": 47.5449676513672,
      "name": "NASHWAUK 11.5 N, MN US",
      "datacoverage": 1,
      "id": "GHCND:US1MNIT0011",
      "elevationUnit": "METERS",
      "longitude": -93.194206237793
    },
    {
      "elevation": 398.4,
      "mindate": "1998-06-17",
      "maxdate": "2025-03-07",
      "latitude": 47.31165,
      "name": "GRAND RAPIDS 6.1 N, MN US",
      "datacoverage": 0.9028,
      "id": "GHCND:US1MNIT0017",
      "elevationUnit": "METERS",
      "longitude": -93.55036
    },
    {
      "elevation": 394.4,
      "mindate": "2018-03-06",
      "maxdate": "2025-03-07",
      "latitude": 47.34204,
      "name": "COHASSET 7.6 NNW, MN US",
      "datacoverage": 0.524,
      "id": "GHCND:US1MNIT0019",
      "elevationUnit": "METERS",
      "longitude": -93.69765
    },
    {
      "elevation": 396.8,
      "mindate": "2017-05-15",
      "maxdate": "2022-11-14",
      "latitude": 47.27686667,
      "name": "COLERAINE 1.5 S, MN US",
      "datacoverage": 0.5955,
      "id": "GHCND:US1MNIT0020",
      "elevationUnit": "METERS",
      "longitude": -93.42335
    },
    {
      "elevation": 421.2,
      "mindate": "2019-03-16",
      "maxdate": "2022-06-13",
      "latitude": 47.52679,
      "name": "BOVEY 15.9 N, MN US",
      "datacoverage": 0.8229,
      "id": "GHCND:US1MNIT0021",
      "elevationUnit": "METERS",
      "longitude": -93.4027
    },
    {
      "elevation": 425.2,
      "mindate": "2019-04-29",
      "maxdate": "2025-03-07",
      "latitude": 47.48855,
      "name": "BOVEY 13.4 N, MN US",
      "datacoverage": 0.921,
      "id": "GHCND:US1MNIT0023",
      "elevationUnit": "METERS",
      "longitude": -93.43497
    },
    {
      "elevation": 406,
      "mindate": "2020-05-01",
      "maxdate": "2022-09-26",
      "latitude": 47.3894,
      "name": "GRAND RAPIDS 11.8 NNE, MN US",
      "datacoverage": 0.4326,
      "id": "GHCND:US1MNIT0024",
      "elevationUnit": "METERS",
      "longitude": -93.47273
    },
    {
      "elevation": 403.3,
      "mindate": "2020-05-01",
      "maxdate": "2023-12-05",
      "latitude": 47.21028,
      "name": "COHASSET 2.6 SW, MN US",
      "datacoverage": 0.0989,
      "id": "GHCND:US1MNIT0027",
      "elevationUnit": "METERS",
      "longitude": -93.67472
    },
    {
      "elevation": 421.2,
      "mindate": "2020-04-01",
      "maxdate": "2022-04-23",
      "latitude": 47.180858,
      "name": "GRAND RAPIDS 5.0 SE, MN US",
      "datacoverage": 0.998,
      "id": "GHCND:US1MNIT0030",
      "elevationUnit": "METERS",
      "longitude": -93.453559
    },
    {
      "elevation": 405.7,
      "mindate": "2021-04-01",
      "maxdate": "2021-09-20",
      "latitude": 47.237779,
      "name": "GRAND RAPIDS 1.3 NE, MN US",
      "datacoverage": 0.9947,
      "id": "GHCND:US1MNIT0033",
      "elevationUnit": "METERS",
      "longitude": -93.518042
    },
    {
      "elevation": 432.5,
      "mindate": "2021-04-07",
      "maxdate": "2023-05-31",
      "latitude": 47.4914715,
      "name": "BOVEY 14.4 NNW, MN US",
      "datacoverage": 0.998,
      "id": "GHCND:US1MNIT0036",
      "elevationUnit": "METERS",
      "longitude": -93.5099365
    },
    {
      "elevation": 393.8,
      "mindate": "2021-04-01",
      "maxdate": "2025-03-06",
      "latitude": 47.1676106,
      "name": "WARBA 2.2 NNW, MN US",
      "datacoverage": 1,
      "id": "GHCND:US1MNIT0037",
      "elevationUnit": "METERS",
      "longitude": -93.2774686
    },
    {
      "elevation": 405.4,
      "mindate": "2021-04-01",
      "maxdate": "2025-03-07",
      "latitude": 47.288422,
      "name": "COLERAINE 0.7 S, MN US",
      "datacoverage": 1,
      "id": "GHCND:US1MNIT0038",
      "elevationUnit": "METERS",
      "longitude": -93.429403
    },
    {
      "elevation": 417,
      "mindate": "2021-05-17",
      "maxdate": "2025-03-07",
      "latitude": 47.245406,
      "name": "BOVEY 3.5 S, MN US",
      "datacoverage": 1,
      "id": "GHCND:US1MNIT0039",
      "elevationUnit": "METERS",
      "longitude": -93.403681
    },
    {
      "elevation": 403.6,
      "mindate": "2021-04-12",
      "maxdate": "2024-11-20",
      "latitude": 47.1496,
      "name": "GRAND RAPIDS 6.1 SSE, MN US",
      "datacoverage": 0.5337,
      "id": "GHCND:US1MNIT0041",
      "elevationUnit": "METERS",
      "longitude": -93.46881
    },
    {
      "elevation": 407.8,
      "mindate": "2021-06-01",
      "maxdate": "2025-01-07",
      "latitude": 47.6246663,
      "name": "SQUAW LAKE 0.2 S, MN US",
      "datacoverage": 0.9947,
      "id": "GHCND:US1MNIT0042",
      "elevationUnit": "METERS",
      "longitude": -94.1380022
    },
    {
      "elevation": 406.3,
      "mindate": "2018-08-08",
      "maxdate": "2022-09-14",
      "latitude": 47.3661173,
      "name": "DEER RIVER 4.4 WNW, MN US",
      "datacoverage": 0.6237,
      "id": "GHCND:US1MNIT0043",
      "elevationUnit": "METERS",
      "longitude": -93.8826638
    },
    {
      "elevation": 427.3,
      "mindate": "2021-05-26",
      "maxdate": "2024-10-13",
      "latitude": 47.560601,
      "name": "DEER RIVER 15.8 NNW, MN US",
      "datacoverage": 0.9819,
      "id": "GHCND:US1MNIT0044",
      "elevationUnit": "METERS",
      "longitude": -93.88965
    },
    {
      "elevation": 425.5,
      "mindate": "2021-08-21",
      "maxdate": "2025-03-06",
      "latitude": 47.60215,
      "name": "MARCELL 0.7 NNW, MN US",
      "datacoverage": 0.8462,
      "id": "GHCND:US1MNIT0047",
      "elevationUnit": "METERS",
      "longitude": -93.6936
    },
    {
      "elevation": 437.7,
      "mindate": "2021-09-16",
      "maxdate": "2024-11-25",
      "latitude": 47.6667,
      "name": "BIGFORK 7.3 SW, MN US",
      "datacoverage": 0.2151,
      "id": "GHCND:US1MNIT0048",
      "elevationUnit": "METERS",
      "longitude": -93.7525
    },
    {
      "elevation": 427.3,
      "mindate": "2022-03-17",
      "maxdate": "2025-02-24",
      "latitude": 47.66812,
      "name": "SIDE LAKE 2.3 W, MN US",
      "datacoverage": 0.4639,
      "id": "GHCND:US1MNIT0051",
      "elevationUnit": "METERS",
      "longitude": -93.06459
    },
    {
      "elevation": 398.4,
      "mindate": "2022-03-07",
      "maxdate": "2025-03-07",
      "latitude": 47.1996917,
      "name": "GRAND RAPIDS 2.3 SW, MN US",
      "datacoverage": 0.9986,
      "id": "GHCND:US1MNIT0052",
      "elevationUnit": "METERS",
      "longitude": -93.5701983
    },
    {
      "elevation": 405.1,
      "mindate": "2022-03-17",
      "maxdate": "2024-10-16",
      "latitude": 47.2952,
      "name": "GRAND RAPIDS 5.0 N, MN US",
      "datacoverage": 0.4438,
      "id": "GHCND:US1MNIT0053",
      "elevationUnit": "METERS",
      "longitude": -93.5217
    },
    {
      "elevation": 401.1,
      "mindate": "2022-03-20",
      "maxdate": "2024-02-27",
      "latitude": 47.315444,
      "name": "GRAND RAPIDS 6.3 N, MN US",
      "datacoverage": 1,
      "id": "GHCND:US1MNIT0055",
      "elevationUnit": "METERS",
      "longitude": -93.538934
    },
    {
      "elevation": 478.2,
      "mindate": "2022-03-15",
      "maxdate": "2025-03-05",
      "latitude": 47.133708,
      "name": "COHASSET 7.4 S, MN US",
      "datacoverage": 0.7939,
      "id": "GHCND:US1MNIT0057",
      "elevationUnit": "METERS",
      "longitude": -93.668358
    },
    {
      "elevation": 412.7,
      "mindate": "2022-03-25",
      "maxdate": "2024-11-23",
      "latitude": 47.2029,
      "name": "GRAND RAPIDS 1.5 SSE, MN US",
      "datacoverage": 0.5865,
      "id": "GHCND:US1MNIT0059",
      "elevationUnit": "METERS",
      "longitude": -93.53117
    },
    {
      "elevation": 392,
      "mindate": "2022-04-05",
      "maxdate": "2025-03-07",
      "latitude": 47.77803,
      "name": "COOK 19.0 WSW, MN US",
      "datacoverage": 0.8895,
      "id": "GHCND:US1MNIT0060",
      "elevationUnit": "METERS",
      "longitude": -93.08557
    },
    {
      "elevation": 424,
      "mindate": "2022-04-11",
      "maxdate": "2024-12-28",
      "latitude": 47.153356,
      "name": "GRAND RAPIDS 5.2 SSE, MN US",
      "datacoverage": 0.9465,
      "id": "GHCND:US1MNIT0062",
      "elevationUnit": "METERS",
      "longitude": -93.50074
    },
    {
      "elevation": 395.9,
      "mindate": "2022-04-23",
      "maxdate": "2023-09-12",
      "latitude": 47.08684,
      "name": "SWAN RIVER 0.6 W, MN US",
      "datacoverage": 0.6181,
      "id": "GHCND:US1MNIT0063",
      "elevationUnit": "METERS",
      "longitude": -93.2065633
    },
    {
      "elevation": 413.6,
      "mindate": "2022-06-13",
      "maxdate": "2024-11-20",
      "latitude": 47.143546,
      "name": "GRAND RAPIDS 5.8 SSE, MN US",
      "datacoverage": 0.9819,
      "id": "GHCND:US1MNIT0065",
      "elevationUnit": "METERS",
      "longitude": -93.506977
    },
    {
      "elevation": 387.7,
      "mindate": "2022-06-27",
      "maxdate": "2024-11-04",
      "latitude": 47.1037501,
      "name": "GRAND RAPIDS 10.5 SE, MN US",
      "datacoverage": 0.499,
      "id": "GHCND:US1MNIT0067",
      "elevationUnit": "METERS",
      "longitude": -93.4034855
    },
    {
      "elevation": 394.4,
      "mindate": "2022-06-26",
      "maxdate": "2024-07-23",
      "latitude": 47.234781,
      "name": "COHASSET 1.5 WSW, MN US",
      "datacoverage": 0.2664,
      "id": "GHCND:US1MNIT0068",
      "elevationUnit": "METERS",
      "longitude": -93.6715183
    },
    {
      "elevation": 444.1,
      "mindate": "2020-10-02",
      "maxdate": "2023-10-27",
      "latitude": 47.379014,
      "name": "NASHWAUK 0.6 E, MN US",
      "datacoverage": 0.9947,
      "id": "GHCND:US1MNIT0069",
      "elevationUnit": "METERS",
      "longitude": -93.154095
    },
    {
      "elevation": 417,
      "mindate": "2022-09-01",
      "maxdate": "2025-03-03",
      "latitude": 47.147282,
      "name": "SUGAR LAKE, MN US",
      "datacoverage": 0.9986,
      "id": "GHCND:US1MNIT0070",
      "elevationUnit": "METERS",
      "longitude": -93.664699
    },
    {
      "elevation": 433.7,
      "mindate": "2023-05-31",
      "maxdate": "2025-01-12",
      "latitude": 47.319907,
      "name": "MARBLE 0.6 SSW, MN US",
      "datacoverage": 0.8316,
      "id": "GHCND:US1MNIT0073",
      "elevationUnit": "METERS",
      "longitude": -93.2971306
    },
    {
      "elevation": 409.7,
      "mindate": "2023-05-10",
      "maxdate": "2025-03-07",
      "latitude": 47.213998,
      "name": "GRAND RAPIDS 0.7 SSE, MN US",
      "datacoverage": 0.7994,
      "id": "GHCND:US1MNIT0078",
      "elevationUnit": "METERS",
      "longitude": -93.533694
    },
    {
      "elevation": 416.4,
      "mindate": "2023-10-27",
      "maxdate": "2025-03-07",
      "latitude": 47.82442,
      "name": "NORTHOME 8.4 ESE, MN US",
      "datacoverage": 1,
      "id": "GHCND:US1MNIT0080",
      "elevationUnit": "METERS",
      "longitude": -94.10155
    },
    {
      "elevation": 393.2,
      "mindate": "2024-04-17",
      "maxdate": "2024-11-13",
      "latitude": 47.218128,
      "name": "COHASSET 5.9 WSW, MN US",
      "datacoverage": 0.9898,
      "id": "GHCND:US1MNIT0085",
      "elevationUnit": "METERS",
      "longitude": -93.762145
    },
    {
      "elevation": 400.5,
      "mindate": "2024-07-28",
      "maxdate": "2024-11-22",
      "latitude": 47.228395,
      "name": "GRAND RAPIDS 0.3 NNW, MN US",
      "datacoverage": 0.9925,
      "id": "GHCND:US1MNIT0092",
      "elevationUnit": "METERS",
      "longitude": -93.541183
    },
    {
      "elevation": 438.6,
      "mindate": "2016-03-28",
      "maxdate": "2017-05-21",
      "latitude": 43.832207,
      "name": "HERON LAKE 2.4 N, MN US",
      "datacoverage": 0.998,
      "id": "GHCND:US1MNJC0002",
      "elevationUnit": "METERS",
      "longitude": -95.313095
    },
    {
      "elevation": 455.4,
      "mindate": "2017-07-18",
      "maxdate": "2024-11-19",
      "latitude": 43.6899,
      "name": "LAKEFIELD 0.9 NNE, MN US",
      "datacoverage": 0.0723,
      "id": "GHCND:US1MNJC0003",
      "elevationUnit": "METERS",
      "longitude": -95.1643
    },
    {
      "elevation": 446.2,
      "mindate": "2017-09-19",
      "maxdate": "2024-11-19",
      "latitude": 43.7911,
      "name": "LAKEFIELD 7.8 N, MN US",
      "datacoverage": 0.1615,
      "id": "GHCND:US1MNJC0004",
      "elevationUnit": "METERS",
      "longitude": -95.1756
    },
    {
      "elevation": 437.4,
      "mindate": "2010-04-04",
      "maxdate": "2024-11-02",
      "latitude": 43.6937481,
      "name": "OKABENA 3.2 S, MN US",
      "datacoverage": 0.5788,
      "id": "GHCND:US1MNJC0008",
      "elevationUnit": "METERS",
      "longitude": -95.3142757
    },
    {
      "elevation": 328.9,
      "mindate": "2011-03-01",
      "maxdate": "2013-05-22",
      "latitude": 45.996,
      "name": "MORA 8.5 NNW, MN US",
      "datacoverage": 0.3329,
      "id": "GHCND:US1MNKB0001",
      "elevationUnit": "METERS",
      "longitude": -93.3335
    },
    {
      "elevation": 308.2,
      "mindate": "2011-05-01",
      "maxdate": "2024-10-30",
      "latitude": 45.9064428,
      "name": "MORA 2.1 N, MN US",
      "datacoverage": 0.5759,
      "id": "GHCND:US1MNKB0002",
      "elevationUnit": "METERS",
      "longitude": -93.2979087
    },
    {
      "elevation": 315.8,
      "mindate": "2010-10-01",
      "maxdate": "2024-11-20",
      "latitude": 45.980687,
      "name": "BROOK PARK 9.0 WNW, MN US",
      "datacoverage": 0.9683,
      "id": "GHCND:US1MNKB0003",
      "elevationUnit": "METERS",
      "longitude": -93.254053
    },
    {
      "elevation": 347.8,
      "mindate": "2013-06-01",
      "maxdate": "2014-10-04",
      "latitude": 45.9233557,
      "name": "OGILVIE 7.0 NNW, MN US",
      "datacoverage": 0.6875,
      "id": "GHCND:US1MNKB0005",
      "elevationUnit": "METERS",
      "longitude": -93.4753193
    },
    {
      "elevation": 313.3,
      "mindate": "2015-02-01",
      "maxdate": "2016-11-14",
      "latitude": 45.7872766256332,
      "name": "OGILVIE 4.5 SW, MN US",
      "datacoverage": 1,
      "id": "GHCND:US1MNKB0007",
      "elevationUnit": "METERS",
      "longitude": -93.4938649088144
    },
    {
      "elevation": 298.1,
      "mindate": "2016-08-19",
      "maxdate": "2017-10-15",
      "latitude": 45.8071859925985,
      "name": "OGILVIE 4.8 ESE, MN US",
      "datacoverage": 0.2482,
      "id": "GHCND:US1MNKB0010",
      "elevationUnit": "METERS",
      "longitude": -93.3279407769442
    },
    {
      "elevation": 308.2,
      "mindate": "2018-06-10",
      "maxdate": "2019-05-02",
      "latitude": 45.759867,
      "name": "OGILVIE 4.8 S, MN US",
      "datacoverage": 0.9819,
      "id": "GHCND:US1MNKB0012",
      "elevationUnit": "METERS",
      "longitude": -93.412193
    },
    {
      "elevation": 305.1,
      "mindate": "2019-05-01",
      "maxdate": "2024-09-05",
      "latitude": 45.766993,
      "name": "OGILVIE 4.8 SSE, MN US",
      "datacoverage": 0.3327,
      "id": "GHCND:US1MNKB0014",
      "elevationUnit": "METERS",
      "longitude": -93.378341
    },
    {
      "elevation": 357.2,
      "mindate": "2020-04-21",
      "maxdate": "2024-12-09",
      "latitude": 46.1286195,
      "name": "ISLE 12.0 E, MN US",
      "datacoverage": 0.5472,
      "id": "GHCND:US1MNKB0016",
      "elevationUnit": "METERS",
      "longitude": -93.20985117
    },
    {
      "elevation": 295,
      "mindate": "2020-04-23",
      "maxdate": "2025-03-07",
      "latitude": 45.841,
      "name": "MORA 2.5 S, MN US",
      "datacoverage": 1,
      "id": "GHCND:US1MNKB0017",
      "elevationUnit": "METERS",
      "longitude": -93.297
    },
    {
      "elevation": 313,
      "mindate": "2021-05-31",
      "maxdate": "2024-11-14",
      "latitude": 45.76366,
      "name": "BOCK 3.1 ESE, MN US",
      "datacoverage": 0.4881,
      "id": "GHCND:US1MNKB0019",
      "elevationUnit": "METERS",
      "longitude": -93.49565
    },
    {
      "elevation": 305.4,
      "mindate": "2021-11-04",
      "maxdate": "2025-03-07",
      "latitude": 45.8704221,
      "name": "MORA 0.5 SSW, MN US",
      "datacoverage": 0.7885,
      "id": "GHCND:US1MNKB0020",
      "elevationUnit": "METERS",
      "longitude": -93.295364
    },
    {
      "elevation": 319.4,
      "mindate": "2022-05-28",
      "maxdate": "2024-11-19",
      "latitude": 45.951562,
      "name": "MORA 5.3 NNE, MN US",
      "datacoverage": 0.538,
      "id": "GHCND:US1MNKB0023",
      "elevationUnit": "METERS",
      "longitude": -93.268356
    },
    {
      "elevation": 301.8,
      "mindate": "2023-04-25",
      "maxdate": "2024-08-23",
      "latitude": 45.8718407,
      "name": "MORA 0.3 SSW, MN US",
      "datacoverage": 0.5359,
      "id": "GHCND:US1MNKB0025",
      "elevationUnit": "METERS",
      "longitude": -93.2941225
    },
    {
      "elevation": 308.2,
      "mindate": "2023-09-28",
      "maxdate": "2024-10-29",
      "latitude": 45.922024,
      "name": "BROOK PARK 1.9 SSE, MN US",
      "datacoverage": 0.5829,
      "id": "GHCND:US1MNKB0027",
      "elevationUnit": "METERS",
      "longitude": -93.061022
    },
    {
      "elevation": 341.4,
      "mindate": "2010-06-01",
      "maxdate": "2011-06-30",
      "latitude": 48.5969583,
      "name": "INTERNATIONAL FALLS 1.0 NW, MN US",
      "datacoverage": 0.998,
      "id": "GHCND:US1MNKC0001",
      "elevationUnit": "METERS",
      "longitude": -93.4256181
    },
    {
      "elevation": 352,
      "mindate": "2016-04-24",
      "maxdate": "2016-10-19",
      "latitude": 48.6068115234375,
      "name": "INTERNATIONAL FALLS 10.2 E, MN US",
      "datacoverage": 0.9819,
      "id": "GHCND:US1MNKC0003",
      "elevationUnit": "METERS",
      "longitude": -93.1853713989258
    },
    {
      "elevation": 343.5,
      "mindate": "2017-05-21",
      "maxdate": "2024-10-23",
      "latitude": 48.4778,
      "name": "INTERNATIONAL FALLS 7.7 S, MN US",
      "datacoverage": 0.2864,
      "id": "GHCND:US1MNKC0004",
      "elevationUnit": "METERS",
      "longitude": -93.42278
    },
    {
      "elevation": 371.9,
      "mindate": "2018-04-27",
      "maxdate": "2025-03-07",
      "latitude": 48.193512,
      "name": "BIG FALLS 1.0 N, MN US",
      "datacoverage": 0.6629,
      "id": "GHCND:US1MNKC0006",
      "elevationUnit": "METERS",
      "longitude": -93.810877
    },
    {
      "elevation": 350.8,
      "mindate": "2020-05-26",
      "maxdate": "2023-10-22",
      "latitude": 48.60408,
      "name": "INTERNATIONAL FALLS 10.3 E, MN US",
      "datacoverage": 0.445,
      "id": "GHCND:US1MNKC0007",
      "elevationUnit": "METERS",
      "longitude": -93.18276
    },
    {
      "elevation": 342.9,
      "mindate": "2020-05-02",
      "maxdate": "2023-04-27",
      "latitude": 48.597519,
      "name": "INTERNATIONAL FALLS 1.1 NW, MN US",
      "datacoverage": 0.2143,
      "id": "GHCND:US1MNKC0008",
      "elevationUnit": "METERS",
      "longitude": -93.428383
    },
    {
      "elevation": 342.9,
      "mindate": "2021-05-25",
      "maxdate": "2025-03-07",
      "latitude": 48.5936063,
      "name": "INTERNATIONAL FALLS 0.6 NW, MN US",
      "datacoverage": 0.956,
      "id": "GHCND:US1MNKC0009",
      "elevationUnit": "METERS",
      "longitude": -93.4193036
    },
    {
      "elevation": 357.5,
      "mindate": "2022-03-09",
      "maxdate": "2025-03-07",
      "latitude": 48.523867,
      "name": "INTERNATIONAL FALLS 5.1 SSW, MN US",
      "datacoverage": 0.9306,
      "id": "GHCND:US1MNKC0010",
      "elevationUnit": "METERS",
      "longitude": -93.460729
    },
    {
      "elevation": 351.4,
      "mindate": "2022-04-29",
      "maxdate": "2022-09-27",
      "latitude": 48.58799,
      "name": "INTERNATIONAL FALLS 0.7 E, MN US",
      "datacoverage": 0.9898,
      "id": "GHCND:US1MNKC0011",
      "elevationUnit": "METERS",
      "longitude": -93.39153
    },
    {
      "elevation": 337.4,
      "mindate": "2023-01-11",
      "maxdate": "2024-09-13",
      "latitude": 48.5201,
      "name": "INTERNATIONAL FALLS 10.3 WSW, MN US",
      "datacoverage": 0.7157,
      "id": "GHCND:US1MNKC0014",
      "elevationUnit": "METERS",
      "longitude": -93.607
    },
    {
      "elevation": 343.5,
      "mindate": "2023-05-01",
      "maxdate": "2025-03-07",
      "latitude": 48.603915,
      "name": "INTERNATIONAL FALLS 1.1 NNW, MN US",
      "datacoverage": 0.8177,
      "id": "GHCND:US1MNKC0018",
      "elevationUnit": "METERS",
      "longitude": -93.414602
    },
    {
      "elevation": 354.2,
      "mindate": "2023-06-14",
      "maxdate": "2025-03-07",
      "latitude": 48.60554,
      "name": "INTERNATIONAL FALLS 9.5 E, MN US",
      "datacoverage": 0.9496,
      "id": "GHCND:US1MNKC0019",
      "elevationUnit": "METERS",
      "longitude": -93.20086
    },
    {
      "elevation": 344.7,
      "mindate": "2023-07-16",
      "maxdate": "2025-03-07",
      "latitude": 48.59631,
      "name": "INTERNATIONAL FALLS 8.8 E, MN US",
      "datacoverage": 0.9479,
      "id": "GHCND:US1MNKC0020",
      "elevationUnit": "METERS",
      "longitude": -93.216
    },
    {
      "elevation": 341.7,
      "mindate": "2022-08-04",
      "maxdate": "2024-08-04",
      "latitude": 48.6073634,
      "name": "INTERNATIONAL FALLS 7.3 E, MN US",
      "datacoverage": 0.1981,
      "id": "GHCND:US1MNKC0021",
      "elevationUnit": "METERS",
      "longitude": -93.2506331
    },
    {
      "elevation": 340.5,
      "mindate": "2024-04-26",
      "maxdate": "2024-11-20",
      "latitude": 48.41816,
      "name": "LITTLEFORK 1.5 N, MN US",
      "datacoverage": 0.9925,
      "id": "GHCND:US1MNKC0022",
      "elevationUnit": "METERS",
      "longitude": -93.56102
    },
    {
      "elevation": 371.9,
      "mindate": "2010-02-01",
      "maxdate": "2025-03-05",
      "latitude": 45.407049,
      "name": "BELGRADE 8.0 ESE, MN US",
      "datacoverage": 0.8453,
      "id": "GHCND:US1MNKD0001",
      "elevationUnit": "METERS",
      "longitude": -94.846636
    },
    {
      "elevation": 367.9,
      "mindate": "2010-05-01",
      "maxdate": "2019-10-13",
      "latitude": 45.199389,
      "name": "WILLMAR 5.9 NNE, MN US",
      "datacoverage": 0.9855,
      "id": "GHCND:US1MNKD0003",
      "elevationUnit": "METERS",
      "longitude": -95.005748
    },
    {
      "elevation": 354.5,
      "mindate": "2011-03-01",
      "maxdate": "2024-11-20",
      "latitude": 45.242062,
      "name": "PENNOCK 6.7 N, MN US",
      "datacoverage": 0.7208,
      "id": "GHCND:US1MNKD0004",
      "elevationUnit": "METERS",
      "longitude": -95.152643
    },
    {
      "elevation": 352.7,
      "mindate": "2011-04-01",
      "maxdate": "2016-05-10",
      "latitude": 45.2678341,
      "name": "SPICER 6.1 WNW, MN US",
      "datacoverage": 0.9293,
      "id": "GHCND:US1MNKD0005",
      "elevationUnit": "METERS",
      "longitude": -95.0566489
    },
    {
      "elevation": 344.7,
      "mindate": "2011-07-01",
      "maxdate": "2024-10-31",
      "latitude": 45.11496,
      "name": "WILLMAR 1.4 ESE, MN US",
      "datacoverage": 0.6312,
      "id": "GHCND:US1MNKD0007",
      "elevationUnit": "METERS",
      "longitude": -95.031942
    },
    {
      "elevation": 344.4,
      "mindate": "2012-08-01",
      "maxdate": "2018-10-11",
      "latitude": 45.117805,
      "name": "WILLMAR 0.3 SSE, MN US",
      "datacoverage": 1,
      "id": "GHCND:US1MNKD0008",
      "elevationUnit": "METERS",
      "longitude": -95.055873
    },
    {
      "elevation": 343.5,
      "mindate": "2014-04-01",
      "maxdate": "2015-10-31",
      "latitude": 45.11868,
      "name": "WILLMAR 0.3 SSE, MN US",
      "datacoverage": 0.9988,
      "id": "GHCND:US1MNKD0010",
      "elevationUnit": "METERS",
      "longitude": -95.0551
    },
    {
      "elevation": 349,
      "mindate": "2016-05-12",
      "maxdate": "2025-03-07",
      "latitude": 45.264839,
      "name": "SPICER 6.3 WNW, MN US",
      "datacoverage": 0.9622,
      "id": "GHCND:US1MNKD0013",
      "elevationUnit": "METERS",
      "longitude": -95.063143
    },
    {
      "elevation": 365.2,
      "mindate": "2019-03-25",
      "maxdate": "2020-05-12",
      "latitude": 45.2688,
      "name": "PENNOCK 8.7 NNE, MN US",
      "datacoverage": 0.7958,
      "id": "GHCND:US1MNKD0016",
      "elevationUnit": "METERS",
      "longitude": -95.134
    },
    {
      "elevation": 355.4,
      "mindate": "2020-04-01",
      "maxdate": "2024-10-19",
      "latitude": 45.2685,
      "name": "SPICER 6.4 ENE, MN US",
      "datacoverage": 0.5988,
      "id": "GHCND:US1MNKD0019",
      "elevationUnit": "METERS",
      "longitude": -94.81945
    },
    {
      "elevation": 367.6,
      "mindate": "2020-05-12",
      "maxdate": "2025-03-07",
      "latitude": 45.276946,
      "name": "SPICER 4.1 NE, MN US",
      "datacoverage": 0.9773,
      "id": "GHCND:US1MNKD0020",
      "elevationUnit": "METERS",
      "longitude": -94.885635
    },
    {
      "elevation": 341.1,
      "mindate": "2020-06-29",
      "maxdate": "2020-10-20",
      "latitude": 44.927511,
      "name": "BLOMKEST 1.1 S, MN US",
      "datacoverage": 0.9925,
      "id": "GHCND:US1MNKD0021",
      "elevationUnit": "METERS",
      "longitude": -95.020777
    },
    {
      "elevation": 372.5,
      "mindate": "2020-05-25",
      "maxdate": "2024-11-19",
      "latitude": 45.288442,
      "name": "NEW LONDON 0.6 S, MN US",
      "datacoverage": 0.1537,
      "id": "GHCND:US1MNKD0022",
      "elevationUnit": "METERS",
      "longitude": -94.945699
    },
    {
      "elevation": 335.9,
      "mindate": "2020-11-09",
      "maxdate": "2024-11-19",
      "latitude": 44.891457,
      "name": "RENVILLE 7.1 N, MN US",
      "datacoverage": 0.1461,
      "id": "GHCND:US1MNKD0023",
      "elevationUnit": "METERS",
      "longitude": -95.212113
    },
    {
      "elevation": 338.3,
      "mindate": "2021-03-01",
      "maxdate": "2024-09-30",
      "latitude": 44.935767,
      "name": "PRINSBURG 0.1 WNW, MN US",
      "datacoverage": 1,
      "id": "GHCND:US1MNKD0024",
      "elevationUnit": "METERS",
      "longitude": -95.189254
    },
    {
      "elevation": 342,
      "mindate": "2021-05-20",
      "maxdate": "2024-11-20",
      "latitude": 45.101402,
      "name": "WILLMAR 1.5 SSW, MN US",
      "datacoverage": 0.1663,
      "id": "GHCND:US1MNKD0027",
      "elevationUnit": "METERS",
      "longitude": -95.064933
    },
    {
      "elevation": 347.5,
      "mindate": "2022-04-14",
      "maxdate": "2023-09-29",
      "latitude": 45.120165,
      "name": "WILLMAR 1.9 E, MN US",
      "datacoverage": 0.4963,
      "id": "GHCND:US1MNKD0030",
      "elevationUnit": "METERS",
      "longitude": -95.017893
    },
    {
      "elevation": 357.2,
      "mindate": "2022-03-17",
      "maxdate": "2025-01-13",
      "latitude": 45.089653,
      "name": "KANDIYOHI 2.9 S, MN US",
      "datacoverage": 0.612,
      "id": "GHCND:US1MNKD0032",
      "elevationUnit": "METERS",
      "longitude": -94.94108
    },
    {
      "elevation": 359.4,
      "mindate": "2022-05-12",
      "maxdate": "2024-12-01",
      "latitude": 45.240999,
      "name": "SPICER 0.6 NNE, MN US",
      "datacoverage": 0.499,
      "id": "GHCND:US1MNKD0033",
      "elevationUnit": "METERS",
      "longitude": -94.937597
    },
    {
      "elevation": 356.6,
      "mindate": "2022-07-01",
      "maxdate": "2023-10-27",
      "latitude": 45.1926630386398,
      "name": "ATWATER 4.6 NNW, MN US",
      "datacoverage": 0.6819,
      "id": "GHCND:US1MNKD0034",
      "elevationUnit": "METERS",
      "longitude": -94.8240194992541
    },
    {
      "elevation": 374,
      "mindate": "2023-04-19",
      "maxdate": "2024-11-23",
      "latitude": 45.1413853,
      "name": "ATWATER 0.4 N, MN US",
      "datacoverage": 0.6769,
      "id": "GHCND:US1MNKD0038",
      "elevationUnit": "METERS",
      "longitude": -94.77703
    },
    {
      "elevation": 345.6,
      "mindate": "2023-03-13",
      "maxdate": "2024-11-16",
      "latitude": 45.24426,
      "name": "SPICER 6.2 W, MN US",
      "datacoverage": 0.7463,
      "id": "GHCND:US1MNKD0041",
      "elevationUnit": "METERS",
      "longitude": -95.067664
    },
    {
      "elevation": 343.5,
      "mindate": "2023-10-15",
      "maxdate": "2025-02-25",
      "latitude": 45.0979178,
      "name": "WILLMAR 1.7 S, MN US",
      "datacoverage": 0.966,
      "id": "GHCND:US1MNKD0046",
      "elevationUnit": "METERS",
      "longitude": -95.0522046
    },
    {
      "elevation": 378.6,
      "mindate": "2024-04-07",
      "maxdate": "2025-03-05",
      "latitude": 45.32739,
      "name": "NEW LONDON 4.0 ENE, MN US",
      "datacoverage": 0.998,
      "id": "GHCND:US1MNKD0049",
      "elevationUnit": "METERS",
      "longitude": -94.876015
    },
    {
      "elevation": 341.1,
      "mindate": "2024-03-28",
      "maxdate": "2024-09-22",
      "latitude": 45.0659,
      "name": "WILLMAR 4.3 SSE, MN US",
      "datacoverage": 0.9947,
      "id": "GHCND:US1MNKD0050",
      "elevationUnit": "METERS",
      "longitude": -95.0199
    },
    {
      "elevation": 320.6,
      "mindate": "2016-09-25",
      "maxdate": "2025-02-06",
      "latitude": 48.575014,
      "name": "KARLSTAD 0.2 SSW, MN US",
      "datacoverage": 0.3467,
      "id": "GHCND:US1MNKT0002",
      "elevationUnit": "METERS",
      "longitude": -96.518183
    }
  ]
}
