{
  "metadata": {
    "resultset": {
      "offset": 90600,
      "count": 154115,
      "limit": 100
    }
  },
  "results": [
    {
      "elevation": 281.3,
      "mindate": "2021-03-13",
      "maxdate": "2025-03-07",
      "latitude": 39.762905,
      "name": "DANVILLE 0.2 WNW, IN US",
      "datacoverage": 0.9986,
      "id": "GHCND:US1INHS0055",
      "elevationUnit": "METERS",
      "longitude": -86.523078
    },
    {
      "elevation": 247.8,
      "mindate": "2021-01-16",
      "maxdate": "2025-03-05",
      "latitude": 39.743126,
      "name": "AVON 1.4 SSW, IN US",
      "datacoverage": 0.9539,
      "id": "GHCND:US1INHS0056",
      "elevationUnit": "METERS",
      "longitude": -86.407944
    },
    {
      "elevation": 235,
      "mindate": "2021-05-01",
      "maxdate": "2023-09-05",
      "latitude": 39.70907,
      "name": "PLAINFIELD 0.6 NNW, IN US",
      "datacoverage": 0.549,
      "id": "GHCND:US1INHS0057",
      "elevationUnit": "METERS",
      "longitude": -86.39067
    },
    {
      "elevation": 260.3,
      "mindate": "2022-03-15",
      "maxdate": "2024-12-16",
      "latitude": 39.790436,
      "name": "AVON 3.1 NE, IN US",
      "datacoverage": 0.998,
      "id": "GHCND:US1INHS0059",
      "elevationUnit": "METERS",
      "longitude": -86.350962
    },
    {
      "elevation": 251.5,
      "mindate": "2023-01-25",
      "maxdate": "2025-03-07",
      "latitude": 39.7421,
      "name": "AVON 1.5 SSE, IN US",
      "datacoverage": 0.9625,
      "id": "GHCND:US1INHS0060",
      "elevationUnit": "METERS",
      "longitude": -86.3882
    },
    {
      "elevation": 246.6,
      "mindate": "2023-05-22",
      "maxdate": "2023-11-09",
      "latitude": 39.683398,
      "name": "PLAINFIELD 2.2 WSW, IN US",
      "datacoverage": 0.9947,
      "id": "GHCND:US1INHS0063",
      "elevationUnit": "METERS",
      "longitude": -86.423477
    },
    {
      "elevation": 241.1,
      "mindate": "1998-06-17",
      "maxdate": "2025-03-07",
      "latitude": 40.885238,
      "name": "HUNTINGTON 1.2 ENE, IN US",
      "datacoverage": 1,
      "id": "GHCND:US1INHT0001",
      "elevationUnit": "METERS",
      "longitude": -85.482565
    },
    {
      "elevation": 242.9,
      "mindate": "2006-09-01",
      "maxdate": "2009-11-25",
      "latitude": 40.900912,
      "name": "HUNTINGTON 1.4 NNE, IN US",
      "datacoverage": 1,
      "id": "GHCND:US1INHT0002",
      "elevationUnit": "METERS",
      "longitude": -85.498543
    },
    {
      "elevation": 264,
      "mindate": "2007-11-01",
      "maxdate": "2020-04-09",
      "latitude": 40.698146,
      "name": "WARREN 1.6 ENE, IN US",
      "datacoverage": 0.9109,
      "id": "GHCND:US1INHT0007",
      "elevationUnit": "METERS",
      "longitude": -85.396655
    },
    {
      "elevation": 246,
      "mindate": "2012-07-01",
      "maxdate": "2020-03-18",
      "latitude": 40.838076,
      "name": "WA9QGL ANDREWS 3.2 ESE, IN US",
      "datacoverage": 0.9998,
      "id": "GHCND:US1INHT0011",
      "elevationUnit": "METERS",
      "longitude": -85.547193
    },
    {
      "elevation": 259.4,
      "mindate": "2011-12-01",
      "maxdate": "2017-03-22",
      "latitude": 40.6967,
      "name": "KB9YAO MOUNT ETNA 3.7 SSE, IN US",
      "datacoverage": 0.5105,
      "id": "GHCND:US1INHT0012",
      "elevationUnit": "METERS",
      "longitude": -85.5251
    },
    {
      "elevation": 263.3,
      "mindate": "2019-09-24",
      "maxdate": "2024-07-10",
      "latitude": 40.7475801,
      "name": "WARREN 4.9 NNE, IN US",
      "datacoverage": 0.5988,
      "id": "GHCND:US1INHT0015",
      "elevationUnit": "METERS",
      "longitude": -85.3760597
    },
    {
      "elevation": 226.8,
      "mindate": "2022-07-18",
      "maxdate": "2023-01-20",
      "latitude": 40.885238,
      "name": "HUNTINGTON 1.2 ENE, IN US",
      "datacoverage": 1,
      "id": "GHCND:US1INHT0017",
      "elevationUnit": "METERS",
      "longitude": -85.482565
    },
    {
      "elevation": 215.2,
      "mindate": "2024-07-14",
      "maxdate": "2025-03-05",
      "latitude": 40.868164,
      "name": "ANDREWS 0.6 N, IN US",
      "datacoverage": 0.998,
      "id": "GHCND:US1INHT0018",
      "elevationUnit": "METERS",
      "longitude": -85.599527
    },
    {
      "elevation": 259.1,
      "mindate": "2006-04-01",
      "maxdate": "2008-11-21",
      "latitude": 40.414758,
      "name": "RUSSIAVILLE 0.3 SSW, IN US",
      "datacoverage": 0.9678,
      "id": "GHCND:US1INHW0002",
      "elevationUnit": "METERS",
      "longitude": -86.27263
    },
    {
      "elevation": 257.9,
      "mindate": "2006-12-01",
      "maxdate": "2025-03-07",
      "latitude": 40.452784,
      "name": "KOKOMO 4.6 ESE, IN US",
      "datacoverage": 0.9991,
      "id": "GHCND:US1INHW0003",
      "elevationUnit": "METERS",
      "longitude": -86.050761
    },
    {
      "elevation": 255.1,
      "mindate": "2006-12-01",
      "maxdate": "2016-09-25",
      "latitude": 40.438315,
      "name": "KOKOMO 4.3 SW, IN US",
      "datacoverage": 0.9821,
      "id": "GHCND:US1INHW0005",
      "elevationUnit": "METERS",
      "longitude": -86.197831
    },
    {
      "elevation": 253.9,
      "mindate": "2007-01-01",
      "maxdate": "2009-11-14",
      "latitude": 40.497884,
      "name": "KOKOMO 4.0 ENE, IN US",
      "datacoverage": 1,
      "id": "GHCND:US1INHW0007",
      "elevationUnit": "METERS",
      "longitude": -86.06289
    },
    {
      "elevation": 239,
      "mindate": "2007-04-01",
      "maxdate": "2024-10-25",
      "latitude": 40.546963,
      "name": "BURLINGTON 5.8 NE, IN US",
      "datacoverage": 0.3048,
      "id": "GHCND:US1INHW0009",
      "elevationUnit": "METERS",
      "longitude": -86.326215
    },
    {
      "elevation": 243.8,
      "mindate": "2007-01-01",
      "maxdate": "2015-07-10",
      "latitude": 40.489282,
      "name": "KOKOMO 6.8 W, IN US",
      "datacoverage": 1,
      "id": "GHCND:US1INHW0010",
      "elevationUnit": "METERS",
      "longitude": -86.261137
    },
    {
      "elevation": 252.1,
      "mindate": "2007-03-01",
      "maxdate": "2016-06-21",
      "latitude": 40.466793,
      "name": "KOKOMO 0.6 S, IN US",
      "datacoverage": 0.8232,
      "id": "GHCND:US1INHW0011",
      "elevationUnit": "METERS",
      "longitude": -86.133668
    },
    {
      "elevation": 248.1,
      "mindate": "2007-03-01",
      "maxdate": "2016-06-21",
      "latitude": 40.545984,
      "name": "KOKOMO 6.8 NW, IN US",
      "datacoverage": 0.833,
      "id": "GHCND:US1INHW0012",
      "elevationUnit": "METERS",
      "longitude": -86.22268
    },
    {
      "elevation": 253,
      "mindate": "1998-06-01",
      "maxdate": "2015-01-21",
      "latitude": 40.466761,
      "name": "KOKOMO 4.4 E, IN US",
      "datacoverage": 0.5619,
      "id": "GHCND:US1INHW0013",
      "elevationUnit": "METERS",
      "longitude": -86.051037
    },
    {
      "elevation": 255.1,
      "mindate": "2007-06-01",
      "maxdate": "2013-11-24",
      "latitude": 40.47145,
      "name": "KOKOMO 4.3 E, IN US",
      "datacoverage": 0.5383,
      "id": "GHCND:US1INHW0014",
      "elevationUnit": "METERS",
      "longitude": -86.0519
    },
    {
      "elevation": 238,
      "mindate": "2007-07-01",
      "maxdate": "2008-11-21",
      "latitude": 40.561504,
      "name": "GALVESTON 6.4 W, IN US",
      "datacoverage": 0.7624,
      "id": "GHCND:US1INHW0015",
      "elevationUnit": "METERS",
      "longitude": -86.312181
    },
    {
      "elevation": 247.2,
      "mindate": "2010-11-01",
      "maxdate": "2016-05-20",
      "latitude": 40.51853314,
      "name": "KOKOMO 7.2 WNW, IN US",
      "datacoverage": 1,
      "id": "GHCND:US1INHW0016",
      "elevationUnit": "METERS",
      "longitude": -86.25774186
    },
    {
      "elevation": 248.7,
      "mindate": "2011-03-01",
      "maxdate": "2017-07-11",
      "latitude": 40.5622,
      "name": "KOKOMO 6.5 NNW, IN US",
      "datacoverage": 0.7485,
      "id": "GHCND:US1INHW0017",
      "elevationUnit": "METERS",
      "longitude": -86.1837
    },
    {
      "elevation": 255.7,
      "mindate": "2012-02-01",
      "maxdate": "2021-10-13",
      "latitude": 40.4326,
      "name": "K9VEZ INDIAN HEIGHTS 3.6 W, IN US",
      "datacoverage": 1,
      "id": "GHCND:US1INHW0018",
      "elevationUnit": "METERS",
      "longitude": -86.1844
    },
    {
      "elevation": 254.8,
      "mindate": "2012-02-01",
      "maxdate": "2021-10-13",
      "latitude": 40.4666,
      "name": "KC9DHF KOKOMO 4.4 E, IN US",
      "datacoverage": 1,
      "id": "GHCND:US1INHW0020",
      "elevationUnit": "METERS",
      "longitude": -86.0508
    },
    {
      "elevation": 248.1,
      "mindate": "2012-02-01",
      "maxdate": "2021-09-21",
      "latitude": 40.4904,
      "name": "KC9IYD KOKOMO 4.0 WNW, IN US",
      "datacoverage": 1,
      "id": "GHCND:US1INHW0021",
      "elevationUnit": "METERS",
      "longitude": -86.207
    },
    {
      "elevation": 256.9,
      "mindate": "2013-12-01",
      "maxdate": "2019-11-04",
      "latitude": 40.4396,
      "name": "N9VZS KOKOMO 2.5 S, IN US",
      "datacoverage": 1,
      "id": "GHCND:US1INHW0024",
      "elevationUnit": "METERS",
      "longitude": -86.14
    },
    {
      "elevation": 250.5,
      "mindate": "2015-06-05",
      "maxdate": "2024-11-25",
      "latitude": 40.4968147277832,
      "name": "KOKOMO 1.6 NNW, IN US",
      "datacoverage": 0.1756,
      "id": "GHCND:US1INHW0025",
      "elevationUnit": "METERS",
      "longitude": -86.1446838378906
    },
    {
      "elevation": 255.4,
      "mindate": "2015-03-01",
      "maxdate": "2017-07-07",
      "latitude": 40.428424,
      "name": "RUSSIAVILLE 1.0 NE, IN US",
      "datacoverage": 0.9967,
      "id": "GHCND:US1INHW0026",
      "elevationUnit": "METERS",
      "longitude": -86.255373
    },
    {
      "elevation": 260.3,
      "mindate": "2019-03-19",
      "maxdate": "2021-07-06",
      "latitude": 40.44948,
      "name": "KD9JAS KOKOMO 1.8 S, IN US",
      "datacoverage": 0.8952,
      "id": "GHCND:US1INHW0027",
      "elevationUnit": "METERS",
      "longitude": -86.12671
    },
    {
      "elevation": 250.9,
      "mindate": "2020-05-17",
      "maxdate": "2021-07-29",
      "latitude": 40.466341,
      "name": "KOKOMO 0.7 SSE, IN US",
      "datacoverage": 0.5923,
      "id": "GHCND:US1INHW0030",
      "elevationUnit": "METERS",
      "longitude": -86.127245
    },
    {
      "elevation": 264.3,
      "mindate": "2020-05-08",
      "maxdate": "2021-04-13",
      "latitude": 40.41798,
      "name": "KOKOMO 4.5 SSW, IN US",
      "datacoverage": 0.998,
      "id": "GHCND:US1INHW0031",
      "elevationUnit": "METERS",
      "longitude": -86.17299
    },
    {
      "elevation": 249.9,
      "mindate": "2020-07-11",
      "maxdate": "2023-07-11",
      "latitude": 40.46857,
      "name": "KOKOMO 1.7 ESE, IN US",
      "datacoverage": 0.8296,
      "id": "GHCND:US1INHW0032",
      "elevationUnit": "METERS",
      "longitude": -86.10295
    },
    {
      "elevation": 241.4,
      "mindate": "2021-03-17",
      "maxdate": "2021-11-07",
      "latitude": 40.47653,
      "name": "KOKOMO 5.5 W, IN US",
      "datacoverage": 0.9947,
      "id": "GHCND:US1INHW0033",
      "elevationUnit": "METERS",
      "longitude": -86.23862
    },
    {
      "elevation": 261.5,
      "mindate": "2021-05-01",
      "maxdate": "2022-09-11",
      "latitude": 40.50641,
      "name": "KOKOMO 2.9 NE, IN US",
      "datacoverage": 0.3521,
      "id": "GHCND:US1INHW0035",
      "elevationUnit": "METERS",
      "longitude": -86.094618
    },
    {
      "elevation": 259.7,
      "mindate": "2021-07-28",
      "maxdate": "2022-11-12",
      "latitude": 40.416347,
      "name": "RUSSIAVILLE 0.6 WSW, IN US",
      "datacoverage": 0.4419,
      "id": "GHCND:US1INHW0036",
      "elevationUnit": "METERS",
      "longitude": -86.280256
    },
    {
      "elevation": 251.8,
      "mindate": "2023-03-01",
      "maxdate": "2025-01-03",
      "latitude": 40.47499,
      "name": "KOKOMO 1.8 E, IN US",
      "datacoverage": 0.8271,
      "id": "GHCND:US1INHW0038",
      "elevationUnit": "METERS",
      "longitude": -86.0987
    },
    {
      "elevation": 264,
      "mindate": "2023-08-29",
      "maxdate": "2025-03-05",
      "latitude": 40.426372,
      "name": "KOKOMO 3.5 SSW, IN US",
      "datacoverage": 0.666,
      "id": "GHCND:US1INHW0039",
      "elevationUnit": "METERS",
      "longitude": -86.146767
    },
    {
      "elevation": 257.3,
      "mindate": "2023-12-27",
      "maxdate": "2025-03-06",
      "latitude": 40.42355,
      "name": "RUSSIAVILLE 1.8 E, IN US",
      "datacoverage": 1,
      "id": "GHCND:US1INHW0040",
      "elevationUnit": "METERS",
      "longitude": -86.23672
    },
    {
      "elevation": 335,
      "mindate": "2006-04-01",
      "maxdate": "2025-03-07",
      "latitude": 39.82065,
      "name": "LEWISVILLE 1.8 ENE, IN US",
      "datacoverage": 1,
      "id": "GHCND:US1INHY0001",
      "elevationUnit": "METERS",
      "longitude": -85.3244
    },
    {
      "elevation": 328.9,
      "mindate": "2006-06-01",
      "maxdate": "2006-10-17",
      "latitude": 39.922154,
      "name": "NEW CASTLE 0.1 NNE, IN US",
      "datacoverage": 0.9947,
      "id": "GHCND:US1INHY0002",
      "elevationUnit": "METERS",
      "longitude": -85.364316
    },
    {
      "elevation": 309.1,
      "mindate": "2006-01-01",
      "maxdate": "2007-09-09",
      "latitude": 39.814641,
      "name": "DUNREITH 2.0 WNW, IN US",
      "datacoverage": 1,
      "id": "GHCND:US1INHY0003",
      "elevationUnit": "METERS",
      "longitude": -85.472041
    },
    {
      "elevation": 328.9,
      "mindate": "2006-08-01",
      "maxdate": "2015-05-27",
      "latitude": 39.860041,
      "name": "NEW CASTLE 4.6 SSE, IN US",
      "datacoverage": 0.9812,
      "id": "GHCND:US1INHY0005",
      "elevationUnit": "METERS",
      "longitude": -85.331107
    },
    {
      "elevation": 320.6,
      "mindate": "2011-03-01",
      "maxdate": "2012-11-28",
      "latitude": 39.916282,
      "name": "NEW CASTLE 2.6 W, IN US",
      "datacoverage": 0.7598,
      "id": "GHCND:US1INHY0013",
      "elevationUnit": "METERS",
      "longitude": -85.413283
    },
    {
      "elevation": 322.8,
      "mindate": "2011-12-01",
      "maxdate": "2019-09-23",
      "latitude": 39.8959,
      "name": "KB9VZU NEW CASTLE 2.2 SW, IN US",
      "datacoverage": 0.9998,
      "id": "GHCND:US1INHY0014",
      "elevationUnit": "METERS",
      "longitude": -85.3896
    },
    {
      "elevation": 319.4,
      "mindate": "2014-09-01",
      "maxdate": "2025-03-07",
      "latitude": 39.917905,
      "name": "NEW CASTLE 3.2 W, IN US",
      "datacoverage": 1,
      "id": "GHCND:US1INHY0016",
      "elevationUnit": "METERS",
      "longitude": -85.424988
    },
    {
      "elevation": 331.3,
      "mindate": "2015-04-01",
      "maxdate": "2021-11-14",
      "latitude": 39.941756,
      "name": "NEW CASTLE 2.6 ENE, IN US",
      "datacoverage": 0.998,
      "id": "GHCND:US1INHY0018",
      "elevationUnit": "METERS",
      "longitude": -85.3240409
    },
    {
      "elevation": 321.9,
      "mindate": "2016-01-10",
      "maxdate": "2021-03-19",
      "latitude": 39.83347,
      "name": "SPICELAND 0.4 SSE, IN US",
      "datacoverage": 0.5614,
      "id": "GHCND:US1INHY0024",
      "elevationUnit": "METERS",
      "longitude": -85.434831
    },
    {
      "elevation": 321.9,
      "mindate": "2016-04-30",
      "maxdate": "2023-05-29",
      "latitude": 39.939468,
      "name": "NEW CASTLE 3.2 WNW, IN US",
      "datacoverage": 0.5897,
      "id": "GHCND:US1INHY0025",
      "elevationUnit": "METERS",
      "longitude": -85.419361
    },
    {
      "elevation": 317.6,
      "mindate": "2019-06-30",
      "maxdate": "2025-01-06",
      "latitude": 39.881,
      "name": "NEW CASTLE 5.4 WSW, IN US",
      "datacoverage": 0.9986,
      "id": "GHCND:US1INHY0028",
      "elevationUnit": "METERS",
      "longitude": -85.453
    },
    {
      "elevation": 320.6,
      "mindate": "2015-07-23",
      "maxdate": "2019-10-04",
      "latitude": 39.876765,
      "name": "WD9GWM NEW CASTLE 3.9 SW, IN US",
      "datacoverage": 0.6085,
      "id": "GHCND:US1INHY0029",
      "elevationUnit": "METERS",
      "longitude": -85.411353
    },
    {
      "elevation": 319.4,
      "mindate": "2019-04-05",
      "maxdate": "2021-09-15",
      "latitude": 39.9263,
      "name": "NEW CASTLE 0.6 NW, IN US",
      "datacoverage": 0.3992,
      "id": "GHCND:US1INHY0031",
      "elevationUnit": "METERS",
      "longitude": -85.3744
    },
    {
      "elevation": 321.6,
      "mindate": "2019-09-26",
      "maxdate": "2025-03-07",
      "latitude": 39.8767,
      "name": "NEW CASTLE 3.9 SW, IN US",
      "datacoverage": 0.8407,
      "id": "GHCND:US1INHY0032",
      "elevationUnit": "METERS",
      "longitude": -85.4113
    },
    {
      "elevation": 309.4,
      "mindate": "2021-03-08",
      "maxdate": "2024-12-30",
      "latitude": 40.006237,
      "name": "MIDDLETOWN 3.7 S, IN US",
      "datacoverage": 0.1019,
      "id": "GHCND:US1INHY0034",
      "elevationUnit": "METERS",
      "longitude": -85.5354
    },
    {
      "elevation": 339.2,
      "mindate": "2024-05-08",
      "maxdate": "2025-03-07",
      "latitude": 39.83087,
      "name": "STRAUGHN 2.0 NW, IN US",
      "datacoverage": 0.9046,
      "id": "GHCND:US1INHY0037",
      "elevationUnit": "METERS",
      "longitude": -85.314507
    },
    {
      "mindate": "2024-04-08",
      "maxdate": "2025-03-07",
      "latitude": 39.8095296130228,
      "name": "N9HT STRAUGHN 0.1 NE, IN US",
      "datacoverage": 0.9947,
      "id": "GHCND:US1INHY0038",
      "longitude": -85.2890606609196
    },
    {
      "elevation": 232,
      "mindate": "2006-05-01",
      "maxdate": "2025-03-06",
      "latitude": 38.695977,
      "name": "HANOVER 1.4 S, IN US",
      "datacoverage": 1,
      "id": "GHCND:US1INJF0001",
      "elevationUnit": "METERS",
      "longitude": -85.472744
    },
    {
      "elevation": 220.1,
      "mindate": "2008-04-01",
      "maxdate": "2008-11-21",
      "latitude": 38.738322,
      "name": "MADISON 8.1 WNW, IN US",
      "datacoverage": 0.998,
      "id": "GHCND:US1INJF0003",
      "elevationUnit": "METERS",
      "longitude": -85.535758
    },
    {
      "elevation": 216.7,
      "mindate": "2009-03-01",
      "maxdate": "2010-05-04",
      "latitude": 38.737671,
      "name": "MADISON 7.7 W, IN US",
      "datacoverage": 0.9947,
      "id": "GHCND:US1INJF0005",
      "elevationUnit": "METERS",
      "longitude": -85.54036
    },
    {
      "elevation": 215.2,
      "mindate": "2011-08-01",
      "maxdate": "2012-10-25",
      "latitude": 38.723691,
      "name": "BLOCHER 1.7 ENE, IN US",
      "datacoverage": 0.9304,
      "id": "GHCND:US1INJF0006",
      "elevationUnit": "METERS",
      "longitude": -85.625932
    },
    {
      "elevation": 259.1,
      "mindate": "2019-07-17",
      "maxdate": "2025-03-05",
      "latitude": 38.77006,
      "name": "MADISON 2.4 N, IN US",
      "datacoverage": 0.9592,
      "id": "GHCND:US1INJF0010",
      "elevationUnit": "METERS",
      "longitude": -85.37222
    },
    {
      "elevation": 221.9,
      "mindate": "2006-06-01",
      "maxdate": "2013-09-13",
      "latitude": 39.448667,
      "name": "FRANKLIN 3.0 S, IN US",
      "datacoverage": 0.9998,
      "id": "GHCND:US1INJH0004",
      "elevationUnit": "METERS",
      "longitude": -86.056744
    },
    {
      "elevation": 205.1,
      "mindate": "2006-06-01",
      "maxdate": "2011-02-02",
      "latitude": 39.603971,
      "name": "GREENWOOD 5.0 W, IN US",
      "datacoverage": 1,
      "id": "GHCND:US1INJH0005",
      "elevationUnit": "METERS",
      "longitude": -86.206713
    },
    {
      "elevation": 242,
      "mindate": "2006-12-01",
      "maxdate": "2007-12-04",
      "latitude": 39.60237,
      "name": "GREENWOOD 5.2 E, IN US",
      "datacoverage": 1,
      "id": "GHCND:US1INJH0008",
      "elevationUnit": "METERS",
      "longitude": -86.01835
    },
    {
      "elevation": 224,
      "mindate": "2009-01-01",
      "maxdate": "2009-12-08",
      "latitude": 39.625556,
      "name": "GREENWOOD 2.2 WNW, IN US",
      "datacoverage": 1,
      "id": "GHCND:US1INJH0011",
      "elevationUnit": "METERS",
      "longitude": -86.152167
    },
    {
      "elevation": 211.5,
      "mindate": "2009-03-01",
      "maxdate": "2025-03-07",
      "latitude": 39.5858,
      "name": "GREENWOOD 4.8 WSW, IN US",
      "datacoverage": 0.9997,
      "id": "GHCND:US1INJH0012",
      "elevationUnit": "METERS",
      "longitude": -86.1947
    },
    {
      "elevation": 242.9,
      "mindate": "2011-10-01",
      "maxdate": "2012-06-30",
      "latitude": 39.568013,
      "name": "NEW WHITELAND 0.8 WNW, IN US",
      "datacoverage": 1,
      "id": "GHCND:US1INJH0016",
      "elevationUnit": "METERS",
      "longitude": -86.108888
    },
    {
      "elevation": 235.9,
      "mindate": "2012-08-01",
      "maxdate": "2025-03-07",
      "latitude": 39.568196,
      "name": "GREENWOOD 4.6 SW, IN US",
      "datacoverage": 1,
      "id": "GHCND:US1INJH0022",
      "elevationUnit": "METERS",
      "longitude": -86.174935
    },
    {
      "elevation": 205.1,
      "mindate": "2011-07-01",
      "maxdate": "2025-03-06",
      "latitude": 39.3564,
      "name": "EDINBURGH 0.8 ENE, IN US",
      "datacoverage": 0.5509,
      "id": "GHCND:US1INJH0023",
      "elevationUnit": "METERS",
      "longitude": -85.95382
    },
    {
      "elevation": 245.1,
      "mindate": "2017-01-18",
      "maxdate": "2025-03-05",
      "latitude": 39.612865447998,
      "name": "GREENWOOD 0.6 ESE, IN US",
      "datacoverage": 0.8856,
      "id": "GHCND:US1INJH0025",
      "elevationUnit": "METERS",
      "longitude": -86.1028442382813
    },
    {
      "elevation": 236.5,
      "mindate": "2017-04-10",
      "maxdate": "2025-03-07",
      "latitude": 39.515956,
      "name": "FRANKLIN 2.0 NW, IN US",
      "datacoverage": 0.8591,
      "id": "GHCND:US1INJH0026",
      "elevationUnit": "METERS",
      "longitude": -86.077181
    },
    {
      "elevation": 249.9,
      "mindate": "2017-06-18",
      "maxdate": "2025-03-07",
      "latitude": 39.6008,
      "name": "GREENWOOD 2.1 ESE, IN US",
      "datacoverage": 0.4457,
      "id": "GHCND:US1INJH0027",
      "elevationUnit": "METERS",
      "longitude": -86.0799
    },
    {
      "elevation": 224.6,
      "mindate": "2020-05-24",
      "maxdate": "2025-01-31",
      "latitude": 39.61404,
      "name": "GREENWOOD 2.6 W, IN US",
      "datacoverage": 0.9991,
      "id": "GHCND:US1INJH0031",
      "elevationUnit": "METERS",
      "longitude": -86.1635
    },
    {
      "elevation": 215.2,
      "mindate": "2020-04-23",
      "maxdate": "2025-03-07",
      "latitude": 39.614983,
      "name": "GREENWOOD 3.8 W, IN US",
      "datacoverage": 1,
      "id": "GHCND:US1INJH0032",
      "elevationUnit": "METERS",
      "longitude": -86.186
    },
    {
      "elevation": 223.4,
      "mindate": "2020-07-01",
      "maxdate": "2025-03-07",
      "latitude": 39.572,
      "name": "GREENWOOD 4.9 SW, IN US",
      "datacoverage": 1,
      "id": "GHCND:US1INJH0037",
      "elevationUnit": "METERS",
      "longitude": -86.1875
    },
    {
      "elevation": 222.5,
      "mindate": "2020-08-17",
      "maxdate": "2021-10-22",
      "latitude": 39.4250277,
      "name": "FRANKLIN 4.8 SSE, IN US",
      "datacoverage": 1,
      "id": "GHCND:US1INJH0038",
      "elevationUnit": "METERS",
      "longitude": -86.0366922
    },
    {
      "elevation": 223.4,
      "mindate": "2022-04-01",
      "maxdate": "2025-03-07",
      "latitude": 39.428416,
      "name": "FRANKLIN 4.4 S, IN US",
      "datacoverage": 0.9636,
      "id": "GHCND:US1INJH0041",
      "elevationUnit": "METERS",
      "longitude": -86.064493
    },
    {
      "elevation": 173.1,
      "mindate": "2006-09-01",
      "maxdate": "2008-06-08",
      "latitude": 38.953678,
      "name": "SEYMOUR 1.1 WSW, IN US",
      "datacoverage": 1,
      "id": "GHCND:US1INJK0003",
      "elevationUnit": "METERS",
      "longitude": -85.906486
    },
    {
      "elevation": 170.1,
      "mindate": "2006-10-01",
      "maxdate": "2017-07-28",
      "latitude": 38.83793,
      "name": "CROTHERSVILLE 3.4 NNW, IN US",
      "datacoverage": 0.9623,
      "id": "GHCND:US1INJK0004",
      "elevationUnit": "METERS",
      "longitude": -85.87469
    },
    {
      "elevation": 179.2,
      "mindate": "2008-06-01",
      "maxdate": "2011-02-14",
      "latitude": 38.957167,
      "name": "SEYMOUR 0.8 S, IN US",
      "datacoverage": 0.698,
      "id": "GHCND:US1INJK0006",
      "elevationUnit": "METERS",
      "longitude": -85.882861
    },
    {
      "elevation": 185,
      "mindate": "2011-02-01",
      "maxdate": "2018-10-13",
      "latitude": 38.955811,
      "name": "SEYMOUR 0.2 SSW, IN US",
      "datacoverage": 0.6455,
      "id": "GHCND:US1INJK0008",
      "elevationUnit": "METERS",
      "longitude": -85.887568
    },
    {
      "elevation": 182.6,
      "mindate": "2023-04-08",
      "maxdate": "2025-03-07",
      "latitude": 38.9502489628507,
      "name": "SEYMOUR 0.6 SSW, IN US",
      "datacoverage": 0.9994,
      "id": "GHCND:US1INJK0020",
      "elevationUnit": "METERS",
      "longitude": -85.8898082057781
    },
    {
      "elevation": 217.3,
      "mindate": "2009-04-01",
      "maxdate": "2012-08-20",
      "latitude": 39.0968,
      "name": "NORTH VERNON 6.5 NNW, IN US",
      "datacoverage": 0.9819,
      "id": "GHCND:US1INJN0003",
      "elevationUnit": "METERS",
      "longitude": -85.668411
    },
    {
      "elevation": 192.6,
      "mindate": "2009-05-01",
      "maxdate": "2009-12-05",
      "latitude": 39.0680882,
      "name": "SCIPIO 1.4 SW, IN US",
      "datacoverage": 0.998,
      "id": "GHCND:US1INJN0004",
      "elevationUnit": "METERS",
      "longitude": -85.7388574
    },
    {
      "elevation": 228,
      "mindate": "2010-09-01",
      "maxdate": "2013-07-01",
      "latitude": 39.00727,
      "name": "NORTH VERNON 0.4 W, IN US",
      "datacoverage": 0.8288,
      "id": "GHCND:US1INJN0006",
      "elevationUnit": "METERS",
      "longitude": -85.637721
    },
    {
      "elevation": 202.4,
      "mindate": "2011-03-01",
      "maxdate": "2012-08-04",
      "latitude": 39.004793,
      "name": "NORTH VERNON 1.1 E, IN US",
      "datacoverage": 0.998,
      "id": "GHCND:US1INJN0007",
      "elevationUnit": "METERS",
      "longitude": -85.610937
    },
    {
      "elevation": 208.8,
      "mindate": "2011-03-01",
      "maxdate": "2014-10-30",
      "latitude": 39.060218,
      "name": "SCIPIO 1.5 SSW, IN US",
      "datacoverage": 0.7485,
      "id": "GHCND:US1INJN0008",
      "elevationUnit": "METERS",
      "longitude": -85.732714
    },
    {
      "elevation": 224.6,
      "mindate": "2012-08-01",
      "maxdate": "2014-10-29",
      "latitude": 39.006464,
      "name": "NORTH VERNON 1.7 W, IN US",
      "datacoverage": 0.9998,
      "id": "GHCND:US1INJN0012",
      "elevationUnit": "METERS",
      "longitude": -85.662045
    },
    {
      "elevation": 183.8,
      "mindate": "2014-07-14",
      "maxdate": "2025-03-04",
      "latitude": 38.9989296,
      "name": "NORTH VERNON 7.8 W, IN US",
      "datacoverage": 0.8043,
      "id": "GHCND:US1INJN0014",
      "elevationUnit": "METERS",
      "longitude": -85.7755064
    },
    {
      "elevation": 209.4,
      "mindate": "2021-03-09",
      "maxdate": "2025-03-05",
      "latitude": 39.104424,
      "name": "SCIPIO 2.2 NNW, IN US",
      "datacoverage": 0.5809,
      "id": "GHCND:US1INJN0017",
      "elevationUnit": "METERS",
      "longitude": -85.743563
    },
    {
      "elevation": 206,
      "mindate": "2006-04-01",
      "maxdate": "2025-03-04",
      "latitude": 41.152314,
      "name": "WHEATFIELD 2.8 S, IN US",
      "datacoverage": 0.9999,
      "id": "GHCND:US1INJS0001",
      "elevationUnit": "METERS",
      "longitude": -87.035915
    },
    {
      "elevation": 203.9,
      "mindate": "2006-04-01",
      "maxdate": "2007-08-27",
      "latitude": 40.847963,
      "name": "GOODLAND 6.7 NNE, IN US",
      "datacoverage": 0.8814,
      "id": "GHCND:US1INJS0003",
      "elevationUnit": "METERS",
      "longitude": -87.231238
    },
    {
      "elevation": 206,
      "mindate": "2006-05-01",
      "maxdate": "2015-12-29",
      "latitude": 40.92925,
      "name": "RENSSELAER 0.5 SSW, IN US",
      "datacoverage": 0.9327,
      "id": "GHCND:US1INJS0004",
      "elevationUnit": "METERS",
      "longitude": -87.153569
    },
    {
      "elevation": 209.1,
      "mindate": "2006-05-01",
      "maxdate": "2025-03-07",
      "latitude": 40.908451,
      "name": "RENSSELAER 1.9 SSW, IN US",
      "datacoverage": 0.9992,
      "id": "GHCND:US1INJS0007",
      "elevationUnit": "METERS",
      "longitude": -87.158639
    },
    {
      "elevation": 203.9,
      "mindate": "2006-05-01",
      "maxdate": "2016-08-08",
      "latitude": 40.9358,
      "name": "RENSSELAER 4.9 E, IN US",
      "datacoverage": 1,
      "id": "GHCND:US1INJS0008",
      "elevationUnit": "METERS",
      "longitude": -87.0551
    },
    {
      "elevation": 217,
      "mindate": "2006-05-01",
      "maxdate": "2008-11-13",
      "latitude": 40.970525,
      "name": "RENSSELAER 5.3 WNW, IN US",
      "datacoverage": 0.9663,
      "id": "GHCND:US1INJS0009",
      "elevationUnit": "METERS",
      "longitude": -87.240536
    }
  ]
}
