{
  "metadata": {
    "resultset": {
      "offset": 49700,
      "count": 154115,
      "limit": 100
    }
  },
  "results": [
    {
      "elevation": 241,
      "mindate": "1980-08-01",
      "maxdate": "1993-02-28",
      "latitude": 49.6667,
      "name": "LANDMARK, CA",
      "datacoverage": 0.8876,
      "id": "GHCND:CA005021529",
      "elevationUnit": "METERS",
      "longitude": -96.8833
    },
    {
      "elevation": 240,
      "mindate": "1967-05-01",
      "maxdate": "1974-06-30",
      "latitude": 49.1333,
      "name": "LETELLIER, CA",
      "datacoverage": 0.9991,
      "id": "GHCND:CA005021565",
      "elevationUnit": "METERS",
      "longitude": -97.3
    },
    {
      "elevation": 488,
      "mindate": "1981-08-01",
      "maxdate": "2006-02-28",
      "latitude": 49.25,
      "name": "MANITOU STRANGE, CA",
      "datacoverage": 0.9798,
      "id": "GHCND:CA005021687",
      "elevationUnit": "METERS",
      "longitude": -98.5167
    },
    {
      "elevation": 488,
      "mindate": "1970-05-01",
      "maxdate": "1981-07-31",
      "latitude": 49.2667,
      "name": "MANITOU, CA",
      "datacoverage": 0.9701,
      "id": "GHCND:CA005021688",
      "elevationUnit": "METERS",
      "longitude": -98.4833
    },
    {
      "elevation": 305,
      "mindate": "1972-06-01",
      "maxdate": "1985-01-31",
      "latitude": 49.45,
      "name": "MARCHAND, CA",
      "datacoverage": 0.4538,
      "id": "GHCND:CA005021689",
      "elevationUnit": "METERS",
      "longitude": -96.3833
    },
    {
      "elevation": 311,
      "mindate": "1959-07-01",
      "maxdate": "1960-07-31",
      "latitude": 49.4333,
      "name": "MARCHAND FORESTRY, CA",
      "datacoverage": 0.3879,
      "id": "GHCND:CA005021690",
      "elevationUnit": "METERS",
      "longitude": -96.2667
    },
    {
      "elevation": 302,
      "mindate": "1980-12-01",
      "maxdate": "1993-08-31",
      "latitude": 49.4333,
      "name": "MARCHAND W4, CA",
      "datacoverage": 1,
      "id": "GHCND:CA005021692",
      "elevationUnit": "METERS",
      "longitude": -96.4667
    },
    {
      "elevation": 244,
      "mindate": "1969-11-01",
      "maxdate": "2024-04-27",
      "latitude": 50.0167,
      "name": "MARQUETTE, CA",
      "datacoverage": 0.9947,
      "id": "GHCND:CA005021695",
      "elevationUnit": "METERS",
      "longitude": -97.8
    },
    {
      "elevation": 310,
      "mindate": "1933-01-01",
      "maxdate": "1936-01-31",
      "latitude": 49.3667,
      "name": "MIAMI, CA",
      "datacoverage": 1,
      "id": "GHCND:CA005021732",
      "elevationUnit": "METERS",
      "longitude": -98.2333
    },
    {
      "elevation": 450,
      "mindate": "1964-08-01",
      "maxdate": "1975-12-30",
      "latitude": 49.3333,
      "name": "MIAMI HAWKEN, CA",
      "datacoverage": 0.9781,
      "id": "GHCND:CA005021735",
      "elevationUnit": "METERS",
      "longitude": -98.3667
    },
    {
      "elevation": 330,
      "mindate": "1964-08-01",
      "maxdate": "2010-12-12",
      "latitude": 49.3667,
      "name": "MIAMI ORCHARD, CA",
      "datacoverage": 0.9964,
      "id": "GHCND:CA005021736",
      "elevationUnit": "METERS",
      "longitude": -98.2833
    },
    {
      "elevation": 297,
      "mindate": "1964-07-01",
      "maxdate": "2016-06-14",
      "latitude": 49.45,
      "name": "MIAMI THIESSEN, CA",
      "datacoverage": 0.9968,
      "id": "GHCND:CA005021737",
      "elevationUnit": "METERS",
      "longitude": -98.25
    },
    {
      "elevation": 344,
      "mindate": "1981-09-01",
      "maxdate": "1983-10-31",
      "latitude": 49.2,
      "name": "MOOSE LAKE, CA",
      "datacoverage": 0.8466,
      "id": "GHCND:CA005021812",
      "elevationUnit": "METERS",
      "longitude": -95.3167
    },
    {
      "elevation": 302,
      "mindate": "1885-05-01",
      "maxdate": "1971-07-31",
      "latitude": 49.1833,
      "name": "MORDEN, CA",
      "datacoverage": 0.8203,
      "id": "GHCND:CA005021840",
      "elevationUnit": "METERS",
      "longitude": -98.1
    },
    {
      "elevation": 298,
      "mindate": "1918-03-01",
      "maxdate": "1998-11-30",
      "latitude": 49.1833,
      "name": "MORDEN CDA, CA",
      "datacoverage": 1,
      "id": "GHCND:CA005021848",
      "elevationUnit": "METERS",
      "longitude": -98.0833
    },
    {
      "elevation": 298,
      "mindate": "1999-12-01",
      "maxdate": "2024-04-28",
      "latitude": 49.1833,
      "name": "MORDEN CDA CS, CA",
      "datacoverage": 1,
      "id": "GHCND:CA005021849",
      "elevationUnit": "METERS",
      "longitude": -98.0833
    },
    {
      "elevation": 276,
      "mindate": "1980-08-01",
      "maxdate": "1987-12-31",
      "latitude": 49.25,
      "name": "MORDEN RADIO, CA",
      "datacoverage": 1,
      "id": "GHCND:CA005021854",
      "elevationUnit": "METERS",
      "longitude": -98
    },
    {
      "elevation": 235,
      "mindate": "1883-04-01",
      "maxdate": "1987-10-31",
      "latitude": 49.35,
      "name": "MORRIS, CA",
      "datacoverage": 0.7905,
      "id": "GHCND:CA005021920",
      "elevationUnit": "METERS",
      "longitude": -97.3667
    },
    {
      "elevation": 236,
      "mindate": "1954-01-01",
      "maxdate": "1959-12-31",
      "latitude": 49.3667,
      "name": "MORRIS EXPERIMENTAL ST, CA",
      "datacoverage": 0.4168,
      "id": "GHCND:CA005021960",
      "elevationUnit": "METERS",
      "longitude": -97.3833
    },
    {
      "elevation": 238,
      "mindate": "1961-06-01",
      "maxdate": "2007-11-30",
      "latitude": 49.4333,
      "name": "MORRIS 2, CA",
      "datacoverage": 0.9803,
      "id": "GHCND:CA005021965",
      "elevationUnit": "METERS",
      "longitude": -97.4833
    },
    {
      "elevation": 248,
      "mindate": "1966-06-01",
      "maxdate": "2003-11-30",
      "latitude": 49.4,
      "name": "MYRTLE, CA",
      "datacoverage": 0.9822,
      "id": "GHCND:CA005021975",
      "elevationUnit": "METERS",
      "longitude": -97.7833
    },
    {
      "elevation": 252,
      "mindate": "1968-06-01",
      "maxdate": "1999-09-30",
      "latitude": 49.3333,
      "name": "MYRTLE 2, CA",
      "datacoverage": 1,
      "id": "GHCND:CA005021977",
      "elevationUnit": "METERS",
      "longitude": -97.7667
    },
    {
      "elevation": 231,
      "mindate": "1971-09-01",
      "maxdate": "1997-10-31",
      "latitude": 50.05,
      "name": "NAROL, CA",
      "datacoverage": 0.5859,
      "id": "GHCND:CA005021992",
      "elevationUnit": "METERS",
      "longitude": -96.9667
    },
    {
      "elevation": 417,
      "mindate": "1885-04-01",
      "maxdate": "1978-03-31",
      "latitude": 49.4,
      "name": "NINETTE, CA",
      "datacoverage": 0.7614,
      "id": "GHCND:CA005022040",
      "elevationUnit": "METERS",
      "longitude": -99.6333
    },
    {
      "elevation": 503,
      "mindate": "1910-10-01",
      "maxdate": "1921-10-31",
      "latitude": 49.2333,
      "name": "NINGA, CA",
      "datacoverage": 0.9848,
      "id": "GHCND:CA005022041",
      "elevationUnit": "METERS",
      "longitude": -99.85
    },
    {
      "elevation": 237,
      "mindate": "1961-06-01",
      "maxdate": "1992-01-31",
      "latitude": 49.6,
      "name": "NIVERVILLE, CA",
      "datacoverage": 0.9918,
      "id": "GHCND:CA005022043",
      "elevationUnit": "METERS",
      "longitude": -97.05
    },
    {
      "elevation": 246,
      "mindate": "1885-04-01",
      "maxdate": "2022-09-14",
      "latitude": 49.9333,
      "name": "OAKBANK, CA",
      "datacoverage": 0.5589,
      "id": "GHCND:CA005022051",
      "elevationUnit": "METERS",
      "longitude": -96.85
    },
    {
      "elevation": 250,
      "mindate": "1993-12-01",
      "maxdate": "1995-10-31",
      "latitude": 49.9,
      "name": "OAKVILLE, CA",
      "datacoverage": 0.6971,
      "id": "GHCND:CA005022055",
      "elevationUnit": "METERS",
      "longitude": -98.0333
    },
    {
      "elevation": 238,
      "mindate": "1961-07-01",
      "maxdate": "1969-07-31",
      "latitude": 49.5,
      "name": "OTTERBURNE, CA",
      "datacoverage": 0.8967,
      "id": "GHCND:CA005022056",
      "elevationUnit": "METERS",
      "longitude": -97.05
    },
    {
      "elevation": 693,
      "mindate": "1961-09-01",
      "maxdate": "2000-11-30",
      "latitude": 49,
      "name": "PEACE GARDENS, CA",
      "datacoverage": 0.8875,
      "id": "GHCND:CA005022065",
      "elevationUnit": "METERS",
      "longitude": -100.05
    },
    {
      "elevation": 472,
      "mindate": "1884-07-01",
      "maxdate": "1903-02-28",
      "latitude": 49.3,
      "name": "PEMBINA CROSSING, CA",
      "datacoverage": 0.4868,
      "id": "GHCND:CA005022068",
      "elevationUnit": "METERS",
      "longitude": -98.4167
    },
    {
      "elevation": 223,
      "mindate": "1960-08-01",
      "maxdate": "1977-05-31",
      "latitude": 50.3167,
      "name": "PETERSFIELD, CA",
      "datacoverage": 0.906,
      "id": "GHCND:CA005022070",
      "elevationUnit": "METERS",
      "longitude": -96.9833
    },
    {
      "elevation": 419,
      "mindate": "1976-11-01",
      "maxdate": "1996-05-31",
      "latitude": 49.4167,
      "name": "NINETTE 1 NW, CA",
      "datacoverage": 1,
      "id": "GHCND:CA0050220M0",
      "elevationUnit": "METERS",
      "longitude": -99.65
    },
    {
      "elevation": 238,
      "mindate": "1988-05-01",
      "maxdate": "1998-12-31",
      "latitude": 49.95,
      "name": "PIGEON LAKE, CA",
      "datacoverage": 0.9997,
      "id": "GHCND:CA005022100",
      "elevationUnit": "METERS",
      "longitude": -97.6
    },
    {
      "elevation": 472,
      "mindate": "1885-04-01",
      "maxdate": "1899-02-28",
      "latitude": 49.1167,
      "name": "PILOT MOUND, CA",
      "datacoverage": 0.7966,
      "id": "GHCND:CA005022119",
      "elevationUnit": "METERS",
      "longitude": -98.8
    },
    {
      "elevation": 475,
      "mindate": "1883-05-01",
      "maxdate": "1957-05-31",
      "latitude": 49.2,
      "name": "PILOT MOUND, CA",
      "datacoverage": 0.4997,
      "id": "GHCND:CA005022120",
      "elevationUnit": "METERS",
      "longitude": -98.8833
    },
    {
      "elevation": 470,
      "mindate": "1957-12-01",
      "maxdate": "2024-04-28",
      "latitude": 49.1833,
      "name": "PILOT MOUND AUT, CA",
      "datacoverage": 0.8814,
      "id": "GHCND:CA005022125",
      "elevationUnit": "METERS",
      "longitude": -98.9
    },
    {
      "elevation": 472,
      "mindate": "1987-04-01",
      "maxdate": "2005-03-31",
      "latitude": 49.2,
      "name": "PILOT MOUND 2, CA",
      "datacoverage": 0.9953,
      "id": "GHCND:CA005022129",
      "elevationUnit": "METERS",
      "longitude": -98.9
    },
    {
      "elevation": 331,
      "mindate": "1959-08-01",
      "maxdate": "1964-08-31",
      "latitude": 49.0833,
      "name": "PINEY, CA",
      "datacoverage": 0.557,
      "id": "GHCND:CA005022170",
      "elevationUnit": "METERS",
      "longitude": -95.9833
    },
    {
      "elevation": 326,
      "mindate": "1980-09-01",
      "maxdate": "2012-06-18",
      "latitude": 49.0333,
      "name": "PINEY, CA",
      "datacoverage": 0.9949,
      "id": "GHCND:CA005022171",
      "elevationUnit": "METERS",
      "longitude": -96
    },
    {
      "elevation": 265,
      "mindate": "1961-06-01",
      "maxdate": "2003-08-31",
      "latitude": 49.05,
      "name": "PLUM COULEE, CA",
      "datacoverage": 1,
      "id": "GHCND:CA005022245",
      "elevationUnit": "METERS",
      "longitude": -97.8
    },
    {
      "elevation": 324,
      "mindate": "1967-05-01",
      "maxdate": "2001-02-28",
      "latitude": 49.6833,
      "name": "RATHWELL, CA",
      "datacoverage": 0.9975,
      "id": "GHCND:CA005022335",
      "elevationUnit": "METERS",
      "longitude": -98.55
    },
    {
      "elevation": 291,
      "mindate": "1979-05-01",
      "maxdate": "1998-04-30",
      "latitude": 49.65,
      "name": "RICHER, CA",
      "datacoverage": 0.4079,
      "id": "GHCND:CA005022420",
      "elevationUnit": "METERS",
      "longitude": -96.45
    },
    {
      "elevation": 267,
      "mindate": "1951-09-01",
      "maxdate": "1980-09-30",
      "latitude": 49.4167,
      "name": "ROLAND, CA",
      "datacoverage": 0.9427,
      "id": "GHCND:CA005022480",
      "elevationUnit": "METERS",
      "longitude": -98
    },
    {
      "elevation": 282,
      "mindate": "1979-08-01",
      "maxdate": "1980-08-31",
      "latitude": 49.2167,
      "name": "ROSEAU RIVER, CA",
      "datacoverage": 1,
      "id": "GHCND:CA005022488",
      "elevationUnit": "METERS",
      "longitude": -96.8333
    },
    {
      "elevation": 427,
      "mindate": "1892-04-01",
      "maxdate": "1915-07-31",
      "latitude": 49.3667,
      "name": "ROSEBANK, CA",
      "datacoverage": 0.3001,
      "id": "GHCND:CA005022490",
      "elevationUnit": "METERS",
      "longitude": -98.1
    },
    {
      "elevation": 309,
      "mindate": "2001-12-01",
      "maxdate": "2005-08-31",
      "latitude": 49.55,
      "name": "ROSEISLE, CA",
      "datacoverage": 0.9986,
      "id": "GHCND:CA005022491",
      "elevationUnit": "METERS",
      "longitude": -98.35
    },
    {
      "elevation": 309,
      "mindate": "1993-12-01",
      "maxdate": "2002-05-31",
      "latitude": 49.55,
      "name": "ROSE ISLE, CA",
      "datacoverage": 1,
      "id": "GHCND:CA005022492",
      "elevationUnit": "METERS",
      "longitude": -98.35
    },
    {
      "elevation": 236,
      "mindate": "1964-11-01",
      "maxdate": "1969-09-30",
      "latitude": 49.9833,
      "name": "ROSSER, CA",
      "datacoverage": 1,
      "id": "GHCND:CA005022504",
      "elevationUnit": "METERS",
      "longitude": -97.25
    },
    {
      "elevation": 230,
      "mindate": "1874-01-01",
      "maxdate": "1992-07-31",
      "latitude": 50.0833,
      "name": "ST ANDREWS, CA",
      "datacoverage": 0.8328,
      "id": "GHCND:CA005022547",
      "elevationUnit": "METERS",
      "longitude": -96.9833
    },
    {
      "elevation": 231,
      "mindate": "1970-11-01",
      "maxdate": "1980-09-30",
      "latitude": 49.8667,
      "name": "ST BONIFACE BENTWOOD, CA",
      "datacoverage": 1,
      "id": "GHCND:CA005022549",
      "elevationUnit": "METERS",
      "longitude": -97.0833
    },
    {
      "elevation": 252,
      "mindate": "1979-05-01",
      "maxdate": "2000-05-31",
      "latitude": 49.6667,
      "name": "STE ANNE, CA",
      "datacoverage": 0.9524,
      "id": "GHCND:CA00502254Q",
      "elevationUnit": "METERS",
      "longitude": -96.6333
    },
    {
      "elevation": 311,
      "mindate": "1964-05-01",
      "maxdate": "2018-04-05",
      "latitude": 49.65,
      "name": "ST CLAUDE, CA",
      "datacoverage": 0.9294,
      "id": "GHCND:CA005022550",
      "elevationUnit": "METERS",
      "longitude": -98.3667
    },
    {
      "elevation": 239,
      "mindate": "1973-04-01",
      "maxdate": "1989-11-30",
      "latitude": 49.3167,
      "name": "STE ELIZABETH, CA",
      "datacoverage": 0.8749,
      "id": "GHCND:CA005022553",
      "elevationUnit": "METERS",
      "longitude": -97.1667
    },
    {
      "elevation": 243,
      "mindate": "1989-09-01",
      "maxdate": "1991-05-31",
      "latitude": 49.9667,
      "name": "ST EUSTACHE, CA",
      "datacoverage": 1,
      "id": "GHCND:CA005022554",
      "elevationUnit": "METERS",
      "longitude": -97.7833
    },
    {
      "elevation": 238,
      "mindate": "1993-12-01",
      "maxdate": "1997-12-31",
      "latitude": 49.2667,
      "name": "ST JEAN BAPTISTE, CA",
      "datacoverage": 0.4102,
      "id": "GHCND:CA005022567",
      "elevationUnit": "METERS",
      "longitude": -97.4
    },
    {
      "elevation": 352,
      "mindate": "1981-09-01",
      "maxdate": "2024-04-28",
      "latitude": 49.35,
      "name": "ST LABRE, CA",
      "datacoverage": 0.9337,
      "id": "GHCND:CA005022575",
      "elevationUnit": "METERS",
      "longitude": -96.0333
    },
    {
      "elevation": 231,
      "mindate": "1976-03-01",
      "maxdate": "1985-08-31",
      "latitude": 50.05,
      "name": "ST ANDREWS A, CA",
      "datacoverage": 0.9646,
      "id": "GHCND:CA0050225DP",
      "elevationUnit": "METERS",
      "longitude": -97.0333
    },
    {
      "elevation": 263,
      "mindate": "1980-05-01",
      "maxdate": "2008-05-05",
      "latitude": 49.3167,
      "name": "ST MALO, CA",
      "datacoverage": 0.916,
      "id": "GHCND:CA005022601",
      "elevationUnit": "METERS",
      "longitude": -96.95
    },
    {
      "elevation": 232,
      "mindate": "1970-08-01",
      "maxdate": "1976-06-30",
      "latitude": 49.7667,
      "name": "ST NORBERT, CA",
      "datacoverage": 1,
      "id": "GHCND:CA005022603",
      "elevationUnit": "METERS",
      "longitude": -97.15
    },
    {
      "elevation": 281,
      "mindate": "1993-12-01",
      "maxdate": "2005-05-31",
      "latitude": 49.4667,
      "name": "ST PIERRE JOLYS, CA",
      "datacoverage": 0.9856,
      "id": "GHCND:CA005022606",
      "elevationUnit": "METERS",
      "longitude": -97.0167
    },
    {
      "elevation": 277,
      "mindate": "1991-03-01",
      "maxdate": "2024-04-28",
      "latitude": 49.1333,
      "name": "SCHANZENFELD, CA",
      "datacoverage": 0.9965,
      "id": "GHCND:CA005022623",
      "elevationUnit": "METERS",
      "longitude": -97.95
    },
    {
      "elevation": 226,
      "mindate": "1963-11-01",
      "maxdate": "2008-03-18",
      "latitude": 50.1667,
      "name": "SELKIRK, CA",
      "datacoverage": 0.9606,
      "id": "GHCND:CA005022630",
      "elevationUnit": "METERS",
      "longitude": -96.8667
    },
    {
      "elevation": 474,
      "mindate": "1987-09-01",
      "maxdate": "2011-05-30",
      "latitude": 49.0667,
      "name": "SNOWFLAKE, CA",
      "datacoverage": 0.9966,
      "id": "GHCND:CA005022703",
      "elevationUnit": "METERS",
      "longitude": -98.65
    },
    {
      "elevation": 243,
      "mindate": "1969-05-01",
      "maxdate": "2003-10-31",
      "latitude": 49.5,
      "name": "SPERLING, CA",
      "datacoverage": 0.9927,
      "id": "GHCND:CA005022740",
      "elevationUnit": "METERS",
      "longitude": -97.7
    },
    {
      "elevation": 329,
      "mindate": "1992-12-01",
      "maxdate": "2024-04-28",
      "latitude": 49.0167,
      "name": "SPRAGUE, CA",
      "datacoverage": 0.9965,
      "id": "GHCND:CA005022759",
      "elevationUnit": "METERS",
      "longitude": -95.6
    },
    {
      "elevation": 329,
      "mindate": "1915-09-01",
      "maxdate": "1998-03-31",
      "latitude": 49.0167,
      "name": "SPRAGUE, CA",
      "datacoverage": 0.993,
      "id": "GHCND:CA005022760",
      "elevationUnit": "METERS",
      "longitude": -95.6
    },
    {
      "elevation": 238,
      "mindate": "1962-05-01",
      "maxdate": "2004-04-30",
      "latitude": 49.7333,
      "name": "STARBUCK, CA",
      "datacoverage": 0.9881,
      "id": "GHCND:CA005022770",
      "elevationUnit": "METERS",
      "longitude": -97.6167
    },
    {
      "elevation": 254,
      "mindate": "1956-01-01",
      "maxdate": "2005-03-31",
      "latitude": 49.5333,
      "name": "STEINBACH, CA",
      "datacoverage": 0.9713,
      "id": "GHCND:CA005022780",
      "elevationUnit": "METERS",
      "longitude": -96.7667
    },
    {
      "elevation": 252,
      "mindate": "1959-12-01",
      "maxdate": "1991-09-30",
      "latitude": 50.1167,
      "name": "STONEWALL, CA",
      "datacoverage": 0.9895,
      "id": "GHCND:CA005022788",
      "elevationUnit": "METERS",
      "longitude": -97.3333
    },
    {
      "elevation": 245,
      "mindate": "1878-01-01",
      "maxdate": "1919-12-31",
      "latitude": 50.0667,
      "name": "STONY MOUNTAIN, CA",
      "datacoverage": 0.9187,
      "id": "GHCND:CA005022790",
      "elevationUnit": "METERS",
      "longitude": -97.2333
    },
    {
      "elevation": 236,
      "mindate": "1972-01-01",
      "maxdate": "2024-04-28",
      "latitude": 50.1167,
      "name": "STONY MOUNTAIN, CA",
      "datacoverage": 0.9793,
      "id": "GHCND:CA005022791",
      "elevationUnit": "METERS",
      "longitude": -97.1667
    },
    {
      "elevation": 290,
      "mindate": "1993-06-01",
      "maxdate": "2003-10-31",
      "latitude": 49.1333,
      "name": "STUARTBURN, CA",
      "datacoverage": 0.9679,
      "id": "GHCND:CA005022797",
      "elevationUnit": "METERS",
      "longitude": -96.7833
    },
    {
      "elevation": 320,
      "mindate": "1980-12-01",
      "maxdate": "2000-06-30",
      "latitude": 49.0167,
      "name": "SUNDOWN, CA",
      "datacoverage": 0.9193,
      "id": "GHCND:CA005022798",
      "elevationUnit": "METERS",
      "longitude": -96.2333
    },
    {
      "elevation": 267,
      "mindate": "1970-06-01",
      "maxdate": "1974-11-30",
      "latitude": 50.4167,
      "name": "TEULON, CA",
      "datacoverage": 0.9998,
      "id": "GHCND:CA005022855",
      "elevationUnit": "METERS",
      "longitude": -97.25
    },
    {
      "elevation": 291,
      "mindate": "1993-06-01",
      "maxdate": "1994-09-30",
      "latitude": 49.0667,
      "name": "TOLSTOI, CA",
      "datacoverage": 0.6875,
      "id": "GHCND:CA005022928",
      "elevationUnit": "METERS",
      "longitude": -96.8
    },
    {
      "elevation": 579,
      "mindate": "1978-11-01",
      "maxdate": "1986-02-28",
      "latitude": 49.0833,
      "name": "TURTLE MOUNTAIN 10, CA",
      "datacoverage": 0.8186,
      "id": "GHCND:CA005022945",
      "elevationUnit": "METERS",
      "longitude": -99.9333
    },
    {
      "elevation": 579,
      "mindate": "1978-11-01",
      "maxdate": "2005-03-31",
      "latitude": 49.1333,
      "name": "TURTLE MOUNTAIN 11, CA",
      "datacoverage": 1,
      "id": "GHCND:CA005022946",
      "elevationUnit": "METERS",
      "longitude": -100.1167
    },
    {
      "elevation": 669,
      "mindate": "1979-01-01",
      "maxdate": "1985-05-31",
      "latitude": 49.1,
      "name": "TURTLE MOUNTAIN 12, CA",
      "datacoverage": 0.3378,
      "id": "GHCND:CA005022947",
      "elevationUnit": "METERS",
      "longitude": -100.2333
    },
    {
      "elevation": 258,
      "mindate": "1979-05-01",
      "maxdate": "1982-06-30",
      "latitude": 49.6333,
      "name": "STE ANNE SE5, CA",
      "datacoverage": 0.4494,
      "id": "GHCND:CA005022EDQ",
      "elevationUnit": "METERS",
      "longitude": -96.6
    },
    {
      "elevation": 475,
      "mindate": "1987-09-01",
      "maxdate": "1995-10-31",
      "latitude": 49.0833,
      "name": "SNOWFLAKE 4 NE, CA",
      "datacoverage": 1,
      "id": "GHCND:CA005022G04",
      "elevationUnit": "METERS",
      "longitude": -98.65
    },
    {
      "elevation": 302,
      "mindate": "1953-07-01",
      "maxdate": "1995-12-31",
      "latitude": 49.1333,
      "name": "VITA, CA",
      "datacoverage": 0.2667,
      "id": "GHCND:CA005023000",
      "elevationUnit": "METERS",
      "longitude": -96.5667
    },
    {
      "elevation": 305,
      "mindate": "1979-10-01",
      "maxdate": "1983-12-31",
      "latitude": 49.0833,
      "name": "VITA, CA",
      "datacoverage": 0.9996,
      "id": "GHCND:CA005023001",
      "elevationUnit": "METERS",
      "longitude": -96.55
    },
    {
      "elevation": 248,
      "mindate": "1924-05-01",
      "maxdate": "1991-10-31",
      "latitude": 50.1333,
      "name": "WARREN, CA",
      "datacoverage": 0.3296,
      "id": "GHCND:CA005023110",
      "elevationUnit": "METERS",
      "longitude": -97.6333
    },
    {
      "elevation": 351,
      "mindate": "1972-09-01",
      "maxdate": "1981-10-31",
      "latitude": 49.2833,
      "name": "WHITEMOUTH LAKE, CA",
      "datacoverage": 0.9996,
      "id": "GHCND:CA005023149",
      "elevationUnit": "METERS",
      "longitude": -95.75
    },
    {
      "elevation": 240,
      "mindate": "1955-04-01",
      "maxdate": "1956-06-26",
      "latitude": 49.9167,
      "name": "WINNIPEG ANDERSON AVE, CA",
      "datacoverage": 0.333,
      "id": "GHCND:CA005023170",
      "elevationUnit": "METERS",
      "longitude": -97.15
    },
    {
      "elevation": 229,
      "mindate": "1989-05-01",
      "maxdate": "1992-08-31",
      "latitude": 49.8833,
      "name": "WINNIPEG ASSINIBOINE PARK, CA",
      "datacoverage": 0.4036,
      "id": "GHCND:CA005023174",
      "elevationUnit": "METERS",
      "longitude": -97.2333
    },
    {
      "elevation": 236,
      "mindate": "1989-05-01",
      "maxdate": "1992-08-31",
      "latitude": 49.8667,
      "name": "WINNIPEG BLUMBERG GOLF COURSE, CA",
      "datacoverage": 0.4036,
      "id": "GHCND:CA005023178",
      "elevationUnit": "METERS",
      "longitude": -97.35
    },
    {
      "elevation": 234,
      "mindate": "1955-04-01",
      "maxdate": "1955-08-31",
      "latitude": 49.8333,
      "name": "WINNIPEG BROOKLANDS, CA",
      "datacoverage": 1,
      "id": "GHCND:CA005023180",
      "elevationUnit": "METERS",
      "longitude": -97.1833
    },
    {
      "elevation": 235,
      "mindate": "1955-04-01",
      "maxdate": "1966-11-30",
      "latitude": 49.85,
      "name": "WINNIPEG CHARLESWOOD, CA",
      "datacoverage": 0.9993,
      "id": "GHCND:CA005023190",
      "elevationUnit": "METERS",
      "longitude": -97.2833
    },
    {
      "elevation": 237,
      "mindate": "1964-10-01",
      "maxdate": "1992-08-31",
      "latitude": 49.8333,
      "name": "WINNIPEG CHARLESWOOD LAGOON, CA",
      "datacoverage": 0.0483,
      "id": "GHCND:CA0050231R0",
      "elevationUnit": "METERS",
      "longitude": -97.3333
    },
    {
      "elevation": 233,
      "mindate": "1955-05-01",
      "maxdate": "1958-11-06",
      "latitude": 49.8667,
      "name": "WINNIPEG CLARE AVE, CA",
      "datacoverage": 0.6273,
      "id": "GHCND:CA005023200",
      "elevationUnit": "METERS",
      "longitude": -97.1333
    },
    {
      "elevation": 232,
      "mindate": "1955-04-01",
      "maxdate": "1959-06-30",
      "latitude": 49.9333,
      "name": "WINNIPEG E KILDONAN, CA",
      "datacoverage": 0.9986,
      "id": "GHCND:CA005023210",
      "elevationUnit": "METERS",
      "longitude": -97.1
    },
    {
      "elevation": 233,
      "mindate": "1955-04-01",
      "maxdate": "1957-08-31",
      "latitude": 49.9167,
      "name": "WINNIPEG FLORA AVE, CA",
      "datacoverage": 0.5165,
      "id": "GHCND:CA005023220",
      "elevationUnit": "METERS",
      "longitude": -97.15
    },
    {
      "elevation": 239,
      "mindate": "1938-01-01",
      "maxdate": "2008-07-24",
      "latitude": 49.9167,
      "name": "WINNIPEG RICHARDSON INTERNATIONAL A, CA",
      "datacoverage": 0.9988,
      "id": "GHCND:CA005023222",
      "elevationUnit": "METERS",
      "longitude": -97.2333
    },
    {
      "elevation": 239,
      "mindate": "1997-11-01",
      "maxdate": "2002-04-30",
      "latitude": 49.9,
      "name": "WINNIPEG A FIRE HALL, CA",
      "datacoverage": 0.2966,
      "id": "GHCND:CA005023223",
      "elevationUnit": "METERS",
      "longitude": -97.25
    },
    {
      "elevation": 239,
      "mindate": "1994-07-01",
      "maxdate": "1997-05-31",
      "latitude": 49.9167,
      "name": "WINNIPEG HANGARLINE ROAD, CA",
      "datacoverage": 0.9994,
      "id": "GHCND:CA005023224",
      "elevationUnit": "METERS",
      "longitude": -97.2333
    },
    {
      "elevation": 238,
      "mindate": "2004-10-01",
      "maxdate": "2022-06-01",
      "latitude": 49.85,
      "name": "WINNIPEG CHARLESWOOD 2, CA",
      "datacoverage": 0.6885,
      "id": "GHCND:CA005023225",
      "elevationUnit": "METERS",
      "longitude": -97.2667
    },
    {
      "elevation": 239,
      "mindate": "2008-07-01",
      "maxdate": "2013-10-02",
      "latitude": 49.9167,
      "name": "WINNIPEG RICHARDSON AWOS, CA",
      "datacoverage": 0.9995,
      "id": "GHCND:CA005023226",
      "elevationUnit": "METERS",
      "longitude": -97.2333
    },
    {
      "elevation": 232,
      "mindate": "1955-05-01",
      "maxdate": "1959-11-30",
      "latitude": 49.8833,
      "name": "WINNIPEG ST BONIFACE, CA",
      "datacoverage": 0.5997,
      "id": "GHCND:CA005023230",
      "elevationUnit": "METERS",
      "longitude": -97.1
    }
  ]
}
