{
  "metadata": {
    "resultset": {
      "offset": 27300,
      "count": 154115,
      "limit": 100
    }
  },
  "results": [
    {
      "elevation": 115,
      "mindate": "2003-10-01",
      "maxdate": "2025-02-27",
      "latitude": -18.9703,
      "name": "RIVERSLEIGH TM, AS",
      "datacoverage": 0.916,
      "id": "GHCND:ASN00029166",
      "elevationUnit": "METERS",
      "longitude": 138.8033
    },
    {
      "elevation": 126.8,
      "mindate": "2003-04-01",
      "maxdate": "2025-02-27",
      "latitude": -18.7569,
      "name": "CENTURY MINE, AS",
      "datacoverage": 1,
      "id": "GHCND:ASN00029167",
      "elevationUnit": "METERS",
      "longitude": 138.7056
    },
    {
      "elevation": 20,
      "mindate": "2003-03-01",
      "maxdate": "2023-08-31",
      "latitude": -16.5556,
      "name": "DORUNDA STATION, AS",
      "datacoverage": 0.5698,
      "id": "GHCND:ASN00029168",
      "elevationUnit": "METERS",
      "longitude": 141.8286
    },
    {
      "elevation": 60,
      "mindate": "2004-02-01",
      "maxdate": "2024-12-31",
      "latitude": -17.0458,
      "name": "LOTUS VALE, AS",
      "datacoverage": 0.9158,
      "id": "GHCND:ASN00029169",
      "elevationUnit": "METERS",
      "longitude": 141.3783
    },
    {
      "elevation": 50,
      "mindate": "2004-02-01",
      "maxdate": "2019-03-27",
      "latitude": -17.8333,
      "name": "BEAMESBROOK, AS",
      "datacoverage": 0.6202,
      "id": "GHCND:ASN00029170",
      "elevationUnit": "METERS",
      "longitude": 139.2833
    },
    {
      "elevation": 299,
      "mindate": "2006-11-01",
      "maxdate": "2015-08-31",
      "latitude": -20.1306,
      "name": "LAKE JULIUS, AS",
      "datacoverage": 1,
      "id": "GHCND:ASN00029171",
      "elevationUnit": "METERS",
      "longitude": 139.7187
    },
    {
      "elevation": 351.7,
      "mindate": "2007-01-01",
      "maxdate": "2018-04-08",
      "latitude": -19.9064,
      "name": "LADY ANNIE COPPER MINE, AS",
      "datacoverage": 0.9993,
      "id": "GHCND:ASN00029172",
      "elevationUnit": "METERS",
      "longitude": 139.107
    },
    {
      "elevation": 61,
      "mindate": "1945-04-01",
      "maxdate": "2022-11-10",
      "latitude": -17.6036,
      "name": "ABINGDON DOWNS STATION, AS",
      "datacoverage": 0.8904,
      "id": "GHCND:ASN00030000",
      "elevationUnit": "METERS",
      "longitude": 143.1811
    },
    {
      "elevation": 296,
      "mindate": "1890-07-01",
      "maxdate": "1982-08-31",
      "latitude": -21,
      "name": "AFTON DOWNS STATION, AS",
      "datacoverage": 0.8979,
      "id": "GHCND:ASN00030001",
      "elevationUnit": "METERS",
      "longitude": 144
    },
    {
      "elevation": 400,
      "mindate": "1998-10-01",
      "maxdate": "2004-05-31",
      "latitude": -17.8131,
      "name": "BURLINGTON, AS",
      "datacoverage": 0.9999,
      "id": "GHCND:ASN00030002",
      "elevationUnit": "METERS",
      "longitude": 144.3989
    },
    {
      "elevation": 271.3,
      "mindate": "1910-04-01",
      "maxdate": "1945-12-31",
      "latitude": -20.6,
      "name": "ALDERLEY STATION, AS",
      "datacoverage": 0.9993,
      "id": "GHCND:ASN00030003",
      "elevationUnit": "METERS",
      "longitude": 144
    },
    {
      "mindate": "1914-09-01",
      "maxdate": "1956-01-31",
      "latitude": -21.0167,
      "name": "ARJUNA STATION, AS",
      "datacoverage": 0.9939,
      "id": "GHCND:ASN00030004",
      "longitude": 143.4
    },
    {
      "elevation": 457,
      "mindate": "1904-04-01",
      "maxdate": "1974-12-31",
      "latitude": -19.6833,
      "name": "BLUFF DOWNS STATION, AS",
      "datacoverage": 0.7423,
      "id": "GHCND:ASN00030005",
      "elevationUnit": "METERS",
      "longitude": 145.5333
    },
    {
      "elevation": 290,
      "mindate": "1941-01-01",
      "maxdate": "2001-05-31",
      "latitude": -20.6694,
      "name": "BOREMBA STATION, AS",
      "datacoverage": 0.8925,
      "id": "GHCND:ASN00030006",
      "elevationUnit": "METERS",
      "longitude": 143.7375
    },
    {
      "elevation": 228,
      "mindate": "1887-01-01",
      "maxdate": "1967-10-31",
      "latitude": -20.4333,
      "name": "CAMBRIDGE DOWNS STATION, AS",
      "datacoverage": 0.8609,
      "id": "GHCND:ASN00030007",
      "elevationUnit": "METERS",
      "longitude": 142.9667
    },
    {
      "elevation": 480,
      "mindate": "1902-04-01",
      "maxdate": "2023-01-31",
      "latitude": -18.7194,
      "name": "CARPENTARIA DOWNS STATION, AS",
      "datacoverage": 0.8234,
      "id": "GHCND:ASN00030008",
      "elevationUnit": "METERS",
      "longitude": 144.3181
    },
    {
      "elevation": 722.4,
      "mindate": "1934-09-01",
      "maxdate": "2014-12-30",
      "latitude": -20.0078,
      "name": "CARGOON STATION, AS",
      "datacoverage": 0.7915,
      "id": "GHCND:ASN00030009",
      "elevationUnit": "METERS",
      "longitude": 144.8992
    },
    {
      "elevation": 380,
      "mindate": "1922-01-01",
      "maxdate": "2003-02-28",
      "latitude": -20.4319,
      "name": "DUTTON RIVER STATION, AS",
      "datacoverage": 0.9528,
      "id": "GHCND:ASN00030010",
      "elevationUnit": "METERS",
      "longitude": 143.8628
    },
    {
      "elevation": 914,
      "mindate": "1884-04-01",
      "maxdate": "1976-02-29",
      "latitude": -19.7,
      "name": "CHUDLEIGH PARK STATION, AS",
      "datacoverage": 0.8883,
      "id": "GHCND:ASN00030011",
      "elevationUnit": "METERS",
      "longitude": 144.1167
    },
    {
      "mindate": "1914-07-01",
      "maxdate": "1987-08-31",
      "latitude": -20.3667,
      "name": "CLUTHA STATION, AS",
      "datacoverage": 0.9993,
      "id": "GHCND:ASN00030012",
      "longitude": 142.5167
    },
    {
      "mindate": "1886-04-01",
      "maxdate": "1993-02-28",
      "latitude": -18.3,
      "name": "CUMBERLAND STATION, AS",
      "datacoverage": 0.9239,
      "id": "GHCND:ASN00030013",
      "longitude": 143.4
    },
    {
      "elevation": 458,
      "mindate": "1908-11-01",
      "maxdate": "2008-07-24",
      "latitude": -18.5189,
      "name": "EINASLEIGH TOWNSHIP, AS",
      "datacoverage": 0.7937,
      "id": "GHCND:ASN00030014",
      "elevationUnit": "METERS",
      "longitude": 144.0914
    },
    {
      "elevation": 220,
      "mindate": "1920-08-01",
      "maxdate": "1999-11-30",
      "latitude": -21.1231,
      "name": "ESSEX DOWNS STATION, AS",
      "datacoverage": 0.9585,
      "id": "GHCND:ASN00030015",
      "elevationUnit": "METERS",
      "longitude": 143.0389
    },
    {
      "elevation": 344,
      "mindate": "1924-05-01",
      "maxdate": "1978-06-30",
      "latitude": -21.2667,
      "name": "EWAN PLAINS STATION, AS",
      "datacoverage": 0.9677,
      "id": "GHCND:ASN00030016",
      "elevationUnit": "METERS",
      "longitude": 144.8333
    },
    {
      "mindate": "1943-01-01",
      "maxdate": "1949-12-31",
      "latitude": -19.8167,
      "name": "FIGTREE STATION, AS",
      "datacoverage": 0.988,
      "id": "GHCND:ASN00030017",
      "longitude": 144.4833
    },
    {
      "elevation": 291.7,
      "mindate": "1872-09-01",
      "maxdate": "2009-05-31",
      "latitude": -18.2922,
      "name": "GEORGETOWN POST OFFICE, AS",
      "datacoverage": 0.966,
      "id": "GHCND:ASN00030018",
      "elevationUnit": "METERS",
      "longitude": 143.5483
    },
    {
      "elevation": 536,
      "mindate": "1750-03-14",
      "maxdate": "2025-02-10",
      "latitude": -19.2647,
      "name": "GILBERTON, AS",
      "datacoverage": 0.965,
      "id": "GHCND:ASN00030019",
      "elevationUnit": "METERS",
      "longitude": 143.6741
    },
    {
      "elevation": 171,
      "mindate": "1900-04-01",
      "maxdate": "2005-03-31",
      "latitude": -21.2333,
      "name": "GLENBERVIE STATION, AS",
      "datacoverage": 0.9024,
      "id": "GHCND:ASN00030020",
      "elevationUnit": "METERS",
      "longitude": 141.8942
    },
    {
      "elevation": 430,
      "mindate": "1750-03-21",
      "maxdate": "2024-12-31",
      "latitude": -20.7389,
      "name": "GLENDOWER STATION, AS",
      "datacoverage": 0.7729,
      "id": "GHCND:ASN00030021",
      "elevationUnit": "METERS",
      "longitude": 144.4853
    },
    {
      "elevation": 316.4,
      "mindate": "2001-02-01",
      "maxdate": "2025-02-27",
      "latitude": -20.8192,
      "name": "HUGHENDEN AIRPORT, AS",
      "datacoverage": 1,
      "id": "GHCND:ASN00030022",
      "elevationUnit": "METERS",
      "longitude": 144.2333
    },
    {
      "elevation": 345,
      "mindate": "1893-11-01",
      "maxdate": "2013-04-11",
      "latitude": -20.3617,
      "name": "HOMESTEAD POST OFFICE, AS",
      "datacoverage": 0.8578,
      "id": "GHCND:ASN00030023",
      "elevationUnit": "METERS",
      "longitude": 145.6553
    },
    {
      "elevation": 324,
      "mindate": "1884-04-01",
      "maxdate": "2001-03-20",
      "latitude": -20.8447,
      "name": "HUGHENDEN POST OFFICE, AS",
      "datacoverage": 0.9993,
      "id": "GHCND:ASN00030024",
      "elevationUnit": "METERS",
      "longitude": 144.1986
    },
    {
      "elevation": 320,
      "mindate": "1892-04-01",
      "maxdate": "2025-01-31",
      "latitude": -20.8528,
      "name": "HUGHENDEN STATION, AS",
      "datacoverage": 0.7991,
      "id": "GHCND:ASN00030025",
      "elevationUnit": "METERS",
      "longitude": 144.2258
    },
    {
      "elevation": 233,
      "mindate": "1924-01-01",
      "maxdate": "2006-12-31",
      "latitude": -20.4514,
      "name": "KENMAC STATION, AS",
      "datacoverage": 0.754,
      "id": "GHCND:ASN00030026",
      "elevationUnit": "METERS",
      "longitude": 143.2292
    },
    {
      "elevation": 520,
      "mindate": "1915-07-01",
      "maxdate": "2002-01-31",
      "latitude": -18.8756,
      "name": "KIDSTON GOLD MINE, AS",
      "datacoverage": 0.9374,
      "id": "GHCND:ASN00030027",
      "elevationUnit": "METERS",
      "longitude": 144.1433
    },
    {
      "mindate": "1930-01-01",
      "maxdate": "1946-05-31",
      "latitude": -21.1833,
      "name": "KILLARNEY STATION, AS",
      "datacoverage": 0.9443,
      "id": "GHCND:ASN00030028",
      "longitude": 143.7167
    },
    {
      "mindate": "1890-07-01",
      "maxdate": "1965-10-31",
      "latitude": -21.2833,
      "name": "LAMMERMOOR STATION, AS",
      "datacoverage": 0.672,
      "id": "GHCND:ASN00030029",
      "longitude": 144.6333
    },
    {
      "elevation": 883.9,
      "mindate": "1886-04-01",
      "maxdate": "2024-12-31",
      "latitude": -19.2039,
      "name": "LYNDHURST STATION, AS",
      "datacoverage": 0.848,
      "id": "GHCND:ASN00030030",
      "elevationUnit": "METERS",
      "longitude": 144.37
    },
    {
      "elevation": 237,
      "mindate": "1888-03-01",
      "maxdate": "1975-01-31",
      "latitude": -20.8667,
      "name": "MARATHON RAILWAY STATION, AS",
      "datacoverage": 0.4103,
      "id": "GHCND:ASN00030031",
      "elevationUnit": "METERS",
      "longitude": 143.5667
    },
    {
      "elevation": 430,
      "mindate": "1890-08-01",
      "maxdate": "2016-03-17",
      "latitude": -19.5458,
      "name": "MARYVALE STATION, AS",
      "datacoverage": 0.7711,
      "id": "GHCND:ASN00030032",
      "elevationUnit": "METERS",
      "longitude": 145.2533
    },
    {
      "elevation": 210,
      "mindate": "1890-07-01",
      "maxdate": "2004-07-31",
      "latitude": -20.7192,
      "name": "MAXWELTON POST OFFICE, AS",
      "datacoverage": 0.8663,
      "id": "GHCND:ASN00030033",
      "elevationUnit": "METERS",
      "longitude": 142.6806
    },
    {
      "elevation": 380,
      "mindate": "1910-04-01",
      "maxdate": "2024-12-31",
      "latitude": -21.1167,
      "name": "MERLIN STATION, AS",
      "datacoverage": 0.7612,
      "id": "GHCND:ASN00030034",
      "elevationUnit": "METERS",
      "longitude": 144.8103
    },
    {
      "elevation": 210,
      "mindate": "1890-06-01",
      "maxdate": "1980-04-30",
      "latitude": -20.8633,
      "name": "MOSELLE DOWNS STATION, AS",
      "datacoverage": 0.9993,
      "id": "GHCND:ASN00030035",
      "elevationUnit": "METERS",
      "longitude": 143.305
    },
    {
      "elevation": 462,
      "mindate": "1873-05-01",
      "maxdate": "2025-01-31",
      "latitude": -18.1472,
      "name": "MOUNT SURPRISE TOWNSHIP, AS",
      "datacoverage": 0.8299,
      "id": "GHCND:ASN00030036",
      "elevationUnit": "METERS",
      "longitude": 144.3183
    },
    {
      "elevation": 139,
      "mindate": "1913-02-01",
      "maxdate": "2010-06-30",
      "latitude": -20.155,
      "name": "NELIA POST OFFICE, AS",
      "datacoverage": 0.9299,
      "id": "GHCND:ASN00030037",
      "elevationUnit": "METERS",
      "longitude": 142.2139
    },
    {
      "elevation": 160,
      "mindate": "1913-01-01",
      "maxdate": "2008-01-31",
      "latitude": -20.6744,
      "name": "NONDA DOWNS STATION, AS",
      "datacoverage": 0.851,
      "id": "GHCND:ASN00030038",
      "elevationUnit": "METERS",
      "longitude": 142.4931
    },
    {
      "elevation": 700,
      "mindate": "1889-05-01",
      "maxdate": "2024-12-29",
      "latitude": -19.2544,
      "name": "OAK PARK STATION, AS",
      "datacoverage": 0.8046,
      "id": "GHCND:ASN00030039",
      "elevationUnit": "METERS",
      "longitude": 144.1536
    },
    {
      "elevation": 403,
      "mindate": "1885-08-01",
      "maxdate": "2013-05-31",
      "latitude": -20.5236,
      "name": "PENTLAND POST OFFICE, AS",
      "datacoverage": 0.9498,
      "id": "GHCND:ASN00030040",
      "elevationUnit": "METERS",
      "longitude": 145.3989
    },
    {
      "elevation": 432.2,
      "mindate": "1887-07-01",
      "maxdate": "2021-01-31",
      "latitude": -20.8708,
      "name": "PRAIRIE POST OFFICE, AS",
      "datacoverage": 0.856,
      "id": "GHCND:ASN00030041",
      "elevationUnit": "METERS",
      "longitude": 144.6
    },
    {
      "elevation": 335,
      "mindate": "1912-07-01",
      "maxdate": "2013-04-26",
      "latitude": -18.2786,
      "name": "PRESTWOOD STATION, AS",
      "datacoverage": 0.8843,
      "id": "GHCND:ASN00030042",
      "elevationUnit": "METERS",
      "longitude": 143.2242
    },
    {
      "elevation": 170,
      "mindate": "1922-08-01",
      "maxdate": "2016-05-05",
      "latitude": -20.8944,
      "name": "PROA STATION, AS",
      "datacoverage": 0.9849,
      "id": "GHCND:ASN00030043",
      "elevationUnit": "METERS",
      "longitude": 142.1436
    },
    {
      "elevation": 216.4,
      "mindate": "1943-01-01",
      "maxdate": "1949-12-31",
      "latitude": -20.5667,
      "name": "REDAN STATION, AS",
      "datacoverage": 0.988,
      "id": "GHCND:ASN00030044",
      "elevationUnit": "METERS",
      "longitude": 143.1167
    },
    {
      "elevation": 211.1,
      "mindate": "1890-03-01",
      "maxdate": "2024-04-30",
      "latitude": -20.7289,
      "name": "RICHMOND POST OFFICE, AS",
      "datacoverage": 0.9683,
      "id": "GHCND:ASN00030045",
      "elevationUnit": "METERS",
      "longitude": 143.1425
    },
    {
      "elevation": 560,
      "mindate": "1931-01-01",
      "maxdate": "2014-02-28",
      "latitude": -18.4222,
      "name": "ROSELLA PLAINS STATION, AS",
      "datacoverage": 0.96,
      "id": "GHCND:ASN00030046",
      "elevationUnit": "METERS",
      "longitude": 144.4625
    },
    {
      "elevation": 200,
      "mindate": "1912-04-01",
      "maxdate": "2004-12-31",
      "latitude": -20.0356,
      "name": "SAXBY DOWNS STATION, AS",
      "datacoverage": 0.8158,
      "id": "GHCND:ASN00030047",
      "elevationUnit": "METERS",
      "longitude": 142.4914
    },
    {
      "elevation": 540,
      "mindate": "1750-03-14",
      "maxdate": "2025-01-31",
      "latitude": -18.6242,
      "name": "SPRING CREEK STATION, AS",
      "datacoverage": 0.9748,
      "id": "GHCND:ASN00030048",
      "elevationUnit": "METERS",
      "longitude": 144.5739
    },
    {
      "elevation": 292,
      "mindate": "1899-02-01",
      "maxdate": "1996-02-29",
      "latitude": -21.2678,
      "name": "STAMFORD STATION, AS",
      "datacoverage": 0.9159,
      "id": "GHCND:ASN00030049",
      "elevationUnit": "METERS",
      "longitude": 143.8092
    },
    {
      "mindate": "1939-07-01",
      "maxdate": "1949-12-31",
      "latitude": -21.1,
      "name": "TARBRAX STATION, AS",
      "datacoverage": 0.9286,
      "id": "GHCND:ASN00030050",
      "longitude": 142.5
    },
    {
      "elevation": 465,
      "mindate": "1893-02-01",
      "maxdate": "2015-12-31",
      "latitude": -20.7694,
      "name": "TORRENS CREEK POST OFFICE, AS",
      "datacoverage": 0.9551,
      "id": "GHCND:ASN00030051",
      "elevationUnit": "METERS",
      "longitude": 145.0211
    },
    {
      "elevation": 560,
      "mindate": "1891-07-01",
      "maxdate": "2013-10-17",
      "latitude": -19.6733,
      "name": "WANDO VALE STATION, AS",
      "datacoverage": 0.8432,
      "id": "GHCND:ASN00030052",
      "elevationUnit": "METERS",
      "longitude": 144.89
    },
    {
      "elevation": 450,
      "mindate": "1947-09-01",
      "maxdate": "1987-01-31",
      "latitude": -20.65,
      "name": "WARRIGUL RAILWAY STATION, AS",
      "datacoverage": 0.871,
      "id": "GHCND:ASN00030053",
      "elevationUnit": "METERS",
      "longitude": 145.29
    },
    {
      "elevation": 230,
      "mindate": "1916-04-01",
      "maxdate": "2005-01-31",
      "latitude": -20.8133,
      "name": "WILBURRA DOWNS STATION, AS",
      "datacoverage": 0.9636,
      "id": "GHCND:ASN00030054",
      "elevationUnit": "METERS",
      "longitude": 143.2328
    },
    {
      "elevation": 400,
      "mindate": "1956-01-01",
      "maxdate": "2014-12-13",
      "latitude": -18.5883,
      "name": "FORSAYTH CARAVAN PARK, AS",
      "datacoverage": 0.9181,
      "id": "GHCND:ASN00030055",
      "elevationUnit": "METERS",
      "longitude": 143.6017
    },
    {
      "mindate": "1949-01-01",
      "maxdate": "1954-12-31",
      "latitude": -19.8,
      "name": "WOOLGAR STATION, AS",
      "datacoverage": 1,
      "id": "GHCND:ASN00030056",
      "longitude": 143.3
    },
    {
      "elevation": 320,
      "mindate": "1914-01-01",
      "maxdate": "2019-07-07",
      "latitude": -21.2139,
      "name": "ZARA STATION, AS",
      "datacoverage": 0.933,
      "id": "GHCND:ASN00030057",
      "elevationUnit": "METERS",
      "longitude": 144.3644
    },
    {
      "elevation": 375,
      "mindate": "2001-01-01",
      "maxdate": "2004-08-31",
      "latitude": -21.1117,
      "name": "WOGADOONA, AS",
      "datacoverage": 0.2054,
      "id": "GHCND:ASN00030058",
      "elevationUnit": "METERS",
      "longitude": 144.9306
    },
    {
      "elevation": 853,
      "mindate": "1957-01-01",
      "maxdate": "1967-10-31",
      "latitude": -19.6333,
      "name": "CHEVIOT HILLS STATION, AS",
      "datacoverage": 0.9925,
      "id": "GHCND:ASN00030059",
      "elevationUnit": "METERS",
      "longitude": 144.15
    },
    {
      "mindate": "1912-11-01",
      "maxdate": "1926-08-31",
      "latitude": -19.2,
      "name": "ORTONA STATION, AS",
      "datacoverage": 0.8796,
      "id": "GHCND:ASN00030060",
      "longitude": 143.5
    },
    {
      "elevation": 512,
      "mindate": "1964-03-01",
      "maxdate": "2023-12-31",
      "latitude": -18.6836,
      "name": "CONJUBOY STATION, AS",
      "datacoverage": 0.9791,
      "id": "GHCND:ASN00030061",
      "elevationUnit": "METERS",
      "longitude": 144.7444
    },
    {
      "mindate": "1921-05-01",
      "maxdate": "1936-02-29",
      "latitude": -20.1,
      "name": "GLENGALA STATION, AS",
      "datacoverage": 1,
      "id": "GHCND:ASN00030062",
      "longitude": 142.5
    },
    {
      "mindate": "1892-01-01",
      "maxdate": "1944-07-31",
      "latitude": -20.3,
      "name": "BURLEIGH STATION, AS",
      "datacoverage": 0.2954,
      "id": "GHCND:ASN00030063",
      "longitude": 143.1
    },
    {
      "mindate": "1885-04-01",
      "maxdate": "1924-07-31",
      "latitude": -21.0167,
      "name": "REDCLIFF STATION, AS",
      "datacoverage": 0.3182,
      "id": "GHCND:ASN00030064",
      "longitude": 144.3833
    },
    {
      "mindate": "1918-06-01",
      "maxdate": "1925-03-31",
      "latitude": -21,
      "name": "BOONOONA STATION, AS",
      "datacoverage": 0.9993,
      "id": "GHCND:ASN00030065",
      "longitude": 142.4
    },
    {
      "elevation": 137,
      "mindate": "1900-04-01",
      "maxdate": "1918-07-31",
      "latitude": -21.2333,
      "name": "BELFORD STATION, AS",
      "datacoverage": 0.9991,
      "id": "GHCND:ASN00030066",
      "elevationUnit": "METERS",
      "longitude": 142.3333
    },
    {
      "elevation": 307.8,
      "mindate": "1914-11-01",
      "maxdate": "1923-06-30",
      "latitude": -21.25,
      "name": "ELDORADO DOWNS STATION, AS",
      "datacoverage": 1,
      "id": "GHCND:ASN00030067",
      "elevationUnit": "METERS",
      "longitude": 143.9
    },
    {
      "elevation": 793,
      "mindate": "1966-06-01",
      "maxdate": "2022-06-30",
      "latitude": -19.4642,
      "name": "OAK VALLEY STATION, AS",
      "datacoverage": 0.8588,
      "id": "GHCND:ASN00030068",
      "elevationUnit": "METERS",
      "longitude": 144.3189
    },
    {
      "elevation": 572,
      "mindate": "1892-07-01",
      "maxdate": "1967-03-31",
      "latitude": -18.7667,
      "name": "WYANDOTTE STATION, AS",
      "datacoverage": 0.2876,
      "id": "GHCND:ASN00030069",
      "elevationUnit": "METERS",
      "longitude": 144.85
    },
    {
      "elevation": 200,
      "mindate": "1927-03-01",
      "maxdate": "1999-02-28",
      "latitude": -18.2422,
      "name": "FOREST HOME STATION, AS",
      "datacoverage": 0.6891,
      "id": "GHCND:ASN00030070",
      "elevationUnit": "METERS",
      "longitude": 143.0322
    },
    {
      "elevation": 300,
      "mindate": "1968-03-01",
      "maxdate": "1992-12-31",
      "latitude": -20.5856,
      "name": "SPRING VALLEY STATION, AS",
      "datacoverage": 0.9696,
      "id": "GHCND:ASN00030071",
      "elevationUnit": "METERS",
      "longitude": 143.9747
    },
    {
      "elevation": 701,
      "mindate": "1750-03-16",
      "maxdate": "2025-02-12",
      "latitude": -20.0969,
      "name": "LOW HOLM STATION, AS",
      "datacoverage": 0.8766,
      "id": "GHCND:ASN00030072",
      "elevationUnit": "METERS",
      "longitude": 144.9875
    },
    {
      "elevation": 240,
      "mindate": "1968-03-01",
      "maxdate": "2003-09-30",
      "latitude": -17.85,
      "name": "VAN LEE, AS",
      "datacoverage": 0.9695,
      "id": "GHCND:ASN00030073",
      "elevationUnit": "METERS",
      "longitude": 143.7028
    },
    {
      "elevation": 183,
      "mindate": "1968-07-01",
      "maxdate": "1994-12-31",
      "latitude": -20.4775,
      "name": "ARTESIAN DOWNS STATION, AS",
      "datacoverage": 0.9993,
      "id": "GHCND:ASN00030074",
      "elevationUnit": "METERS",
      "longitude": 142.625
    },
    {
      "elevation": 230,
      "mindate": "1968-06-01",
      "maxdate": "2017-01-09",
      "latitude": -20.095,
      "name": "SOLWAY DOWNS STATION, AS",
      "datacoverage": 0.975,
      "id": "GHCND:ASN00030075",
      "elevationUnit": "METERS",
      "longitude": 142.6931
    },
    {
      "elevation": 365.8,
      "mindate": "1967-01-01",
      "maxdate": "1974-11-30",
      "latitude": -20.2167,
      "name": "COALBROOK STATION, AS",
      "datacoverage": 0.7686,
      "id": "GHCND:ASN00030076",
      "elevationUnit": "METERS",
      "longitude": 143.4
    },
    {
      "elevation": 762,
      "mindate": "1951-04-01",
      "maxdate": "1977-05-31",
      "latitude": -20.1167,
      "name": "MOUNT EMU PLAINS STATION, AS",
      "datacoverage": 0.5551,
      "id": "GHCND:ASN00030077",
      "elevationUnit": "METERS",
      "longitude": 144.5333
    },
    {
      "elevation": 457,
      "mindate": "1969-02-01",
      "maxdate": "1978-12-31",
      "latitude": -20.5525,
      "name": "DENBIGH STATION, AS",
      "datacoverage": 0.9993,
      "id": "GHCND:ASN00030078",
      "elevationUnit": "METERS",
      "longitude": 144.0367
    },
    {
      "elevation": 457,
      "mindate": "1969-04-01",
      "maxdate": "1973-11-30",
      "latitude": -21.05,
      "name": "CHELTENHAM STATION, AS",
      "datacoverage": 1,
      "id": "GHCND:ASN00030079",
      "elevationUnit": "METERS",
      "longitude": 144.95
    },
    {
      "mindate": "1970-01-01",
      "maxdate": "1975-08-31",
      "latitude": -20.65,
      "name": "MOLESWORTH STATION, AS",
      "datacoverage": 0.9993,
      "id": "GHCND:ASN00030080",
      "longitude": 142.6167
    },
    {
      "elevation": 250,
      "mindate": "1969-07-01",
      "maxdate": "2024-12-31",
      "latitude": -20.2631,
      "name": "BURLEIGH STATION, AS",
      "datacoverage": 0.8118,
      "id": "GHCND:ASN00030081",
      "elevationUnit": "METERS",
      "longitude": 143.1097
    },
    {
      "elevation": 760,
      "mindate": "1750-03-16",
      "maxdate": "2025-02-11",
      "latitude": -19.7037,
      "name": "GREGORY SPRINGS STATION, AS",
      "datacoverage": 0.9916,
      "id": "GHCND:ASN00030082",
      "elevationUnit": "METERS",
      "longitude": 144.3775
    },
    {
      "elevation": 380,
      "mindate": "1960-01-01",
      "maxdate": "2024-12-22",
      "latitude": -19.9711,
      "name": "TOOMBA STUD, AS",
      "datacoverage": 0.9792,
      "id": "GHCND:ASN00030083",
      "elevationUnit": "METERS",
      "longitude": 145.585
    },
    {
      "elevation": 300,
      "mindate": "1970-10-01",
      "maxdate": "2003-02-28",
      "latitude": -17.3908,
      "name": "BOLWARRA STATION, AS",
      "datacoverage": 0.9487,
      "id": "GHCND:ASN00030084",
      "elevationUnit": "METERS",
      "longitude": 144.1811
    },
    {
      "elevation": 235,
      "mindate": "1890-07-01",
      "maxdate": "1906-10-31",
      "latitude": -21.2667,
      "name": "CASSILIS STATION, AS",
      "datacoverage": 0.2865,
      "id": "GHCND:ASN00030085",
      "elevationUnit": "METERS",
      "longitude": 143.0167
    },
    {
      "elevation": 444,
      "mindate": "1971-06-01",
      "maxdate": "1980-02-29",
      "latitude": -19.1833,
      "name": "IONA STATION, AS",
      "datacoverage": 0.8571,
      "id": "GHCND:ASN00030086",
      "elevationUnit": "METERS",
      "longitude": 143.5167
    },
    {
      "mindate": "1890-01-01",
      "maxdate": "1912-10-31",
      "latitude": -17.4,
      "name": "TATE RIVER STATION, AS",
      "datacoverage": 0.9928,
      "id": "GHCND:ASN00030087",
      "longitude": 144.2
    },
    {
      "elevation": 800,
      "mindate": "1750-03-22",
      "maxdate": "2025-02-19",
      "latitude": -19.3769,
      "name": "WERRINGTON STATION, AS",
      "datacoverage": 0.914,
      "id": "GHCND:ASN00030088",
      "elevationUnit": "METERS",
      "longitude": 144.1156
    },
    {
      "elevation": 210,
      "mindate": "1951-03-01",
      "maxdate": "1979-12-31",
      "latitude": -20.9072,
      "name": "MERRIULA STATION, AS",
      "datacoverage": 0.9993,
      "id": "GHCND:ASN00030089",
      "elevationUnit": "METERS",
      "longitude": 142.8
    },
    {
      "elevation": 670,
      "mindate": "1750-03-14",
      "maxdate": "2025-01-31",
      "latitude": -19.1964,
      "name": "BAGSTOWE STATION, AS",
      "datacoverage": 0.7904,
      "id": "GHCND:ASN00030090",
      "elevationUnit": "METERS",
      "longitude": 144.0014
    },
    {
      "elevation": 260,
      "mindate": "1968-01-01",
      "maxdate": "2016-07-20",
      "latitude": -18.0808,
      "name": "IRON HURST STATION, AS",
      "datacoverage": 0.8478,
      "id": "GHCND:ASN00030091",
      "elevationUnit": "METERS",
      "longitude": 143.4622
    },
    {
      "mindate": "1928-01-01",
      "maxdate": "1974-07-31",
      "latitude": -21.2667,
      "name": "CLARAFIELD STATION, AS",
      "datacoverage": 0.7836,
      "id": "GHCND:ASN00030092",
      "longitude": 142.2167
    }
  ]
}
