{
  "metadata": {
    "resultset": {
      "offset": 68600,
      "count": 154115,
      "limit": 100
    }
  },
  "results": [
    {
      "elevation": -3,
      "mindate": "1989-12-01",
      "maxdate": "2025-01-10",
      "latitude": 52.3831,
      "name": "ZEEWOLDE, NL",
      "datacoverage": 0.9976,
      "id": "GHCND:NLE00109372",
      "elevationUnit": "METERS",
      "longitude": 5.3667
    },
    {
      "elevation": -3,
      "mindate": "1989-12-01",
      "maxdate": "2025-01-10",
      "latitude": 52.3,
      "name": "ZEEWOLDE SCHILLINKWEG, NL",
      "datacoverage": 0.9788,
      "id": "GHCND:NLE00109374",
      "elevationUnit": "METERS",
      "longitude": 5.4167
    },
    {
      "elevation": -2,
      "mindate": "1931-12-01",
      "maxdate": "2025-01-10",
      "latitude": 52.1331,
      "name": "ZEGVELD, NL",
      "datacoverage": 1,
      "id": "GHCND:NLE00109376",
      "elevationUnit": "METERS",
      "longitude": 4.8331
    },
    {
      "elevation": 8,
      "mindate": "1953-10-01",
      "maxdate": "2025-01-10",
      "latitude": 51.9331,
      "name": "ZETTEN, NL",
      "datacoverage": 1,
      "id": "GHCND:NLE00109378",
      "elevationUnit": "METERS",
      "longitude": 5.7167
    },
    {
      "elevation": -5,
      "mindate": "1994-01-01",
      "maxdate": "2025-01-10",
      "latitude": 52.0667,
      "name": "ZOETERMEER, NL",
      "datacoverage": 1,
      "id": "GHCND:NLE00109380",
      "elevationUnit": "METERS",
      "longitude": 4.5331
    },
    {
      "elevation": 2,
      "mindate": "1950-12-01",
      "maxdate": "2025-01-10",
      "latitude": 52.5331,
      "name": "ZWOLLE, NL",
      "datacoverage": 0.9988,
      "id": "GHCND:NLE00109382",
      "elevationUnit": "METERS",
      "longitude": 6.1331
    },
    {
      "elevation": 18,
      "mindate": "1950-12-01",
      "maxdate": "2010-12-31",
      "latitude": 51.4167,
      "name": "EINDHOVEN 1, NL",
      "datacoverage": 1,
      "id": "GHCND:NLE00109388",
      "elevationUnit": "METERS",
      "longitude": 5.4831
    },
    {
      "elevation": 43,
      "mindate": "2009-03-01",
      "maxdate": "2025-01-31",
      "latitude": 54.3256,
      "name": "D15 FA 1",
      "datacoverage": 0.9521,
      "id": "GHCND:NLE00113670",
      "elevationUnit": "METERS",
      "longitude": 2.9356
    },
    {
      "elevation": 42,
      "mindate": "2008-09-01",
      "maxdate": "2025-01-31",
      "latitude": 53.2692,
      "name": "K14 FA 1C",
      "datacoverage": 0.9472,
      "id": "GHCND:NLE00113676",
      "elevationUnit": "METERS",
      "longitude": 3.6278
    },
    {
      "elevation": 48,
      "mindate": "2009-03-01",
      "maxdate": "2025-01-31",
      "latitude": 55.3992,
      "name": "A12 CPP",
      "datacoverage": 0.9652,
      "id": "GHCND:NLE00113682",
      "elevationUnit": "METERS",
      "longitude": 3.8103
    },
    {
      "elevation": 43,
      "mindate": "2007-12-01",
      "maxdate": "2020-08-30",
      "latitude": 54.1167,
      "name": "F16 A",
      "datacoverage": 0.9546,
      "id": "GHCND:NLE00113688",
      "elevationUnit": "METERS",
      "longitude": 4.0119
    },
    {
      "elevation": 0,
      "mindate": "2008-09-01",
      "maxdate": "2025-01-31",
      "latitude": 53.6142,
      "name": "L9 FF 1",
      "datacoverage": 0.9382,
      "id": "GHCND:NLE00113694",
      "elevationUnit": "METERS",
      "longitude": 4.9603
    },
    {
      "elevation": 41,
      "mindate": "2008-09-01",
      "maxdate": "2025-01-31",
      "latitude": 53.4917,
      "name": "AWG 1",
      "datacoverage": 0.9449,
      "id": "GHCND:NLE00113700",
      "elevationUnit": "METERS",
      "longitude": 5.9417
    },
    {
      "elevation": 46,
      "mindate": "2009-03-01",
      "maxdate": "2025-01-31",
      "latitude": 53.8242,
      "name": "J6 A",
      "datacoverage": 0.956,
      "id": "GHCND:NLE00113706",
      "elevationUnit": "METERS",
      "longitude": 2.9453
    },
    {
      "elevation": 51,
      "mindate": "2009-03-01",
      "maxdate": "2022-11-28",
      "latitude": 52.9181,
      "name": "HOORN A",
      "datacoverage": 0.8674,
      "id": "GHCND:NLE00113712",
      "elevationUnit": "METERS",
      "longitude": 4.1503
    },
    {
      "elevation": 38,
      "mindate": "1996-07-01",
      "maxdate": "2025-01-31",
      "latitude": 53.2178,
      "name": "K13",
      "datacoverage": 0.9795,
      "id": "GHCND:NLE00113724",
      "elevationUnit": "METERS",
      "longitude": 3.2203
    },
    {
      "elevation": 23,
      "mindate": "1983-01-01",
      "maxdate": "2025-01-31",
      "latitude": 51.9256,
      "name": "LICHTEILAND GOEREE",
      "datacoverage": 0.9875,
      "id": "GHCND:NLE00113730",
      "elevationUnit": "METERS",
      "longitude": 3.67
    },
    {
      "elevation": 19,
      "mindate": "1996-07-01",
      "maxdate": "2025-01-31",
      "latitude": 51.9978,
      "name": "EUROPLATFORM",
      "datacoverage": 0.9788,
      "id": "GHCND:NLE00113736",
      "elevationUnit": "METERS",
      "longitude": 3.275
    },
    {
      "elevation": 4,
      "mindate": "1991-11-01",
      "maxdate": "2010-01-01",
      "latitude": 51.8917,
      "name": "ROTTERDAM GEULHAVEN",
      "datacoverage": 0.9995,
      "id": "GHCND:NLE00113742",
      "elevationUnit": "METERS",
      "longitude": 4.3125
    },
    {
      "elevation": 7,
      "mindate": "1971-01-01",
      "maxdate": "2012-07-10",
      "latitude": 51.9667,
      "name": "WAGENINGEN HAARWEG, NL",
      "datacoverage": 0.998,
      "id": "GHCND:NLE00141789",
      "elevationUnit": "METERS",
      "longitude": 5.6331
    },
    {
      "elevation": 5,
      "mindate": "2011-06-01",
      "maxdate": "2024-11-30",
      "latitude": 51.9814,
      "name": "WAGENINGEN VEENKAMPEN, NL",
      "datacoverage": 0.9824,
      "id": "GHCND:NLE00152462",
      "elevationUnit": "METERS",
      "longitude": 5.6217
    },
    {
      "elevation": 1,
      "mindate": "1957-01-01",
      "maxdate": "2025-01-31",
      "latitude": 52.9267,
      "name": "DE KOOY, NL",
      "datacoverage": 0.9988,
      "id": "GHCND:NLE00152468",
      "elevationUnit": "METERS",
      "longitude": 4.7808
    },
    {
      "elevation": 5,
      "mindate": "1906-03-01",
      "maxdate": "2025-01-31",
      "latitude": 53.1233,
      "name": "EELDE, NL",
      "datacoverage": 1,
      "id": "GHCND:NLE00152470",
      "elevationUnit": "METERS",
      "longitude": 6.5844
    },
    {
      "elevation": -3,
      "mindate": "1989-01-01",
      "maxdate": "2025-01-31",
      "latitude": 52.7017,
      "name": "MARKNESSE, NL",
      "datacoverage": 0.999,
      "id": "GHCND:NLE00152473",
      "elevationUnit": "METERS",
      "longitude": 5.8875
    },
    {
      "elevation": 3,
      "mindate": "1991-03-19",
      "maxdate": "2025-01-31",
      "latitude": 53.4117,
      "name": "LAUWERSOOG",
      "datacoverage": 0.9998,
      "id": "GHCND:NLE00152474",
      "elevationUnit": "METERS",
      "longitude": 6.1992
    },
    {
      "elevation": 9,
      "mindate": "2001-05-01",
      "maxdate": "2025-01-31",
      "latitude": 52.5053,
      "name": "WIJK AAN ZEE, NL",
      "datacoverage": 0.9998,
      "id": "GHCND:NLE00152475",
      "elevationUnit": "METERS",
      "longitude": 4.6031
    },
    {
      "elevation": -1,
      "mindate": "1986-04-18",
      "maxdate": "2025-01-31",
      "latitude": 51.9692,
      "name": "CABAUW, NL",
      "datacoverage": 0.9993,
      "id": "GHCND:NLE00152476",
      "elevationUnit": "METERS",
      "longitude": 4.9256
    },
    {
      "elevation": 20,
      "mindate": "1951-03-02",
      "maxdate": "2025-01-31",
      "latitude": 51.6581,
      "name": "VOLKEL, NL",
      "datacoverage": 0.9993,
      "id": "GHCND:NLE00152477",
      "elevationUnit": "METERS",
      "longitude": 5.7067
    },
    {
      "elevation": -2,
      "mindate": "1999-03-23",
      "maxdate": "2025-01-31",
      "latitude": 52.6428,
      "name": "BERKHOUT, NL",
      "datacoverage": 0.9998,
      "id": "GHCND:NLE00152478",
      "elevationUnit": "METERS",
      "longitude": 4.9789
    },
    {
      "elevation": 4,
      "mindate": "1989-10-19",
      "maxdate": "2025-01-31",
      "latitude": 52.4342,
      "name": "HEINO, NL",
      "datacoverage": 0.9926,
      "id": "GHCND:NLE00152479",
      "elevationUnit": "METERS",
      "longitude": 6.2589
    },
    {
      "elevation": 29,
      "mindate": "1989-10-25",
      "maxdate": "2025-01-31",
      "latitude": 52.0678,
      "name": "HUPSEL, NL",
      "datacoverage": 0.9998,
      "id": "GHCND:NLE00152480",
      "elevationUnit": "METERS",
      "longitude": 6.6567
    },
    {
      "elevation": 20,
      "mindate": "1990-07-05",
      "maxdate": "2025-01-31",
      "latitude": 51.4969,
      "name": "ARCEN, NL",
      "datacoverage": 0.9999,
      "id": "GHCND:NLE00152481",
      "elevationUnit": "METERS",
      "longitude": 6.1958
    },
    {
      "elevation": 1,
      "mindate": "1989-10-19",
      "maxdate": "2025-01-31",
      "latitude": 51.8578,
      "name": "HERWIJNEN, NL",
      "datacoverage": 0.9974,
      "id": "GHCND:NLE00152482",
      "elevationUnit": "METERS",
      "longitude": 5.1453
    },
    {
      "elevation": 0,
      "mindate": "1992-02-01",
      "maxdate": "2025-01-31",
      "latitude": 53.1942,
      "name": "NIEUW BEERTA, NL",
      "datacoverage": 0.9974,
      "id": "GHCND:NLE00152483",
      "elevationUnit": "METERS",
      "longitude": 7.1492
    },
    {
      "elevation": 2,
      "mindate": "1989-11-08",
      "maxdate": "2025-01-31",
      "latitude": 51.5256,
      "name": "WILHELMINADORP, NL",
      "datacoverage": 0.8817,
      "id": "GHCND:NLE00152484",
      "elevationUnit": "METERS",
      "longitude": 3.8833
    },
    {
      "elevation": -3,
      "mindate": "1951-01-01",
      "maxdate": "2025-01-31",
      "latitude": 52.3156,
      "name": "SCHIPHOL, NL",
      "datacoverage": 1,
      "id": "GHCND:NLE00152485",
      "elevationUnit": "METERS",
      "longitude": 4.7903
    },
    {
      "elevation": 1,
      "mindate": "1994-06-01",
      "maxdate": "2025-01-31",
      "latitude": 53.3908,
      "name": "HOORN TERSCHELLING, NL",
      "datacoverage": 0.9971,
      "id": "GHCND:NLE00152486",
      "elevationUnit": "METERS",
      "longitude": 5.3456
    },
    {
      "elevation": 14,
      "mindate": "1951-09-11",
      "maxdate": "2008-11-17",
      "latitude": 52.1256,
      "name": "SOESTERBERG, NL",
      "datacoverage": 0.9797,
      "id": "GHCND:NLE00152487",
      "elevationUnit": "METERS",
      "longitude": 5.2733
    },
    {
      "elevation": -1,
      "mindate": "1990-07-05",
      "maxdate": "2025-01-31",
      "latitude": 52.8967,
      "name": "STAVOREN, NL",
      "datacoverage": 0.9908,
      "id": "GHCND:NLE00152488",
      "elevationUnit": "METERS",
      "longitude": 5.3831
    },
    {
      "elevation": -4,
      "mindate": "1990-01-27",
      "maxdate": "2025-01-31",
      "latitude": 52.4569,
      "name": "LELYSTAD, NL",
      "datacoverage": 0.9998,
      "id": "GHCND:NLE00152489",
      "elevationUnit": "METERS",
      "longitude": 5.5194
    },
    {
      "elevation": -4,
      "mindate": "1956-10-01",
      "maxdate": "2025-01-31",
      "latitude": 51.9606,
      "name": "ROTTERDAM, NL",
      "datacoverage": 0.997,
      "id": "GHCND:NLE00152490",
      "elevationUnit": "METERS",
      "longitude": 4.4467
    },
    {
      "elevation": 11,
      "mindate": "1951-01-04",
      "maxdate": "2025-01-31",
      "latitude": 51.565,
      "name": "GILZE RIJEN, NL",
      "datacoverage": 0.9569,
      "id": "GHCND:NLE00152491",
      "elevationUnit": "METERS",
      "longitude": 4.9353
    },
    {
      "elevation": 30,
      "mindate": "1999-07-15",
      "maxdate": "2025-01-31",
      "latitude": 51.1967,
      "name": "ELL, NL",
      "datacoverage": 0.9998,
      "id": "GHCND:NLE00152492",
      "elevationUnit": "METERS",
      "longitude": 5.7625
    },
    {
      "elevation": 12,
      "mindate": "1971-01-01",
      "maxdate": "2025-01-31",
      "latitude": 51.9908,
      "name": "HOEK VAN HOLLAND, NL",
      "datacoverage": 0.7872,
      "id": "GHCND:NLE00152494",
      "elevationUnit": "METERS",
      "longitude": 4.1217
    },
    {
      "elevation": 0,
      "mindate": "1951-01-01",
      "maxdate": "2025-01-31",
      "latitude": 53.2231,
      "name": "LEEUWARDEN, NL",
      "datacoverage": 1,
      "id": "GHCND:NLE00152495",
      "elevationUnit": "METERS",
      "longitude": 5.7517
    },
    {
      "elevation": 50,
      "mindate": "1953-12-16",
      "maxdate": "2025-01-31",
      "latitude": 52.055,
      "name": "DEELEN, NL",
      "datacoverage": 0.9993,
      "id": "GHCND:NLE00152497",
      "elevationUnit": "METERS",
      "longitude": 5.8719
    },
    {
      "elevation": 16,
      "mindate": "1989-10-19",
      "maxdate": "2025-01-31",
      "latitude": 52.7489,
      "name": "HOOGEVEEN, NL",
      "datacoverage": 0.9993,
      "id": "GHCND:NLE00152498",
      "elevationUnit": "METERS",
      "longitude": 6.5731
    },
    {
      "elevation": 23,
      "mindate": "1951-01-01",
      "maxdate": "2025-01-31",
      "latitude": 51.4494,
      "name": "EINDHOVEN, NL",
      "datacoverage": 0.9987,
      "id": "GHCND:NLE00152499",
      "elevationUnit": "METERS",
      "longitude": 5.3767
    },
    {
      "elevation": 33,
      "mindate": "1951-01-01",
      "maxdate": "2025-01-31",
      "latitude": 52.2731,
      "name": "TWENTHE, NL",
      "datacoverage": 0.9992,
      "id": "GHCND:NLE00152500",
      "elevationUnit": "METERS",
      "longitude": 6.8906
    },
    {
      "elevation": 0,
      "mindate": "1972-05-01",
      "maxdate": "2016-05-02",
      "latitude": 52.1703,
      "name": "VALKENBURG, NL",
      "datacoverage": 0.9981,
      "id": "GHCND:NLE00152501",
      "elevationUnit": "METERS",
      "longitude": 4.4292
    },
    {
      "elevation": 2,
      "mindate": "1991-06-26",
      "maxdate": "2025-01-31",
      "latitude": 51.2244,
      "name": "WESTDORPE, NL",
      "datacoverage": 0.9998,
      "id": "GHCND:NLE00152502",
      "elevationUnit": "METERS",
      "longitude": 3.8608
    },
    {
      "elevation": -1,
      "mindate": "2014-08-01",
      "maxdate": "2025-01-31",
      "latitude": 52.1394,
      "name": "VOORSCHOTEN, NL",
      "datacoverage": 0.9979,
      "id": "GHCND:NLE00155389",
      "elevationUnit": "METERS",
      "longitude": 4.4364
    },
    {
      "elevation": 1,
      "mindate": "1955-12-31",
      "maxdate": "2025-01-10",
      "latitude": 53.2567,
      "name": "VLIELAND 1, NL",
      "datacoverage": 0.9981,
      "id": "GHCND:NLE00155415",
      "elevationUnit": "METERS",
      "longitude": 4.9731
    },
    {
      "elevation": 1,
      "mindate": "1950-12-31",
      "maxdate": "2025-01-10",
      "latitude": 52.8856,
      "name": "STAVOREN 1, NL",
      "datacoverage": 0.9989,
      "id": "GHCND:NLE00155417",
      "elevationUnit": "METERS",
      "longitude": 5.3581
    },
    {
      "elevation": 2,
      "mindate": "1900-12-31",
      "maxdate": "2025-01-10",
      "latitude": 53.2206,
      "name": "LEEUWARDEN 1, NL",
      "datacoverage": 0.9994,
      "id": "GHCND:NLE00155419",
      "elevationUnit": "METERS",
      "longitude": 5.7542
    },
    {
      "elevation": 6,
      "mindate": "1950-12-31",
      "maxdate": "2025-01-10",
      "latitude": 52.4931,
      "name": "WIJK AAN ZEE 1, NL",
      "datacoverage": 0.9989,
      "id": "GHCND:NLE00155421",
      "elevationUnit": "METERS",
      "longitude": 4.6142
    },
    {
      "elevation": -3,
      "mindate": "1950-12-31",
      "maxdate": "2025-01-10",
      "latitude": 52.7042,
      "name": "MARKNESSE 1, NL",
      "datacoverage": 0.9989,
      "id": "GHCND:NLE00155423",
      "elevationUnit": "METERS",
      "longitude": 5.89
    },
    {
      "elevation": 5,
      "mindate": "1950-12-31",
      "maxdate": "2025-01-10",
      "latitude": 52.4367,
      "name": "HEINO 1, NL",
      "datacoverage": 0.999,
      "id": "GHCND:NLE00155425",
      "elevationUnit": "METERS",
      "longitude": 6.2631
    },
    {
      "elevation": -4,
      "mindate": "1981-12-31",
      "maxdate": "2025-01-10",
      "latitude": 52.4531,
      "name": "LELYSTAD EENDENWEG, NL",
      "datacoverage": 0.9974,
      "id": "GHCND:NLE00155427",
      "elevationUnit": "METERS",
      "longitude": 5.5281
    },
    {
      "elevation": 4,
      "mindate": "1968-12-31",
      "maxdate": "2015-06-30",
      "latitude": 51.8931,
      "name": "RDAM WAALHAVEN, NL",
      "datacoverage": 1,
      "id": "GHCND:NLE00155429",
      "elevationUnit": "METERS",
      "longitude": 4.4231
    },
    {
      "elevation": 1,
      "mindate": "1960-12-31",
      "maxdate": "2025-01-10",
      "latitude": 51.9853,
      "name": "HOEK VAN HOLLAND 1, NL",
      "datacoverage": 0.9985,
      "id": "GHCND:NLE00155431",
      "elevationUnit": "METERS",
      "longitude": 4.1481
    },
    {
      "elevation": -2,
      "mindate": "2009-04-30",
      "maxdate": "2025-01-10",
      "latitude": 51.8958,
      "name": "KRIMPEN AAN DE LEK, NL",
      "datacoverage": 0.9932,
      "id": "GHCND:NLE00155433",
      "elevationUnit": "METERS",
      "longitude": 4.6156
    },
    {
      "elevation": 26,
      "mindate": "1995-05-31",
      "maxdate": "2025-01-10",
      "latitude": 52.0681,
      "name": "HUPSEL 1, NL",
      "datacoverage": 0.9963,
      "id": "GHCND:NLE00155435",
      "elevationUnit": "METERS",
      "longitude": 6.64
    },
    {
      "elevation": 1,
      "mindate": "1950-12-31",
      "maxdate": "2025-01-10",
      "latitude": 51.8228,
      "name": "HERWIJNEN 1, NL",
      "datacoverage": 0.9989,
      "id": "GHCND:NLE00155437",
      "elevationUnit": "METERS",
      "longitude": 5.1525
    },
    {
      "elevation": 14,
      "mindate": "1950-12-31",
      "maxdate": "2025-01-10",
      "latitude": 51.5678,
      "name": "GILZE RIJEN 1, NL",
      "datacoverage": 0.9985,
      "id": "GHCND:NLE00155439",
      "elevationUnit": "METERS",
      "longitude": 4.9331
    },
    {
      "elevation": 21,
      "mindate": "1970-12-31",
      "maxdate": "2025-01-10",
      "latitude": 51.6581,
      "name": "VOLKEL 1, NL",
      "datacoverage": 0.9985,
      "id": "GHCND:NLE00155441",
      "elevationUnit": "METERS",
      "longitude": 5.7064
    },
    {
      "elevation": 19,
      "mindate": "1995-10-31",
      "maxdate": "2025-01-10",
      "latitude": 51.4831,
      "name": "ARCEN 1, NL",
      "datacoverage": 0.9974,
      "id": "GHCND:NLE00155443",
      "elevationUnit": "METERS",
      "longitude": 6.1839
    },
    {
      "elevation": 18,
      "mindate": "2010-12-31",
      "maxdate": "2025-01-10",
      "latitude": 51.4167,
      "name": "WAALRE, NL",
      "datacoverage": 0.9926,
      "id": "GHCND:NLE00155445",
      "elevationUnit": "METERS",
      "longitude": 5.48
    },
    {
      "elevation": 26,
      "mindate": "2013-03-31",
      "maxdate": "2025-01-10",
      "latitude": 51.2831,
      "name": "KESSEL EIK, NL",
      "datacoverage": 0.9935,
      "id": "GHCND:NLE00155447",
      "elevationUnit": "METERS",
      "longitude": 6.0167
    },
    {
      "elevation": 24,
      "mindate": "2013-06-01",
      "maxdate": "2025-01-31",
      "latitude": 52.3667,
      "name": "P11 B",
      "datacoverage": 0.8872,
      "id": "GHCND:NLE00155454",
      "elevationUnit": "METERS",
      "longitude": 3.35
    },
    {
      "elevation": 0,
      "mindate": "2013-06-11",
      "maxdate": "2025-01-31",
      "latitude": 54.8539,
      "name": "F3 FB 1",
      "datacoverage": 0.8869,
      "id": "GHCND:NLE00155464",
      "elevationUnit": "METERS",
      "longitude": 4.7275
    },
    {
      "elevation": 0,
      "mindate": "1850-12-31",
      "maxdate": "2025-03-06",
      "latitude": 52.9331,
      "name": "DEN HELDER 1, NL",
      "datacoverage": 1,
      "id": "GHCND:NLM00006235",
      "elevationUnit": "METERS",
      "longitude": 4.75
    },
    {
      "elevation": 2,
      "mindate": "1901-01-01",
      "maxdate": "2025-03-06",
      "latitude": 52.0989,
      "name": "DE BILT, NL",
      "datacoverage": 1,
      "id": "GHCND:NLM00006260",
      "elevationUnit": "METERS",
      "longitude": 5.1794
    },
    {
      "elevation": 4,
      "mindate": "1949-01-01",
      "maxdate": "2025-03-06",
      "latitude": 53.1167,
      "name": "EELDE 1, NL",
      "datacoverage": 0.972,
      "id": "GHCND:NLM00006280",
      "elevationUnit": "METERS",
      "longitude": 6.5831
    },
    {
      "elevation": 8,
      "mindate": "1854-12-01",
      "maxdate": "2025-03-06",
      "latitude": 51.45,
      "name": "WEST SOUBURG, NL",
      "datacoverage": 1,
      "id": "GHCND:NLM00006310",
      "elevationUnit": "METERS",
      "longitude": 3.6
    },
    {
      "elevation": 114,
      "mindate": "1906-01-01",
      "maxdate": "2025-03-06",
      "latitude": 50.9053,
      "name": "MAASTRICHT, NL",
      "datacoverage": 1,
      "id": "GHCND:NLM00006380",
      "elevationUnit": "METERS",
      "longitude": 5.7617
    },
    {
      "elevation": 4.3,
      "mindate": "1973-04-04",
      "maxdate": "2004-12-31",
      "latitude": 18.041,
      "name": "PRINCESS JULIANA INTERNATIONAL, NN",
      "datacoverage": 0.9478,
      "id": "GHCND:NNM00078866",
      "elevationUnit": "METERS",
      "longitude": -63.109
    },
    {
      "elevation": 100,
      "mindate": "1920-07-01",
      "maxdate": "2025-03-06",
      "latitude": 69.6539,
      "name": "TROMSO, NO",
      "datacoverage": 1,
      "id": "GHCND:NO000001026",
      "elevationUnit": "METERS",
      "longitude": 18.9281
    },
    {
      "elevation": 8,
      "mindate": "1963-04-30",
      "maxdate": "2009-02-28",
      "latitude": 62.8667,
      "name": "ONA HUSOY",
      "datacoverage": 0.9873,
      "id": "GHCND:NO000001212",
      "elevationUnit": "METERS",
      "longitude": 6.5331
    },
    {
      "elevation": 12,
      "mindate": "1911-01-01",
      "maxdate": "2025-03-06",
      "latitude": 58.3831,
      "name": "TORUNGEN FYR",
      "datacoverage": 0.9964,
      "id": "GHCND:NO000001465",
      "elevationUnit": "METERS",
      "longitude": 8.7917
    },
    {
      "elevation": 147,
      "mindate": "1895-06-01",
      "maxdate": "2025-01-31",
      "latitude": 60.3883,
      "name": "NORD ODAL, NO",
      "datacoverage": 0.998,
      "id": "GHCND:NO000005350",
      "elevationUnit": "METERS",
      "longitude": 11.5603
    },
    {
      "elevation": 13,
      "mindate": "2004-05-01",
      "maxdate": "2009-02-28",
      "latitude": 67.267,
      "name": "BODO VI, NO",
      "datacoverage": 1,
      "id": "GHCND:NO000011520",
      "elevationUnit": "METERS",
      "longitude": 14.367
    },
    {
      "elevation": 56,
      "mindate": "1943-01-01",
      "maxdate": "2025-03-06",
      "latitude": 59.3,
      "name": "UTSIRA FYR, NO",
      "datacoverage": 1,
      "id": "GHCND:NO000014030",
      "elevationUnit": "METERS",
      "longitude": 4.883
    },
    {
      "elevation": 626,
      "mindate": "1954-01-01",
      "maxdate": "2009-12-31",
      "latitude": 62.1,
      "name": "KJOEREMSGRENDE, NO",
      "datacoverage": 0.9762,
      "id": "GHCND:NO000016740",
      "elevationUnit": "METERS",
      "longitude": 9.05
    },
    {
      "elevation": 55,
      "mindate": "1956-12-01",
      "maxdate": "2002-11-28",
      "latitude": 59.35,
      "name": "NEDSTRAND, NO",
      "datacoverage": 0.9796,
      "id": "GHCND:NO000047020",
      "elevationUnit": "METERS",
      "longitude": 5.8
    },
    {
      "elevation": 370,
      "mindate": "1901-01-01",
      "maxdate": "1999-12-31",
      "latitude": 60.46,
      "name": "SAMNANGER, NO",
      "datacoverage": 1,
      "id": "GHCND:NO000050350",
      "elevationUnit": "METERS",
      "longitude": 5.9
    },
    {
      "elevation": 12,
      "mindate": "1957-01-01",
      "maxdate": "2025-03-06",
      "latitude": 60.3831,
      "name": "BERGEN FLORIDA, NO",
      "datacoverage": 1,
      "id": "GHCND:NO000050540",
      "elevationUnit": "METERS",
      "longitude": 5.3331
    },
    {
      "elevation": 40,
      "mindate": "1938-01-01",
      "maxdate": "1985-02-28",
      "latitude": 60.4,
      "name": "BERGEN FREDRIKSBERG, NO",
      "datacoverage": 1,
      "id": "GHCND:NO000050550",
      "elevationUnit": "METERS",
      "longitude": 5.317
    },
    {
      "elevation": 242,
      "mindate": "1900-01-01",
      "maxdate": "2006-11-14",
      "latitude": 63.2,
      "name": "SELBU STUBBE, NO",
      "datacoverage": 1,
      "id": "GHCND:NO000068330",
      "elevationUnit": "METERS",
      "longitude": 11.117
    },
    {
      "elevation": 39,
      "mindate": "1916-04-01",
      "maxdate": "2025-01-31",
      "latitude": 66.8167,
      "name": "GLOMFJORD, NO",
      "datacoverage": 0.9991,
      "id": "GHCND:NO000080700",
      "elevationUnit": "METERS",
      "longitude": 13.9831
    },
    {
      "elevation": 3,
      "mindate": "1896-06-01",
      "maxdate": "2010-03-13",
      "latitude": 68.8167,
      "name": "BARKESTAD",
      "datacoverage": 1,
      "id": "GHCND:NO000086850",
      "elevationUnit": "METERS",
      "longitude": 14.8
    },
    {
      "elevation": 374,
      "mindate": "1908-01-01",
      "maxdate": "2001-12-31",
      "latitude": 69.583,
      "name": "SUOLOVUOPMI, NO",
      "datacoverage": 0.9681,
      "id": "GHCND:NO000093300",
      "elevationUnit": "METERS",
      "longitude": 23.533
    },
    {
      "elevation": 129,
      "mindate": "1899-12-31",
      "maxdate": "2012-10-21",
      "latitude": 69.4667,
      "name": "KARASJOK, NO",
      "datacoverage": 0.9803,
      "id": "GHCND:NO000097250",
      "elevationUnit": "METERS",
      "longitude": 25.5031
    },
    {
      "elevation": 15,
      "mindate": "1951-01-01",
      "maxdate": "2025-03-06",
      "latitude": 70.367,
      "name": "VARDO, NO",
      "datacoverage": 1,
      "id": "GHCND:NO000098550",
      "elevationUnit": "METERS",
      "longitude": 31.1
    },
    {
      "elevation": 16,
      "mindate": "1910-08-01",
      "maxdate": "2025-03-06",
      "latitude": 74.5167,
      "name": "BJOERNOEYA",
      "datacoverage": 0.9513,
      "id": "GHCND:NO000099710",
      "elevationUnit": "METERS",
      "longitude": 19.0167
    },
    {
      "elevation": 255,
      "mindate": "1895-06-01",
      "maxdate": "2010-10-29",
      "latitude": 63.2089,
      "name": "LIEN I SELBU, NO",
      "datacoverage": 1,
      "id": "GHCND:NOE00100569",
      "elevationUnit": "METERS",
      "longitude": 11.1156
    },
    {
      "elevation": 151,
      "mindate": "1899-12-01",
      "maxdate": "2024-06-30",
      "latitude": 58.2153,
      "name": "MESTAD I ODDERNES, NO",
      "datacoverage": 1,
      "id": "GHCND:NOE00100570",
      "elevationUnit": "METERS",
      "longitude": 7.8906
    },
    {
      "elevation": 323,
      "mindate": "1895-06-01",
      "maxdate": "2025-01-31",
      "latitude": 60.6458,
      "name": "BULKEN, NO",
      "datacoverage": 0.9905,
      "id": "GHCND:NOE00100574",
      "elevationUnit": "METERS",
      "longitude": 6.2233
    },
    {
      "elevation": 8,
      "mindate": "1881-12-01",
      "maxdate": "2025-01-31",
      "latitude": 59.1225,
      "name": "HALDEN, NO",
      "datacoverage": 1,
      "id": "GHCND:NOE00100575",
      "elevationUnit": "METERS",
      "longitude": 11.3883
    },
    {
      "elevation": 11,
      "mindate": "1954-01-01",
      "maxdate": "2025-01-31",
      "latitude": 68.1503,
      "name": "SKROVA FYR",
      "datacoverage": 0.9987,
      "id": "GHCND:NOE00104443",
      "elevationUnit": "METERS",
      "longitude": 14.6506
    }
  ]
}
