{
  "metadata": {
    "resultset": {
      "offset": 1800,
      "count": 154115,
      "limit": 100
    }
  },
  "results": [
    {
      "elevation": 167.9,
      "mindate": "1943-09-01",
      "maxdate": "1968-06-01",
      "latitude": 39.01667,
      "name": "HOPLAND LARGO STATION, CA US",
      "datacoverage": 0.9866,
      "id": "COOP:044100",
      "elevationUnit": "METERS",
      "longitude": -123.11667
    },
    {
      "elevation": 473,
      "mindate": "1948-01-01",
      "maxdate": "1958-06-01",
      "latitude": 34.61667,
      "name": "HORSE CANYON, CA US",
      "datacoverage": 0.8234,
      "id": "COOP:044113",
      "elevationUnit": "METERS",
      "longitude": -119.85
    },
    {
      "elevation": 222.5,
      "mindate": "1948-01-01",
      "maxdate": "1993-07-01",
      "latitude": 35.08333,
      "name": "HUASNA, CA US",
      "datacoverage": 1,
      "id": "COOP:044144",
      "elevationUnit": "METERS",
      "longitude": -120.38333
    },
    {
      "elevation": 235,
      "mindate": "1960-09-01",
      "maxdate": "1970-09-01",
      "latitude": 40.18333,
      "name": "HUNTER DISTR GRAVES, CA US",
      "datacoverage": 1,
      "id": "COOP:044166",
      "elevationUnit": "METERS",
      "longitude": -122.55
    },
    {
      "elevation": 982.1,
      "mindate": "1959-06-01",
      "maxdate": "1975-04-01",
      "latitude": 38.2,
      "name": "HUNTERS DAM, CA US",
      "datacoverage": 1,
      "id": "COOP:044170",
      "elevationUnit": "METERS",
      "longitude": -120.36667
    },
    {
      "elevation": 2139.7,
      "mindate": "1931-01-01",
      "maxdate": "2010-07-01",
      "latitude": 37.2275,
      "name": "HUNTINGTON LAKE, CA US",
      "datacoverage": 0.979,
      "id": "COOP:044176",
      "elevationUnit": "METERS",
      "longitude": -119.22056
    },
    {
      "elevation": 1338.1,
      "mindate": "1961-06-01",
      "maxdate": "2010-10-01",
      "latitude": 33.6755,
      "name": "HURKEY CREEK PARK, CA US",
      "datacoverage": 0.0192,
      "id": "COOP:044181",
      "elevationUnit": "METERS",
      "longitude": -116.6794
    },
    {
      "elevation": 116.1,
      "mindate": "1940-12-01",
      "maxdate": "1952-05-01",
      "latitude": 36.2,
      "name": "HURON, CA US",
      "datacoverage": 1,
      "id": "COOP:044187",
      "elevationUnit": "METERS",
      "longitude": -120.1
    },
    {
      "elevation": 389.5,
      "mindate": "1948-01-01",
      "maxdate": "2014-01-01",
      "latitude": 40.6161,
      "name": "HYAMPOM, CA US",
      "datacoverage": 0.192,
      "id": "COOP:044191",
      "elevationUnit": "METERS",
      "longitude": -123.4566
    },
    {
      "elevation": 381,
      "mindate": "1959-05-01",
      "maxdate": "1977-06-01",
      "latitude": 41.9,
      "name": "IDLEWILD HIGHWAY MNTNC S, CA US",
      "datacoverage": 0.9999,
      "id": "COOP:044202",
      "elevationUnit": "METERS",
      "longitude": -123.76667
    },
    {
      "elevation": 808,
      "mindate": "1931-01-01",
      "maxdate": "1976-12-01",
      "latitude": 36.41667,
      "name": "IDRIA, CA US",
      "datacoverage": 0.9982,
      "id": "COOP:044204",
      "elevationUnit": "METERS",
      "longitude": -120.66667
    },
    {
      "elevation": 1647.1,
      "mindate": "1948-01-01",
      "maxdate": "1952-07-01",
      "latitude": 33.75,
      "name": "IDYLLWILD 1 NE, CA US",
      "datacoverage": 0.956,
      "id": "COOP:044208",
      "elevationUnit": "METERS",
      "longitude": -116.7
    },
    {
      "elevation": 1639.8,
      "mindate": "1943-10-01",
      "maxdate": "2015-11-01",
      "latitude": 33.7572,
      "name": "IDYLLWILD FIRE DEPARTMENT, CA US",
      "datacoverage": 0.985,
      "id": "COOP:044211",
      "elevationUnit": "METERS",
      "longitude": -116.7066
    },
    {
      "elevation": -19.5,
      "mindate": "1931-01-01",
      "maxdate": "2015-11-01",
      "latitude": 32.8488,
      "name": "IMPERIAL, CA US",
      "datacoverage": 0.9971,
      "id": "COOP:044223",
      "elevationUnit": "METERS",
      "longitude": -115.5666
    },
    {
      "elevation": -16.8,
      "mindate": "1962-02-01",
      "maxdate": "1978-05-01",
      "latitude": 32.83464,
      "name": "IMPERIAL CO AIRPORT, CA US",
      "datacoverage": 1,
      "id": "COOP:044224",
      "elevationUnit": "METERS",
      "longitude": -115.57656
    },
    {
      "elevation": 64,
      "mindate": "1995-03-01",
      "maxdate": "1997-11-01",
      "latitude": 32.96667,
      "name": "IMPERIAL SAND DUNES, CA US",
      "datacoverage": 0.9984,
      "id": "COOP:044227",
      "elevationUnit": "METERS",
      "longitude": -115.18333
    },
    {
      "elevation": 1204,
      "mindate": "1931-01-01",
      "maxdate": "2015-11-01",
      "latitude": 36.798,
      "name": "INDEPENDENCE, CA US",
      "datacoverage": 0.9892,
      "id": "COOP:044232",
      "elevationUnit": "METERS",
      "longitude": -118.2036
    },
    {
      "elevation": 2799.9,
      "mindate": "1948-12-01",
      "maxdate": "1971-06-01",
      "latitude": 36.76667,
      "name": "INDEPENDENCE ONION V, CA US",
      "datacoverage": 0.789,
      "id": "COOP:044235",
      "elevationUnit": "METERS",
      "longitude": -118.33333
    },
    {
      "elevation": 412.1,
      "mindate": "1948-05-01",
      "maxdate": "1952-03-01",
      "latitude": 39.08333,
      "name": "INDIAN VALLEY, CA US",
      "datacoverage": 0.9359,
      "id": "COOP:044249",
      "elevationUnit": "METERS",
      "longitude": -122.56667
    },
    {
      "elevation": 1455.4,
      "mindate": "1948-08-01",
      "maxdate": "1949-12-01",
      "latitude": 41.71171,
      "name": "LAVA BEDS NAT MON, CA US",
      "datacoverage": 0.9989,
      "id": "COOP:044255",
      "elevationUnit": "METERS",
      "longitude": -121.5067
    },
    {
      "elevation": -6.4,
      "mindate": "1905-01-01",
      "maxdate": "2015-11-01",
      "latitude": 33.7086,
      "name": "INDIO FIRE STATION, CA US",
      "datacoverage": 0.9347,
      "id": "COOP:044259",
      "elevationUnit": "METERS",
      "longitude": -116.2152
    },
    {
      "elevation": 1470.1,
      "mindate": "1931-06-01",
      "maxdate": "1954-09-15",
      "latitude": 40,
      "name": "INSKIP INN, CA US",
      "datacoverage": 0.8691,
      "id": "COOP:044274",
      "elevationUnit": "METERS",
      "longitude": -121.53333
    },
    {
      "elevation": 740.7,
      "mindate": "1941-01-01",
      "maxdate": "2012-12-01",
      "latitude": 35.6513,
      "name": "INYOKERN, CA US",
      "datacoverage": 0.9109,
      "id": "COOP:044278",
      "elevationUnit": "METERS",
      "longitude": -117.8213
    },
    {
      "elevation": 680,
      "mindate": "1944-02-01",
      "maxdate": "1978-06-01",
      "latitude": 35.686254,
      "name": "CHINA LAKE NAF, CA US",
      "datacoverage": 0.988,
      "id": "COOP:044280",
      "elevationUnit": "METERS",
      "longitude": -117.690911
    },
    {
      "elevation": 85,
      "mindate": "1959-10-01",
      "maxdate": "1977-06-01",
      "latitude": 38.35,
      "name": "IONE, CA US",
      "datacoverage": 1,
      "id": "COOP:044283",
      "elevationUnit": "METERS",
      "longitude": -120.93333
    },
    {
      "elevation": 944.9,
      "mindate": "1939-11-01",
      "maxdate": "2007-08-01",
      "latitude": 39.118,
      "name": "IOWA HILL, CA US",
      "datacoverage": 0.9423,
      "id": "COOP:044288",
      "elevationUnit": "METERS",
      "longitude": -120.8405
    },
    {
      "elevation": 281,
      "mindate": "1935-01-01",
      "maxdate": "2015-11-01",
      "latitude": 34.1472,
      "name": "IRON MOUNTAIN, CA US",
      "datacoverage": 0.9969,
      "id": "COOP:044297",
      "elevationUnit": "METERS",
      "longitude": -115.1219
    },
    {
      "elevation": 164.6,
      "mindate": "2003-08-01",
      "maxdate": "2015-11-01",
      "latitude": 33.72,
      "name": "IRVINE RANCH, CA US",
      "datacoverage": 0.9594,
      "id": "COOP:044303",
      "elevationUnit": "METERS",
      "longitude": -117.723
    },
    {
      "elevation": 75.9,
      "mindate": "1931-01-01",
      "maxdate": "1943-07-01",
      "latitude": 38.1,
      "name": "JENNY LIND, CA US",
      "datacoverage": 0.9274,
      "id": "COOP:044351",
      "elevationUnit": "METERS",
      "longitude": -120.86667
    },
    {
      "elevation": 1621.2,
      "mindate": "1931-01-01",
      "maxdate": "2015-11-01",
      "latitude": 41.2706,
      "name": "JESS VALLEY, CA US",
      "datacoverage": 0.9882,
      "id": "COOP:044374",
      "elevationUnit": "METERS",
      "longitude": -120.29845
    },
    {
      "elevation": 1083,
      "mindate": "1949-05-01",
      "maxdate": "1949-06-02",
      "latitude": 35.38333,
      "name": "JOHANNESBURG, CA US",
      "datacoverage": 1,
      "id": "COOP:044387",
      "elevationUnit": "METERS",
      "longitude": -117.63333
    },
    {
      "elevation": 1427.1,
      "mindate": "1954-12-01",
      "maxdate": "1979-04-01",
      "latitude": 35.96667,
      "name": "JOHNSONDALE, CA US",
      "datacoverage": 0.9489,
      "id": "COOP:044389",
      "elevationUnit": "METERS",
      "longitude": -118.53333
    },
    {
      "elevation": 3,
      "mindate": "1955-08-01",
      "maxdate": "1959-09-01",
      "latitude": 38.18333,
      "name": "JOICE ISLAND, CA US",
      "datacoverage": 0.9799,
      "id": "COOP:044392",
      "elevationUnit": "METERS",
      "longitude": -122.05
    },
    {
      "elevation": 965.3,
      "mindate": "2008-10-01",
      "maxdate": "2015-11-01",
      "latitude": 34.3591,
      "name": "JOHNSON VALLEY, CA US",
      "datacoverage": 0.9886,
      "id": "COOP:044394",
      "elevationUnit": "METERS",
      "longitude": -116.5378
    },
    {
      "elevation": 781.2,
      "mindate": "1959-06-01",
      "maxdate": "2015-11-01",
      "latitude": 34.1471,
      "name": "JOSHUA TREE, CA US",
      "datacoverage": 0.3849,
      "id": "COOP:044405",
      "elevationUnit": "METERS",
      "longitude": -116.2747
    },
    {
      "elevation": 1064.1,
      "mindate": "1974-01-01",
      "maxdate": "1977-06-01",
      "latitude": 34.1,
      "name": "JOSHUA TREE 3 S, CA US",
      "datacoverage": 1,
      "id": "COOP:044407",
      "elevationUnit": "METERS",
      "longitude": -116.31667
    },
    {
      "elevation": 1284.7,
      "mindate": "1949-09-01",
      "maxdate": "2015-11-01",
      "latitude": 33.0763,
      "name": "JULIAN CDF, CA US",
      "datacoverage": 0.3804,
      "id": "COOP:044412",
      "elevationUnit": "METERS",
      "longitude": -116.5925
    },
    {
      "elevation": 1286.9,
      "mindate": "1929-01-01",
      "maxdate": "1949-04-02",
      "latitude": 33.06667,
      "name": "JULIAN MANZANITA RAN, CA US",
      "datacoverage": 0.9714,
      "id": "COOP:044415",
      "elevationUnit": "METERS",
      "longitude": -116.63333
    },
    {
      "elevation": 1112.5,
      "mindate": "1949-09-01",
      "maxdate": "1988-08-01",
      "latitude": 33.1,
      "name": "JULIAN WYNOLA, CA US",
      "datacoverage": 0.9957,
      "id": "COOP:044418",
      "elevationUnit": "METERS",
      "longitude": -116.65
    },
    {
      "elevation": 688.8,
      "mindate": "1941-06-01",
      "maxdate": "2015-11-01",
      "latitude": 34.4908,
      "name": "JUNCAL DAM, CA US",
      "datacoverage": 0.9922,
      "id": "COOP:044422",
      "elevationUnit": "METERS",
      "longitude": -119.5069
    },
    {
      "elevation": 1321,
      "mindate": "1946-01-01",
      "maxdate": "1979-01-01",
      "latitude": 34.16667,
      "name": "KEE RANCH, CA US",
      "datacoverage": 0.9269,
      "id": "COOP:044467",
      "elevationUnit": "METERS",
      "longitude": -116.53333
    },
    {
      "elevation": 548.9,
      "mindate": "1939-12-01",
      "maxdate": "1973-07-01",
      "latitude": 38.66667,
      "name": "KELLOGG, CA US",
      "datacoverage": 0.9133,
      "id": "COOP:044480",
      "elevationUnit": "METERS",
      "longitude": -122.66667
    },
    {
      "elevation": 609.6,
      "mindate": "1972-08-01",
      "maxdate": "2015-11-01",
      "latitude": 38.8088,
      "name": "KELSEY 1 N, CA US",
      "datacoverage": 0.8039,
      "id": "COOP:044484",
      "elevationUnit": "METERS",
      "longitude": -120.8208
    },
    {
      "elevation": 424,
      "mindate": "1932-01-01",
      "maxdate": "1975-02-01",
      "latitude": 38.98333,
      "name": "KELSEYVILLE, CA US",
      "datacoverage": 0.9982,
      "id": "COOP:044488",
      "elevationUnit": "METERS",
      "longitude": -122.83333
    },
    {
      "elevation": 451.1,
      "mindate": "1956-01-01",
      "maxdate": "1962-08-09",
      "latitude": 38.93333,
      "name": "KELSEYVILLE 4 SW, CA US",
      "datacoverage": 0.0484,
      "id": "COOP:044493",
      "elevationUnit": "METERS",
      "longitude": -122.88333
    },
    {
      "elevation": 458.1,
      "mindate": "1931-01-01",
      "maxdate": "1947-06-01",
      "latitude": 38.36667,
      "name": "KENNEDY MINE, CA US",
      "datacoverage": 1,
      "id": "COOP:044497",
      "elevationUnit": "METERS",
      "longitude": -120.78333
    },
    {
      "elevation": 222.5,
      "mindate": "1931-01-01",
      "maxdate": "1943-05-01",
      "latitude": 40.75,
      "name": "KENNETT, CA US",
      "datacoverage": 0.9868,
      "id": "COOP:044498",
      "elevationUnit": "METERS",
      "longitude": -122.4
    },
    {
      "elevation": 44.2,
      "mindate": "1931-01-01",
      "maxdate": "2015-11-01",
      "latitude": 37.9566,
      "name": "KENTFIELD, CA US",
      "datacoverage": 0.9922,
      "id": "COOP:044500",
      "elevationUnit": "METERS",
      "longitude": -122.5447
    },
    {
      "elevation": 53.9,
      "mindate": "1948-01-01",
      "maxdate": "1985-02-01",
      "latitude": 37.68333,
      "name": "KERLINGER, CA US",
      "datacoverage": 1,
      "id": "COOP:044508",
      "elevationUnit": "METERS",
      "longitude": -121.43333
    },
    {
      "elevation": 1113.1,
      "mindate": "1952-10-01",
      "maxdate": "1966-08-01",
      "latitude": 35.95,
      "name": "KERN RIVER INTAKE 3, CA US",
      "datacoverage": 0.994,
      "id": "COOP:044518",
      "elevationUnit": "METERS",
      "longitude": -118.48333
    },
    {
      "elevation": 295.7,
      "mindate": "1931-01-01",
      "maxdate": "1991-08-01",
      "latitude": 35.46667,
      "name": "KERN RIVER PH 1, CA US",
      "datacoverage": 1,
      "id": "COOP:044520",
      "elevationUnit": "METERS",
      "longitude": -118.78333
    },
    {
      "elevation": 823.9,
      "mindate": "1946-10-01",
      "maxdate": "2012-12-01",
      "latitude": 35.7831,
      "name": "KERN RIVER PH 3, CA US",
      "datacoverage": 0.9433,
      "id": "COOP:044523",
      "elevationUnit": "METERS",
      "longitude": -118.4389
    },
    {
      "elevation": 833,
      "mindate": "1931-01-01",
      "maxdate": "1956-04-01",
      "latitude": 35.71667,
      "name": "WOFFORD HEIGHTS KERNVILLE, CA US",
      "datacoverage": 1,
      "id": "COOP:044527",
      "elevationUnit": "METERS",
      "longitude": -118.45
    },
    {
      "elevation": 73.2,
      "mindate": "1955-02-01",
      "maxdate": "2015-11-01",
      "latitude": 36.0067,
      "name": "KETTLEMAN CITY, CA US",
      "datacoverage": 0.5398,
      "id": "COOP:044534",
      "elevationUnit": "METERS",
      "longitude": -119.96
    },
    {
      "elevation": 154.8,
      "mindate": "1941-01-01",
      "maxdate": "2001-09-01",
      "latitude": 36.0725,
      "name": "KETTLEMAN STATION, CA US",
      "datacoverage": 0.9877,
      "id": "COOP:044536",
      "elevationUnit": "METERS",
      "longitude": -120.08778
    },
    {
      "elevation": 808,
      "mindate": "1959-05-01",
      "maxdate": "1977-06-01",
      "latitude": 40.68333,
      "name": "KILARC PH, CA US",
      "datacoverage": 0.9999,
      "id": "COOP:044544",
      "elevationUnit": "METERS",
      "longitude": -121.86667
    },
    {
      "elevation": 97.5,
      "mindate": "1931-01-01",
      "maxdate": "2015-11-01",
      "latitude": 36.2069,
      "name": "KING CITY, CA US",
      "datacoverage": 0.9313,
      "id": "COOP:044555",
      "elevationUnit": "METERS",
      "longitude": -121.1377
    },
    {
      "elevation": 110,
      "mindate": "1940-03-01",
      "maxdate": "1949-08-01",
      "latitude": 36.23333,
      "name": "KING CITY AIRPORT, CA US",
      "datacoverage": 0.798,
      "id": "COOP:044558",
      "elevationUnit": "METERS",
      "longitude": -121.11667
    },
    {
      "elevation": 752.9,
      "mindate": "1931-01-01",
      "maxdate": "1942-09-01",
      "latitude": 35.78333,
      "name": "KINGSTON, CA US",
      "datacoverage": 1,
      "id": "COOP:044568",
      "elevationUnit": "METERS",
      "longitude": -115.63333
    },
    {
      "elevation": 8.5,
      "mindate": "1948-01-01",
      "maxdate": "2007-05-01",
      "latitude": 41.57861,
      "name": "KLAMATH, CA US",
      "datacoverage": 0.9774,
      "id": "COOP:044577",
      "elevationUnit": "METERS",
      "longitude": -124.07472
    },
    {
      "elevation": 811.1,
      "mindate": "1948-01-01",
      "maxdate": "1952-06-01",
      "latitude": 40.66667,
      "name": "KNEELAND 2, CA US",
      "datacoverage": 0.7782,
      "id": "COOP:044586",
      "elevationUnit": "METERS",
      "longitude": -123.91667
    },
    {
      "elevation": 744.6,
      "mindate": "1954-06-01",
      "maxdate": "2014-01-01",
      "latitude": 40.6422,
      "name": "KNEELAND 10 SSE, CA US",
      "datacoverage": 0.066,
      "id": "COOP:044587",
      "elevationUnit": "METERS",
      "longitude": -123.9149
    },
    {
      "elevation": 650.1,
      "mindate": "1952-05-01",
      "maxdate": "1954-07-01",
      "latitude": 40.61667,
      "name": "KNEELAND 9 S, CA US",
      "datacoverage": 0.1106,
      "id": "COOP:044588",
      "elevationUnit": "METERS",
      "longitude": -123.95
    },
    {
      "elevation": 103.9,
      "mindate": "1959-08-01",
      "maxdate": "1977-06-01",
      "latitude": 37.8,
      "name": "KNIGHTS FERRY 2 SE, CA US",
      "datacoverage": 0.9953,
      "id": "COOP:044590",
      "elevationUnit": "METERS",
      "longitude": -120.65
    },
    {
      "elevation": 9.1,
      "mindate": "1893-01-01",
      "maxdate": "1958-05-01",
      "latitude": 38.8,
      "name": "KNIGHTS LANDING, CA US",
      "datacoverage": 0.9987,
      "id": "COOP:044591",
      "elevationUnit": "METERS",
      "longitude": -121.71667
    },
    {
      "elevation": 146,
      "mindate": "1964-01-01",
      "maxdate": "1969-02-01",
      "latitude": 38.61667,
      "name": "KNIGHTS VALLEY, CA US",
      "datacoverage": 1,
      "id": "COOP:044593",
      "elevationUnit": "METERS",
      "longitude": -122.66667
    },
    {
      "elevation": 46,
      "mindate": "1959-11-01",
      "maxdate": "1974-12-01",
      "latitude": 40.86667,
      "name": "KORBEL, CA US",
      "datacoverage": 0.9999,
      "id": "COOP:044602",
      "elevationUnit": "METERS",
      "longitude": -123.95
    },
    {
      "elevation": 1281.1,
      "mindate": "1948-01-01",
      "maxdate": "1949-05-01",
      "latitude": 38.78333,
      "name": "KYBURZ, CA US",
      "datacoverage": 0.7654,
      "id": "COOP:044613",
      "elevationUnit": "METERS",
      "longitude": -120.3
    },
    {
      "elevation": 1738.9,
      "mindate": "1948-01-01",
      "maxdate": "1980-05-01",
      "latitude": 38.8,
      "name": "KYBURZ STRAWBERRY, CA US",
      "datacoverage": 0.8893,
      "id": "COOP:044616",
      "elevationUnit": "METERS",
      "longitude": -120.15
    },
    {
      "elevation": 214,
      "mindate": "1942-01-01",
      "maxdate": "1955-12-01",
      "latitude": 33.95,
      "name": "LA BREA CANYON HUNT, CA US",
      "datacoverage": 0.9763,
      "id": "COOP:044620",
      "elevationUnit": "METERS",
      "longitude": -117.83333
    },
    {
      "elevation": 470.9,
      "mindate": "1931-01-01",
      "maxdate": "2010-12-01",
      "latitude": 34.2222,
      "name": "LA CRESCENTA FC251C, CA US",
      "datacoverage": 0.9469,
      "id": "COOP:044628",
      "elevationUnit": "METERS",
      "longitude": -118.2377
    },
    {
      "elevation": 164.9,
      "mindate": "1956-01-01",
      "maxdate": "1977-06-01",
      "latitude": 37.91667,
      "name": "LAFAYETTE 2 NNE, CA US",
      "datacoverage": 1,
      "id": "COOP:044633",
      "elevationUnit": "METERS",
      "longitude": -122.1
    },
    {
      "elevation": 88.1,
      "mindate": "1956-01-01",
      "maxdate": "1958-06-12",
      "latitude": 37.88333,
      "name": "LA FAYETTE FIRE STATION, CA US",
      "datacoverage": 0.0491,
      "id": "COOP:044635",
      "elevationUnit": "METERS",
      "longitude": -122.11667
    },
    {
      "elevation": 13.4,
      "mindate": "1931-01-01",
      "maxdate": "2008-07-01",
      "latitude": 33.5453,
      "name": "LAGUNA BEACH, CA US",
      "datacoverage": 0.9914,
      "id": "COOP:044647",
      "elevationUnit": "METERS",
      "longitude": -117.7813
    },
    {
      "elevation": 64,
      "mindate": "1948-01-01",
      "maxdate": "2008-06-01",
      "latitude": 33.55667,
      "name": "LAGUNA BEACH NUMBER 2, CA US",
      "datacoverage": 1,
      "id": "COOP:044650",
      "elevationUnit": "METERS",
      "longitude": -117.80056
    },
    {
      "elevation": 228.9,
      "mindate": "1950-02-01",
      "maxdate": "1977-09-01",
      "latitude": 37.31667,
      "name": "LA HONDA, CA US",
      "datacoverage": 0.9971,
      "id": "COOP:044660",
      "elevationUnit": "METERS",
      "longitude": -122.26667
    },
    {
      "elevation": 1586.5,
      "mindate": "1931-01-01",
      "maxdate": "2009-05-01",
      "latitude": 34.2466,
      "name": "LAKE ARROWHEAD, CA US",
      "datacoverage": 0.9001,
      "id": "COOP:044671",
      "elevationUnit": "METERS",
      "longitude": -117.1883
    },
    {
      "elevation": 138.7,
      "mindate": "2005-06-01",
      "maxdate": "2008-07-01",
      "latitude": 38.57944,
      "name": "LAKE BERRYESSA, CA US",
      "datacoverage": 0.9997,
      "id": "COOP:044673",
      "elevationUnit": "METERS",
      "longitude": -122.25
    },
    {
      "elevation": 1406,
      "mindate": "1931-01-01",
      "maxdate": "1960-10-01",
      "latitude": 41.63333,
      "name": "LAKE CITY, CA US",
      "datacoverage": 0.8911,
      "id": "COOP:044675",
      "elevationUnit": "METERS",
      "longitude": -120.21667
    },
    {
      "elevation": 1421,
      "mindate": "1931-01-01",
      "maxdate": "1957-10-01",
      "latitude": 37.96667,
      "name": "LAKE ELEANOR, CA US",
      "datacoverage": 0.9938,
      "id": "COOP:044679",
      "elevationUnit": "METERS",
      "longitude": -119.88333
    },
    {
      "elevation": 426.1,
      "mindate": "1998-06-01",
      "maxdate": "2007-08-01",
      "latitude": 40.8988,
      "name": "LAKEHEAD, CA US",
      "datacoverage": 0.9278,
      "id": "COOP:044683",
      "elevationUnit": "METERS",
      "longitude": -122.3913
    },
    {
      "elevation": 232.9,
      "mindate": "1972-05-01",
      "maxdate": "2014-01-01",
      "latitude": 39.203,
      "name": "LAKE MENDOCINO DAM, CA US",
      "datacoverage": 0.0255,
      "id": "COOP:044689",
      "elevationUnit": "METERS",
      "longitude": -123.185
    },
    {
      "elevation": 964.1,
      "mindate": "1948-01-01",
      "maxdate": "1969-12-01",
      "latitude": 40.01667,
      "name": "LAKE MOUNTAIN, CA US",
      "datacoverage": 1,
      "id": "COOP:044690",
      "elevationUnit": "METERS",
      "longitude": -123.4
    },
    {
      "elevation": 580,
      "mindate": "1931-01-01",
      "maxdate": "1949-12-18",
      "latitude": 39.41667,
      "name": "LAKE PILLSBURY, CA US",
      "datacoverage": 0.8201,
      "id": "COOP:044697",
      "elevationUnit": "METERS",
      "longitude": -122.96667
    },
    {
      "elevation": 534,
      "mindate": "1964-02-01",
      "maxdate": "1970-06-01",
      "latitude": 39.41667,
      "name": "LAKE PILLSBURY 2, CA US",
      "datacoverage": 0.9877,
      "id": "COOP:044698",
      "elevationUnit": "METERS",
      "longitude": -122.98333
    },
    {
      "elevation": 400.8,
      "mindate": "1931-07-01",
      "maxdate": "2001-06-01",
      "latitude": 39.03333,
      "name": "LAKEPORT, CA US",
      "datacoverage": 0.9738,
      "id": "COOP:044701",
      "elevationUnit": "METERS",
      "longitude": -122.91667
    },
    {
      "elevation": 415.1,
      "mindate": "1956-01-01",
      "maxdate": "1964-01-01",
      "latitude": 39.03333,
      "name": "LAKEPORT SOIL CONSERVATION SERVICE, CA US",
      "datacoverage": 0.0568,
      "id": "COOP:044703",
      "elevationUnit": "METERS",
      "longitude": -122.91667
    },
    {
      "elevation": 2763,
      "mindate": "1931-01-01",
      "maxdate": "2009-09-01",
      "latitude": 37.213,
      "name": "LAKE SABRINA, CA US",
      "datacoverage": 0.6042,
      "id": "COOP:044705",
      "elevationUnit": "METERS",
      "longitude": -118.6136
    },
    {
      "elevation": 327.7,
      "mindate": "1972-07-01",
      "maxdate": "1981-12-31",
      "latitude": 40.86667,
      "name": "LAKESHORE NUMBER 2, CA US",
      "datacoverage": 0.0445,
      "id": "COOP:044708",
      "elevationUnit": "METERS",
      "longitude": -122.38333
    },
    {
      "elevation": 328.9,
      "mindate": "1946-07-01",
      "maxdate": "1972-07-01",
      "latitude": 40.86667,
      "name": "LAKESHORE 2, CA US",
      "datacoverage": 0.9999,
      "id": "COOP:044709",
      "elevationUnit": "METERS",
      "longitude": -122.38333
    },
    {
      "elevation": 210.3,
      "mindate": "1967-01-01",
      "maxdate": "2015-11-01",
      "latitude": 32.8536,
      "name": "LAKESIDE 2 E, CA US",
      "datacoverage": 0.9847,
      "id": "COOP:044710",
      "elevationUnit": "METERS",
      "longitude": -116.8947
    },
    {
      "elevation": 210.3,
      "mindate": "1953-03-01",
      "maxdate": "1966-12-01",
      "latitude": 32.8536,
      "name": "LAKESIDE 2 E, CA US",
      "datacoverage": 0.9937,
      "id": "COOP:044711",
      "elevationUnit": "METERS",
      "longitude": -116.8947
    },
    {
      "elevation": 57,
      "mindate": "1962-10-01",
      "maxdate": "2015-11-01",
      "latitude": 38.492,
      "name": "LAKE SOLANO, CA US",
      "datacoverage": 0.9938,
      "id": "COOP:044712",
      "elevationUnit": "METERS",
      "longitude": -122.0039
    },
    {
      "elevation": 1571.5,
      "mindate": "1931-01-01",
      "maxdate": "2003-05-01",
      "latitude": 39.31833,
      "name": "LAKE SPAULDING, CA US",
      "datacoverage": 0.9943,
      "id": "COOP:044713",
      "elevationUnit": "METERS",
      "longitude": -120.63917
    },
    {
      "elevation": 1562.1,
      "mindate": "1955-07-01",
      "maxdate": "1971-09-01",
      "latitude": 39.33333,
      "name": "LAKE SPAULDING DAM, CA US",
      "datacoverage": 0.4974,
      "id": "COOP:044714",
      "elevationUnit": "METERS",
      "longitude": -120.63333
    },
    {
      "elevation": 61,
      "mindate": "1940-09-01",
      "maxdate": "1949-12-01",
      "latitude": 39.6,
      "name": "LAKE WILENOR, CA US",
      "datacoverage": 0.875,
      "id": "COOP:044722",
      "elevationUnit": "METERS",
      "longitude": -121.53333
    },
    {
      "elevation": 457.2,
      "mindate": "1948-01-01",
      "maxdate": "1992-11-01",
      "latitude": 33.16667,
      "name": "LAKE WOHLFORD, CA US",
      "datacoverage": 1,
      "id": "COOP:044726",
      "elevationUnit": "METERS",
      "longitude": -117
    },
    {
      "elevation": 161.5,
      "mindate": "1934-03-01",
      "maxdate": "2006-02-01",
      "latitude": 32.7675,
      "name": "LA MESA, CA US",
      "datacoverage": 0.9838,
      "id": "COOP:044735",
      "elevationUnit": "METERS",
      "longitude": -117.0233
    },
    {
      "elevation": 200.9,
      "mindate": "1953-01-01",
      "maxdate": "1957-12-01",
      "latitude": 32.78333,
      "name": "LA MESA 1 NE, CA US",
      "datacoverage": 0.8334,
      "id": "COOP:044736",
      "elevationUnit": "METERS",
      "longitude": -117
    },
    {
      "elevation": 732.1,
      "mindate": "1945-01-01",
      "maxdate": "1972-10-01",
      "latitude": 34.68333,
      "name": "LANCASTER, CA US",
      "datacoverage": 0.997,
      "id": "COOP:044747",
      "elevationUnit": "METERS",
      "longitude": -118.11667
    }
  ]
}
