{
  "metadata": {
    "resultset": {
      "offset": 63000,
      "count": 154115,
      "limit": 100
    }
  },
  "results": [
    {
      "elevation": 25,
      "mindate": "1975-04-03",
      "maxdate": "2025-03-06",
      "latitude": 22.2,
      "name": "TAMPICO TAMPS, MX",
      "datacoverage": 0.9162,
      "id": "GHCND:MXM00076548",
      "elevationUnit": "METERS",
      "longitude": -97.85
    },
    {
      "elevation": 962.9,
      "mindate": "1968-01-01",
      "maxdate": "2025-03-06",
      "latitude": 21.4833,
      "name": "TEPIC OBS, MX",
      "datacoverage": 0.879,
      "id": "GHCND:MXM00076556",
      "elevationUnit": "METERS",
      "longitude": -104.8833
    },
    {
      "elevation": 1862.9,
      "mindate": "1974-03-14",
      "maxdate": "2025-03-06",
      "latitude": 21.705,
      "name": "JESUS TERAN INTERNATIONAL, MX",
      "datacoverage": 0.942,
      "id": "GHCND:MXM00076571",
      "elevationUnit": "METERS",
      "longitude": -102.318
    },
    {
      "elevation": 1942,
      "mindate": "2014-07-01",
      "maxdate": "2025-03-06",
      "latitude": 21.35,
      "name": "LAGOS DE MORENO JAL., MX",
      "datacoverage": 0.3979,
      "id": "GHCND:MXM00076573",
      "elevationUnit": "METERS",
      "longitude": -101.917
    },
    {
      "elevation": 1999,
      "mindate": "1978-01-31",
      "maxdate": "2025-03-06",
      "latitude": 21,
      "name": "GUANAJUATO, MX",
      "datacoverage": 0.7994,
      "id": "GHCND:MXM00076577",
      "elevationUnit": "METERS",
      "longitude": -101.283
    },
    {
      "elevation": 983,
      "mindate": "1975-04-01",
      "maxdate": "2025-03-06",
      "latitude": 21.933,
      "name": "RIO VERDE S.L.P., MX",
      "datacoverage": 1,
      "id": "GHCND:MXM00076581",
      "elevationUnit": "METERS",
      "longitude": -99.983
    },
    {
      "elevation": 132,
      "mindate": "1980-12-01",
      "maxdate": "2025-03-06",
      "latitude": 21.317,
      "name": "MATLAPA S.L.P., MX",
      "datacoverage": 0.8703,
      "id": "GHCND:MXM00076585",
      "elevationUnit": "METERS",
      "longitude": -98.817
    },
    {
      "elevation": 2.4,
      "mindate": "1988-09-01",
      "maxdate": "2025-03-06",
      "latitude": 21.2833,
      "name": "PROGRESO, MX",
      "datacoverage": 0.982,
      "id": "GHCND:MXM00076593",
      "elevationUnit": "METERS",
      "longitude": -89.65
    },
    {
      "elevation": 1583,
      "mindate": "1954-01-01",
      "maxdate": "2025-03-06",
      "latitude": 20.72,
      "name": "GUADALAJARA, MX",
      "datacoverage": 0.7328,
      "id": "GHCND:MXM00076612",
      "elevationUnit": "METERS",
      "longitude": -103.38
    },
    {
      "elevation": 1919,
      "mindate": "1977-07-01",
      "maxdate": "2025-03-06",
      "latitude": 20.617,
      "name": "QUERETARO INTERCONTINENTAL, MX",
      "datacoverage": 0.6796,
      "id": "GHCND:MXM00076625",
      "elevationUnit": "METERS",
      "longitude": -100.186
    },
    {
      "elevation": 2435,
      "mindate": "1974-12-01",
      "maxdate": "2025-03-06",
      "latitude": 20.133,
      "name": "PACHUCA HGO., MX",
      "datacoverage": 0.5645,
      "id": "GHCND:MXM00076632",
      "elevationUnit": "METERS",
      "longitude": -98.75
    },
    {
      "elevation": 2181,
      "mindate": "1977-08-01",
      "maxdate": "2025-03-06",
      "latitude": 20.083,
      "name": "TULANCINGO HGO., MX",
      "datacoverage": 0.9986,
      "id": "GHCND:MXM00076634",
      "elevationUnit": "METERS",
      "longitude": -98.367
    },
    {
      "elevation": 28,
      "mindate": "1973-01-02",
      "maxdate": "2025-03-06",
      "latitude": 20.95,
      "name": "TUXPAN.VER., MX",
      "datacoverage": 0.778,
      "id": "GHCND:MXM00076640",
      "elevationUnit": "METERS",
      "longitude": -97.4
    },
    {
      "elevation": 9,
      "mindate": "1973-01-01",
      "maxdate": "2025-03-06",
      "latitude": 20.983,
      "name": "AEROP.INTERNACIONAL, MX",
      "datacoverage": 0.9789,
      "id": "GHCND:MXM00076644",
      "elevationUnit": "METERS",
      "longitude": -89.65
    },
    {
      "elevation": 27,
      "mindate": "1974-08-20",
      "maxdate": "2025-03-06",
      "latitude": 20.683,
      "name": "VALLADOLID YUC., MX",
      "datacoverage": 0.9058,
      "id": "GHCND:MXM00076647",
      "elevationUnit": "METERS",
      "longitude": -88.2
    },
    {
      "elevation": 3,
      "mindate": "1976-05-01",
      "maxdate": "2025-03-06",
      "latitude": 19.05,
      "name": "MANZANILLO, MX",
      "datacoverage": 0.827,
      "id": "GHCND:MXM00076654",
      "elevationUnit": "METERS",
      "longitude": -104.317
    },
    {
      "elevation": 1515,
      "mindate": "1981-01-01",
      "maxdate": "2025-03-06",
      "latitude": 19.717,
      "name": "CIUDAD GUZMAN JAL., MX",
      "datacoverage": 0.8488,
      "id": "GHCND:MXM00076656",
      "elevationUnit": "METERS",
      "longitude": -103.467
    },
    {
      "elevation": 751.9,
      "mindate": "1973-01-01",
      "maxdate": "2025-03-06",
      "latitude": 19.277,
      "name": "COLIMA, MX",
      "datacoverage": 0.687,
      "id": "GHCND:MXM00076658",
      "elevationUnit": "METERS",
      "longitude": -103.577
    },
    {
      "elevation": 1540,
      "mindate": "1947-01-01",
      "maxdate": "2025-03-06",
      "latitude": 20,
      "name": "ZAMORA, MX",
      "datacoverage": 0.6991,
      "id": "GHCND:MXM00076662",
      "elevationUnit": "METERS",
      "longitude": -102.28
    },
    {
      "elevation": 1913,
      "mindate": "1977-04-01",
      "maxdate": "2025-03-06",
      "latitude": 19.7,
      "name": "MORELIA MICH., MX",
      "datacoverage": 1,
      "id": "GHCND:MXM00076665",
      "elevationUnit": "METERS",
      "longitude": -101.183
    },
    {
      "elevation": 2725.8,
      "mindate": "1968-01-01",
      "maxdate": "2025-03-06",
      "latitude": 19.2833,
      "name": "TOLUCA OBS, MX",
      "datacoverage": 0.898,
      "id": "GHCND:MXM00076675",
      "elevationUnit": "METERS",
      "longitude": -99.7
    },
    {
      "elevation": 2303,
      "mindate": "1973-01-02",
      "maxdate": "2025-03-06",
      "latitude": 19.4,
      "name": "MEXICO CITY, MX",
      "datacoverage": 0.6146,
      "id": "GHCND:MXM00076680",
      "elevationUnit": "METERS",
      "longitude": -99.183
    },
    {
      "elevation": 2278,
      "mindate": "2007-06-01",
      "maxdate": "2019-04-12",
      "latitude": 19.317,
      "name": "GEOGRAFIA UNAM, MX",
      "datacoverage": 0.8395,
      "id": "GHCND:MXM00076681",
      "elevationUnit": "METERS",
      "longitude": -99.183
    },
    {
      "elevation": 2229.9,
      "mindate": "1961-10-01",
      "maxdate": "2025-03-06",
      "latitude": 19.3167,
      "name": "TLAXCALA DE XICONTECATL DGE, MX",
      "datacoverage": 0.9477,
      "id": "GHCND:MXM00076683",
      "elevationUnit": "METERS",
      "longitude": -98.2333
    },
    {
      "elevation": 2243.6,
      "mindate": "1975-04-04",
      "maxdate": "2025-03-06",
      "latitude": 19.158,
      "name": "HERMANOS SERDAN INTERNATIONAL, MX",
      "datacoverage": 0.8146,
      "id": "GHCND:MXM00076685",
      "elevationUnit": "METERS",
      "longitude": -98.371
    },
    {
      "elevation": 1389,
      "mindate": "1974-07-30",
      "maxdate": "2025-03-06",
      "latitude": 19.55,
      "name": "JALAPA VER., MX",
      "datacoverage": 0.9135,
      "id": "GHCND:MXM00076687",
      "elevationUnit": "METERS",
      "longitude": -96.917
    },
    {
      "elevation": 16,
      "mindate": "1973-09-01",
      "maxdate": "2025-03-06",
      "latitude": 19.15,
      "name": "HACIENDA YLANG YLANG VERACRUZ, MX",
      "datacoverage": 0.9502,
      "id": "GHCND:MXM00076692",
      "elevationUnit": "METERS",
      "longitude": -96.117
    },
    {
      "elevation": 10.4,
      "mindate": "1975-04-21",
      "maxdate": "2025-03-06",
      "latitude": 19.817,
      "name": "INGENIERO ALBERTO ACUNA ONGAY, MX",
      "datacoverage": 0.9748,
      "id": "GHCND:MXM00076695",
      "elevationUnit": "METERS",
      "longitude": -90.5
    },
    {
      "elevation": 9.8,
      "mindate": "1952-08-01",
      "maxdate": "2025-03-06",
      "latitude": 19.5667,
      "name": "FELIPE CARRILLO PUERTO OBS, MX",
      "datacoverage": 0.8769,
      "id": "GHCND:MXM00076698",
      "elevationUnit": "METERS",
      "longitude": -88.05
    },
    {
      "elevation": 35,
      "mindate": "1974-07-01",
      "maxdate": "2003-10-10",
      "latitude": 18.717,
      "name": "ISLA SOCORRO COL.",
      "datacoverage": 0.8075,
      "id": "GHCND:MXM00076723",
      "elevationUnit": "METERS",
      "longitude": -110.95
    },
    {
      "elevation": 1618,
      "mindate": "1955-04-01",
      "maxdate": "2025-03-06",
      "latitude": 18.883,
      "name": "CUERNAVACA, MX",
      "datacoverage": 0.7258,
      "id": "GHCND:MXM00076726",
      "elevationUnit": "METERS",
      "longitude": -99.233
    },
    {
      "elevation": 1259,
      "mindate": "1975-04-26",
      "maxdate": "2025-03-06",
      "latitude": 18.85,
      "name": "ORIZABA, MX",
      "datacoverage": 0.7851,
      "id": "GHCND:MXM00076737",
      "elevationUnit": "METERS",
      "longitude": -97.1
    },
    {
      "elevation": 22,
      "mindate": "1975-09-22",
      "maxdate": "2025-03-06",
      "latitude": 18.133,
      "name": "COATZACOALCOS VER., MX",
      "datacoverage": 0.9669,
      "id": "GHCND:MXM00076741",
      "elevationUnit": "METERS",
      "longitude": -94.417
    },
    {
      "elevation": 16,
      "mindate": "1975-09-06",
      "maxdate": "2025-03-06",
      "latitude": 17.983,
      "name": "VILLAHERMOSA TAB., MX",
      "datacoverage": 0.7348,
      "id": "GHCND:MXM00076743",
      "elevationUnit": "METERS",
      "longitude": -92.933
    },
    {
      "elevation": 11.9,
      "mindate": "1973-01-01",
      "maxdate": "2025-03-06",
      "latitude": 18.505,
      "name": "CHETUMAL INTERNATIONAL, MX",
      "datacoverage": 0.9847,
      "id": "GHCND:MXM00076750",
      "elevationUnit": "METERS",
      "longitude": -88.327
    },
    {
      "elevation": 1265,
      "mindate": "1975-04-03",
      "maxdate": "2025-03-06",
      "latitude": 17.55,
      "name": "CHILPANCINGO RO., MX",
      "datacoverage": 0.9643,
      "id": "GHCND:MXM00076762",
      "elevationUnit": "METERS",
      "longitude": -99.5
    },
    {
      "elevation": 1583.7,
      "mindate": "1976-01-01",
      "maxdate": "2025-03-06",
      "latitude": 17.8,
      "name": "HUAJUAPAN DE LEON DGE, MX",
      "datacoverage": 0.7826,
      "id": "GHCND:MXM00076773",
      "elevationUnit": "METERS",
      "longitude": -97.7667
    },
    {
      "elevation": 1518,
      "mindate": "1950-04-01",
      "maxdate": "2025-03-06",
      "latitude": 17.05,
      "name": "OAXACA OAX., MX",
      "datacoverage": 0.5429,
      "id": "GHCND:MXM00076775",
      "elevationUnit": "METERS",
      "longitude": -96.717
    },
    {
      "elevation": 3,
      "mindate": "1973-01-01",
      "maxdate": "2025-03-06",
      "latitude": 16.833,
      "name": "ACAPULCO GRO.",
      "datacoverage": 0.9288,
      "id": "GHCND:MXM00076805",
      "elevationUnit": "METERS",
      "longitude": -99.933
    },
    {
      "elevation": 9.8,
      "mindate": "1968-06-01",
      "maxdate": "2025-03-06",
      "latitude": 16.1667,
      "name": "SALINA CRUZ",
      "datacoverage": 0.4323,
      "id": "GHCND:MXM00076833",
      "elevationUnit": "METERS",
      "longitude": -95.2
    },
    {
      "elevation": 1931.8,
      "mindate": "1961-01-01",
      "maxdate": "2025-03-06",
      "latitude": 28.95,
      "name": "TEMOSACHI OBS, MX",
      "datacoverage": 0.8954,
      "id": "GHCND:MXM00076840",
      "elevationUnit": "METERS",
      "longitude": -107.8167
    },
    {
      "elevation": 1051.9,
      "mindate": "1973-01-01",
      "maxdate": "2025-03-06",
      "latitude": 16.77,
      "name": "FRANCISCO SARABIA, MX",
      "datacoverage": 0.9938,
      "id": "GHCND:MXM00076843",
      "elevationUnit": "METERS",
      "longitude": -93.341
    },
    {
      "elevation": 2116,
      "mindate": "1974-09-08",
      "maxdate": "2025-03-06",
      "latitude": 16.75,
      "name": "SN. CRISTOBAL LAS CASAS CHIS, MX",
      "datacoverage": 0.8149,
      "id": "GHCND:MXM00076845",
      "elevationUnit": "METERS",
      "longitude": -92.633
    },
    {
      "elevation": 1646,
      "mindate": "1974-12-01",
      "maxdate": "2025-03-06",
      "latitude": 16.25,
      "name": "COMITAN CHIS., MX",
      "datacoverage": 0.9173,
      "id": "GHCND:MXM00076848",
      "elevationUnit": "METERS",
      "longitude": -92.133
    },
    {
      "elevation": 46,
      "mindate": "1950-05-01",
      "maxdate": "2025-03-06",
      "latitude": 15.683,
      "name": "PUERTO ANGEL OAX., MX",
      "datacoverage": 0.5997,
      "id": "GHCND:MXM00076855",
      "elevationUnit": "METERS",
      "longitude": -96.483
    },
    {
      "elevation": 118,
      "mindate": "1974-12-01",
      "maxdate": "2025-03-06",
      "latitude": 14.917,
      "name": "TAPACHULA CHIS, MX",
      "datacoverage": 0.9577,
      "id": "GHCND:MXM00076903",
      "elevationUnit": "METERS",
      "longitude": -92.25
    },
    {
      "elevation": 1639.8,
      "mindate": "1932-01-01",
      "maxdate": "1988-12-31",
      "latitude": 21.8833,
      "name": "CALVILLO SMN, MX",
      "datacoverage": 0.8878,
      "id": "GHCND:MXN00001003",
      "elevationUnit": "METERS",
      "longitude": -102.7167
    },
    {
      "elevation": 1924.8,
      "mindate": "1970-03-01",
      "maxdate": "2013-10-31",
      "latitude": 22,
      "name": "CAADA HONDA, MX",
      "datacoverage": 0.9957,
      "id": "GHCND:MXN00001004",
      "elevationUnit": "METERS",
      "longitude": -102.1833
    },
    {
      "elevation": 1843.7,
      "mindate": "1957-04-03",
      "maxdate": "2013-10-31",
      "latitude": 21.7667,
      "name": "PRESA EL NIAGARA, MX",
      "datacoverage": 1,
      "id": "GHCND:MXN00001005",
      "elevationUnit": "METERS",
      "longitude": -102.3667
    },
    {
      "elevation": 1959.9,
      "mindate": "1941-12-01",
      "maxdate": "1988-12-31",
      "latitude": 22.0667,
      "name": "EL TULE SMN, MX",
      "datacoverage": 0.9901,
      "id": "GHCND:MXN00001006",
      "elevationUnit": "METERS",
      "longitude": -102.0833
    },
    {
      "elevation": 1879.7,
      "mindate": "1941-01-01",
      "maxdate": "1988-12-30",
      "latitude": 21.95,
      "name": "JESUS MARIA SMN, MX",
      "datacoverage": 0.9626,
      "id": "GHCND:MXN00001007",
      "elevationUnit": "METERS",
      "longitude": -102.3333
    },
    {
      "elevation": 2322.6,
      "mindate": "1959-07-15",
      "maxdate": "2013-10-31",
      "latitude": 22.2,
      "name": "PUERTO DE LA CONCEPCION, MX",
      "datacoverage": 0.999,
      "id": "GHCND:MXN00001008",
      "elevationUnit": "METERS",
      "longitude": -102.1333
    },
    {
      "elevation": 1739.8,
      "mindate": "1944-01-01",
      "maxdate": "1988-12-31",
      "latitude": 21.95,
      "name": "LA LABOR SMN, MX",
      "datacoverage": 0.9114,
      "id": "GHCND:MXN00001009",
      "elevationUnit": "METERS",
      "longitude": -102.6833
    },
    {
      "elevation": 2525.6,
      "mindate": "1961-08-01",
      "maxdate": "2013-07-31",
      "latitude": 22.15,
      "name": "LA TINAJA, MX",
      "datacoverage": 0.9984,
      "id": "GHCND:MXN00001010",
      "elevationUnit": "METERS",
      "longitude": -102.55
    },
    {
      "elevation": 1730,
      "mindate": "1949-03-19",
      "maxdate": "2013-09-30",
      "latitude": 21.85,
      "name": "MALPASO, MX",
      "datacoverage": 0.9961,
      "id": "GHCND:MXN00001011",
      "elevationUnit": "METERS",
      "longitude": -102.65
    },
    {
      "elevation": 1588.6,
      "mindate": "1970-07-13",
      "maxdate": "2013-10-31",
      "latitude": 21.7833,
      "name": "PRESA MEDIA LUNA, MX",
      "datacoverage": 0.998,
      "id": "GHCND:MXN00001012",
      "elevationUnit": "METERS",
      "longitude": -102.8
    },
    {
      "elevation": 2020.2,
      "mindate": "1963-09-01",
      "maxdate": "2013-09-30",
      "latitude": 22.3,
      "name": "MESILLAS, MX",
      "datacoverage": 0.9951,
      "id": "GHCND:MXN00001013",
      "elevationUnit": "METERS",
      "longitude": -102.15
    },
    {
      "elevation": 1933.7,
      "mindate": "1937-09-01",
      "maxdate": "2013-10-31",
      "latitude": 22.1667,
      "name": "PABELLON CAMPO EXPERIMENTAL, MX",
      "datacoverage": 0.9073,
      "id": "GHCND:MXN00001014",
      "elevationUnit": "METERS",
      "longitude": -102.2833
    },
    {
      "elevation": 2037.3,
      "mindate": "1967-05-24",
      "maxdate": "2013-09-30",
      "latitude": 21.9,
      "name": "PALO ALTO, MX",
      "datacoverage": 0.9982,
      "id": "GHCND:MXN00001015",
      "elevationUnit": "METERS",
      "longitude": -101.9667
    },
    {
      "elevation": 1849.8,
      "mindate": "1945-04-01",
      "maxdate": "1976-05-31",
      "latitude": 21.7,
      "name": "GANADERIA PEUELAS, MX",
      "datacoverage": 0.8069,
      "id": "GHCND:MXN00001016",
      "elevationUnit": "METERS",
      "longitude": -102.2667
    },
    {
      "elevation": 2171.7,
      "mindate": "1942-04-01",
      "maxdate": "2013-10-31",
      "latitude": 22.2167,
      "name": "PRESA POTRERILLOS, MX",
      "datacoverage": 0.9894,
      "id": "GHCND:MXN00001017",
      "elevationUnit": "METERS",
      "longitude": -102.4333
    },
    {
      "elevation": 2052.8,
      "mindate": "1933-11-01",
      "maxdate": "2013-10-31",
      "latitude": 22.1333,
      "name": "PRESA PLUTARCO ELIAS CALLES, MX",
      "datacoverage": 1,
      "id": "GHCND:MXN00001018",
      "elevationUnit": "METERS",
      "longitude": -102.4
    },
    {
      "elevation": 2006.2,
      "mindate": "1942-07-11",
      "maxdate": "2013-10-31",
      "latitude": 22.1167,
      "name": "PRESA JOCOQUE, MX",
      "datacoverage": 1,
      "id": "GHCND:MXN00001019",
      "elevationUnit": "METERS",
      "longitude": -102.35
    },
    {
      "elevation": 1850.1,
      "mindate": "1963-08-01",
      "maxdate": "2013-10-31",
      "latitude": 21.9833,
      "name": "PRESA LA CODORNIZ, MX",
      "datacoverage": 0.9977,
      "id": "GHCND:MXN00001020",
      "elevationUnit": "METERS",
      "longitude": -102.6667
    },
    {
      "elevation": 2126.6,
      "mindate": "1959-08-01",
      "maxdate": "2013-07-31",
      "latitude": 22.1167,
      "name": "RANCHO VIEJO, MX",
      "datacoverage": 0.9954,
      "id": "GHCND:MXN00001021",
      "elevationUnit": "METERS",
      "longitude": -102.5
    },
    {
      "elevation": 1997.4,
      "mindate": "1949-05-01",
      "maxdate": "2013-09-30",
      "latitude": 21.7333,
      "name": "SAN BARTOLO, MX",
      "datacoverage": 0.9994,
      "id": "GHCND:MXN00001022",
      "elevationUnit": "METERS",
      "longitude": -102.1667
    },
    {
      "elevation": 1684.3,
      "mindate": "1959-01-01",
      "maxdate": "2013-09-30",
      "latitude": 21.8333,
      "name": "CALVILLO DGE, MX",
      "datacoverage": 0.9545,
      "id": "GHCND:MXN00001023",
      "elevationUnit": "METERS",
      "longitude": -102.7
    },
    {
      "elevation": 2004.4,
      "mindate": "1967-07-12",
      "maxdate": "2013-10-31",
      "latitude": 21.7667,
      "name": "SAN ISIDRO, MX",
      "datacoverage": 0.9716,
      "id": "GHCND:MXN00001024",
      "elevationUnit": "METERS",
      "longitude": -102.1
    },
    {
      "elevation": 1879.7,
      "mindate": "1926-06-26",
      "maxdate": "1983-12-31",
      "latitude": 22.0667,
      "name": "SAN FRANCISCO DE LOS ROMO SM, MX",
      "datacoverage": 0.8159,
      "id": "GHCND:MXN00001025",
      "elevationUnit": "METERS",
      "longitude": -102.2667
    },
    {
      "elevation": 2110.1,
      "mindate": "1962-07-01",
      "maxdate": "2013-09-30",
      "latitude": 22.2167,
      "name": "TEPEZALA, MX",
      "datacoverage": 0.9996,
      "id": "GHCND:MXN00001026",
      "elevationUnit": "METERS",
      "longitude": -102.1667
    },
    {
      "elevation": 2025.4,
      "mindate": "1949-06-01",
      "maxdate": "2013-09-30",
      "latitude": 21.8667,
      "name": "VENADERO DGE, MX",
      "datacoverage": 0.9921,
      "id": "GHCND:MXN00001027",
      "elevationUnit": "METERS",
      "longitude": -102.45
    },
    {
      "elevation": 1999.2,
      "mindate": "1949-04-08",
      "maxdate": "2013-10-31",
      "latitude": 22.1,
      "name": "VILLA JUAREZ, MX",
      "datacoverage": 0.9887,
      "id": "GHCND:MXN00001028",
      "elevationUnit": "METERS",
      "longitude": -102.0667
    },
    {
      "elevation": 2162.6,
      "mindate": "1959-07-14",
      "maxdate": "2013-06-30",
      "latitude": 22.2333,
      "name": "ASIENTOS, MX",
      "datacoverage": 0.9541,
      "id": "GHCND:MXN00001029",
      "elevationUnit": "METERS",
      "longitude": -102.0833
    },
    {
      "elevation": 2042.5,
      "mindate": "1972-05-01",
      "maxdate": "2013-09-30",
      "latitude": 22.0167,
      "name": "EL NOVILLO, MX",
      "datacoverage": 0.9905,
      "id": "GHCND:MXN00001031",
      "elevationUnit": "METERS",
      "longitude": -101.9833
    },
    {
      "elevation": 2085.7,
      "mindate": "1971-05-01",
      "maxdate": "2013-08-31",
      "latitude": 22.0333,
      "name": "LAS FRAGUAS, MX",
      "datacoverage": 0.9826,
      "id": "GHCND:MXN00001032",
      "elevationUnit": "METERS",
      "longitude": -101.8833
    },
    {
      "elevation": 2025.7,
      "mindate": "1971-05-01",
      "maxdate": "2013-10-31",
      "latitude": 21.8833,
      "name": "LOS CONOS, MX",
      "datacoverage": 0.9901,
      "id": "GHCND:MXN00001033",
      "elevationUnit": "METERS",
      "longitude": -101.9833
    },
    {
      "elevation": 2006.8,
      "mindate": "1972-03-21",
      "maxdate": "2013-10-31",
      "latitude": 21.8833,
      "name": "SANDOVALES, MX",
      "datacoverage": 0.998,
      "id": "GHCND:MXN00001034",
      "elevationUnit": "METERS",
      "longitude": -102.1
    },
    {
      "elevation": 2019.9,
      "mindate": "1972-04-01",
      "maxdate": "1983-12-31",
      "latitude": 21.9,
      "name": "SAN FRANCISCO DE LOS VIVEROS, MX",
      "datacoverage": 0.9229,
      "id": "GHCND:MXN00001035",
      "elevationUnit": "METERS",
      "longitude": -102.1167
    },
    {
      "elevation": 1859.9,
      "mindate": "1972-03-01",
      "maxdate": "1976-01-31",
      "latitude": 21.8167,
      "name": "SANTA ROSA, MX",
      "datacoverage": 0.8513,
      "id": "GHCND:MXN00001036",
      "elevationUnit": "METERS",
      "longitude": -102.3
    },
    {
      "elevation": 1899.8,
      "mindate": "1928-04-12",
      "maxdate": "1960-12-31",
      "latitude": 22.15,
      "name": "PABELLON DE ARTEAGA SMN, MX",
      "datacoverage": 0.8478,
      "id": "GHCND:MXN00001041",
      "elevationUnit": "METERS",
      "longitude": -102.2833
    },
    {
      "elevation": 1854.7,
      "mindate": "1973-08-01",
      "maxdate": "1976-12-31",
      "latitude": 21.8833,
      "name": "E.T.A. 127 AGUASCALIENTES, MX",
      "datacoverage": 0.7086,
      "id": "GHCND:MXN00001043",
      "elevationUnit": "METERS",
      "longitude": -102.3
    },
    {
      "elevation": 1981.5,
      "mindate": "1974-01-01",
      "maxdate": "2013-09-30",
      "latitude": 22.0667,
      "name": "EL TULE DGE, MX",
      "datacoverage": 0.9897,
      "id": "GHCND:MXN00001045",
      "elevationUnit": "METERS",
      "longitude": -102.0833
    },
    {
      "elevation": 1784.3,
      "mindate": "1974-01-01",
      "maxdate": "2013-09-30",
      "latitude": 21.95,
      "name": "LA LABOR DGE, MX",
      "datacoverage": 0.9893,
      "id": "GHCND:MXN00001046",
      "elevationUnit": "METERS",
      "longitude": -102.6833
    },
    {
      "elevation": 2416.8,
      "mindate": "1975-08-20",
      "maxdate": "2013-08-31",
      "latitude": 21.9667,
      "name": "AGUA ZARCA, MX",
      "datacoverage": 0.9523,
      "id": "GHCND:MXN00001047",
      "elevationUnit": "METERS",
      "longitude": -102.5833
    },
    {
      "elevation": 1910.5,
      "mindate": "1949-06-01",
      "maxdate": "2013-10-31",
      "latitude": 21.8,
      "name": "ARELLANO, MX",
      "datacoverage": 0.6391,
      "id": "GHCND:MXN00001062",
      "elevationUnit": "METERS",
      "longitude": -102.2667
    },
    {
      "elevation": 1869.9,
      "mindate": "1942-06-01",
      "maxdate": "1960-12-31",
      "latitude": 21.7167,
      "name": "PEUELAS SMN, MX",
      "datacoverage": 0.9774,
      "id": "GHCND:MXN00001063",
      "elevationUnit": "METERS",
      "longitude": -102.2667
    },
    {
      "elevation": 2026.9,
      "mindate": "1971-05-01",
      "maxdate": "2013-10-31",
      "latitude": 21.8,
      "name": "LA TINAJA, MX",
      "datacoverage": 0.9454,
      "id": "GHCND:MXN00001073",
      "elevationUnit": "METERS",
      "longitude": -102.1167
    },
    {
      "elevation": 1838.6,
      "mindate": "1979-09-07",
      "maxdate": "2013-10-31",
      "latitude": 21.7167,
      "name": "CIENEGUILLA, MX",
      "datacoverage": 0.9906,
      "id": "GHCND:MXN00001074",
      "elevationUnit": "METERS",
      "longitude": -102.45
    },
    {
      "elevation": 1870.3,
      "mindate": "1979-09-13",
      "maxdate": "2013-10-31",
      "latitude": 21.75,
      "name": "MONTORO, MX",
      "datacoverage": 0.9735,
      "id": "GHCND:MXN00001075",
      "elevationUnit": "METERS",
      "longitude": -102.3
    },
    {
      "elevation": 1887,
      "mindate": "1979-12-01",
      "maxdate": "2013-07-27",
      "latitude": 21.8667,
      "name": "LOS NEGRITOS, MX",
      "datacoverage": 0.9836,
      "id": "GHCND:MXN00001076",
      "elevationUnit": "METERS",
      "longitude": -102.3333
    },
    {
      "elevation": 2044.6,
      "mindate": "1979-09-01",
      "maxdate": "2013-10-31",
      "latitude": 21.7667,
      "name": "EL OCOTE, MX",
      "datacoverage": 0.9853,
      "id": "GHCND:MXN00001077",
      "elevationUnit": "METERS",
      "longitude": -102.5167
    },
    {
      "elevation": 2328.7,
      "mindate": "1980-04-01",
      "maxdate": "2013-08-31",
      "latitude": 21.8833,
      "name": "EL OCOTE, MX",
      "datacoverage": 0.9881,
      "id": "GHCND:MXN00001078",
      "elevationUnit": "METERS",
      "longitude": -102.8167
    },
    {
      "elevation": 1900.1,
      "mindate": "1979-08-10",
      "maxdate": "2013-09-30",
      "latitude": 21.7167,
      "name": "PEUELAS DGE, MX",
      "datacoverage": 0.9853,
      "id": "GHCND:MXN00001079",
      "elevationUnit": "METERS",
      "longitude": -102.2667
    },
    {
      "elevation": 1949.5,
      "mindate": "1979-09-21",
      "maxdate": "2013-09-30",
      "latitude": 21.8333,
      "name": "PRESA CANUTILLO, MX",
      "datacoverage": 0.9805,
      "id": "GHCND:MXN00001080",
      "elevationUnit": "METERS",
      "longitude": -102.5167
    },
    {
      "elevation": 2067.2,
      "mindate": "1979-10-01",
      "maxdate": "2013-07-31",
      "latitude": 22.0833,
      "name": "RANCHO SECO, MX",
      "datacoverage": 0.9926,
      "id": "GHCND:MXN00001081",
      "elevationUnit": "METERS",
      "longitude": -101.9667
    },
    {
      "elevation": 1965,
      "mindate": "1979-09-01",
      "maxdate": "2013-09-30",
      "latitude": 22.2167,
      "name": "RINCON DE ROMOS, MX",
      "datacoverage": 0.9708,
      "id": "GHCND:MXN00001082",
      "elevationUnit": "METERS",
      "longitude": -102.3
    },
    {
      "elevation": 1909,
      "mindate": "1979-09-01",
      "maxdate": "2013-09-30",
      "latitude": 22.0667,
      "name": "SAN FRANCISCO DE LOS ROMO DG, MX",
      "datacoverage": 0.9601,
      "id": "GHCND:MXN00001083",
      "elevationUnit": "METERS",
      "longitude": -102.2667
    },
    {
      "elevation": 2032.1,
      "mindate": "1979-10-01",
      "maxdate": "2013-06-30",
      "latitude": 22.2,
      "name": "SAN GIL, MX",
      "datacoverage": 0.968,
      "id": "GHCND:MXN00001084",
      "elevationUnit": "METERS",
      "longitude": -102.0167
    },
    {
      "elevation": 2039.4,
      "mindate": "1979-10-10",
      "maxdate": "2013-09-30",
      "latitude": 22.0833,
      "name": "TEPETATILLO, MX",
      "datacoverage": 0.862,
      "id": "GHCND:MXN00001085",
      "elevationUnit": "METERS",
      "longitude": -102.1667
    },
    {
      "elevation": 2022.7,
      "mindate": "1978-08-01",
      "maxdate": "2013-10-31",
      "latitude": 22.35,
      "name": "COSIO, MX",
      "datacoverage": 0.9741,
      "id": "GHCND:MXN00001088",
      "elevationUnit": "METERS",
      "longitude": -102.2833
    }
  ]
}
