{
  "metadata": {
    "resultset": {
      "offset": 73100,
      "count": 154115,
      "limit": 100
    }
  },
  "results": [
    {
      "elevation": 10,
      "mindate": "1961-01-01",
      "maxdate": "1972-10-01",
      "latitude": 59.62,
      "name": "VASTERAS, SW",
      "datacoverage": 0.993,
      "id": "GHCND:SWE00139044",
      "elevationUnit": "METERS",
      "longitude": 16.55
    },
    {
      "elevation": 15,
      "mindate": "1947-09-01",
      "maxdate": "1963-09-30",
      "latitude": 59.62,
      "name": "ASKE, SW",
      "datacoverage": 1,
      "id": "GHCND:SWE00139046",
      "elevationUnit": "METERS",
      "longitude": 17.6664
    },
    {
      "elevation": 75,
      "mindate": "1945-01-01",
      "maxdate": "1967-05-31",
      "latitude": 59.63,
      "name": "MOLNBACKA, SW",
      "datacoverage": 1,
      "id": "GHCND:SWE00139048",
      "elevationUnit": "METERS",
      "longitude": 13.57
    },
    {
      "elevation": 85,
      "mindate": "1997-06-01",
      "maxdate": "2003-03-04",
      "latitude": 59.64,
      "name": "GRONBO, SW",
      "datacoverage": 0.9993,
      "id": "GHCND:SWE00139050",
      "elevationUnit": "METERS",
      "longitude": 15.42
    },
    {
      "elevation": 20,
      "mindate": "1945-01-01",
      "maxdate": "2025-01-31",
      "latitude": 59.64,
      "name": "ENKOPING, SW",
      "datacoverage": 0.9958,
      "id": "GHCND:SWE00139052",
      "elevationUnit": "METERS",
      "longitude": 17.07
    },
    {
      "elevation": 115,
      "mindate": "2007-04-01",
      "maxdate": "2015-05-31",
      "latitude": 59.64,
      "name": "JARNBOAS D, SW",
      "datacoverage": 0.9992,
      "id": "GHCND:SWE00139054",
      "elevationUnit": "METERS",
      "longitude": 14.89
    },
    {
      "elevation": 260,
      "mindate": "1945-01-01",
      "maxdate": "1985-06-30",
      "latitude": 59.65,
      "name": "HORNKULLEN, SW",
      "datacoverage": 1,
      "id": "GHCND:SWE00139056",
      "elevationUnit": "METERS",
      "longitude": 14.28
    },
    {
      "elevation": 25,
      "mindate": "1959-08-01",
      "maxdate": "2025-01-31",
      "latitude": 59.65,
      "name": "HALLSTABERG, SW",
      "datacoverage": 1,
      "id": "GHCND:SWE00139058",
      "elevationUnit": "METERS",
      "longitude": 16.8
    },
    {
      "elevation": 26,
      "mindate": "1960-01-13",
      "maxdate": "2013-08-31",
      "latitude": 59.66,
      "name": "ARLANDA, SW",
      "datacoverage": 0.8341,
      "id": "GHCND:SWE00139060",
      "elevationUnit": "METERS",
      "longitude": 17.95
    },
    {
      "elevation": 15,
      "mindate": "1959-05-01",
      "maxdate": "1993-09-30",
      "latitude": 59.66,
      "name": "OSTERBY, SW",
      "datacoverage": 0.9993,
      "id": "GHCND:SWE00139062",
      "elevationUnit": "METERS",
      "longitude": 17.69
    },
    {
      "elevation": 20,
      "mindate": "1952-10-07",
      "maxdate": "1992-02-29",
      "latitude": 59.66,
      "name": "KARSTA, SW",
      "datacoverage": 0.998,
      "id": "GHCND:SWE00139064",
      "elevationUnit": "METERS",
      "longitude": 18.27
    },
    {
      "elevation": 40,
      "mindate": "1952-10-01",
      "maxdate": "1982-05-31",
      "latitude": 59.66,
      "name": "BEATEBERG, SW",
      "datacoverage": 0.9888,
      "id": "GHCND:SWE00139066",
      "elevationUnit": "METERS",
      "longitude": 18.42
    },
    {
      "elevation": 133,
      "mindate": "1995-08-01",
      "maxdate": "2025-01-31",
      "latitude": 59.66,
      "name": "DAGLOSEN A, SW",
      "datacoverage": 0.9999,
      "id": "GHCND:SWE00139068",
      "elevationUnit": "METERS",
      "longitude": 14.18
    },
    {
      "elevation": 66,
      "mindate": "1945-10-01",
      "maxdate": "1995-12-31",
      "latitude": 59.67,
      "name": "ARVIKA, SW",
      "datacoverage": 0.9953,
      "id": "GHCND:SWE00139070",
      "elevationUnit": "METERS",
      "longitude": 12.59
    },
    {
      "elevation": 66,
      "mindate": "1995-08-01",
      "maxdate": "2025-01-31",
      "latitude": 59.67,
      "name": "ARVIKA A, SW",
      "datacoverage": 1,
      "id": "GHCND:SWE00139072",
      "elevationUnit": "METERS",
      "longitude": 12.64
    },
    {
      "elevation": 200,
      "mindate": "1921-08-01",
      "maxdate": "1976-05-31",
      "latitude": 59.68,
      "name": "GAMMELKROPPA, SW",
      "datacoverage": 1,
      "id": "GHCND:SWE00139074",
      "elevationUnit": "METERS",
      "longitude": 14.32
    },
    {
      "elevation": 35,
      "mindate": "1960-08-01",
      "maxdate": "2001-12-31",
      "latitude": 59.7,
      "name": "SUNDBY, SW",
      "datacoverage": 1,
      "id": "GHCND:SWE00139076",
      "elevationUnit": "METERS",
      "longitude": 16.66
    },
    {
      "elevation": 55,
      "mindate": "1951-06-01",
      "maxdate": "1983-07-31",
      "latitude": 59.7,
      "name": "SURAHAMMAR, SW",
      "datacoverage": 0.9924,
      "id": "GHCND:SWE00139078",
      "elevationUnit": "METERS",
      "longitude": 16.2197
    },
    {
      "elevation": 60,
      "mindate": "1945-01-01",
      "maxdate": "2013-12-31",
      "latitude": 59.7,
      "name": "LISJO, SW",
      "datacoverage": 0.9873,
      "id": "GHCND:SWE00139080",
      "elevationUnit": "METERS",
      "longitude": 16.0597
    },
    {
      "elevation": 150,
      "mindate": "1946-03-26",
      "maxdate": "2025-01-31",
      "latitude": 59.7,
      "name": "KOPPOM D, SW",
      "datacoverage": 0.9995,
      "id": "GHCND:SWE00139082",
      "elevationUnit": "METERS",
      "longitude": 12.15
    },
    {
      "elevation": 185,
      "mindate": "1945-01-01",
      "maxdate": "2022-09-30",
      "latitude": 59.71,
      "name": "GRYTHYTTAN, SW",
      "datacoverage": 0.9926,
      "id": "GHCND:SWE00139084",
      "elevationUnit": "METERS",
      "longitude": 14.53
    },
    {
      "elevation": 40,
      "mindate": "1945-01-01",
      "maxdate": "2024-12-30",
      "latitude": 59.71,
      "name": "SKULTUNA, SW",
      "datacoverage": 1,
      "id": "GHCND:SWE00139086",
      "elevationUnit": "METERS",
      "longitude": 16.44
    },
    {
      "elevation": 163,
      "mindate": "1945-01-01",
      "maxdate": "1974-12-31",
      "latitude": 59.72,
      "name": "PARDIXHYTTAN, SW",
      "datacoverage": 1,
      "id": "GHCND:SWE00139088",
      "elevationUnit": "METERS",
      "longitude": 13.92
    },
    {
      "elevation": 141,
      "mindate": "1945-01-01",
      "maxdate": "1976-06-30",
      "latitude": 59.72,
      "name": "FILIPSTAD, SW",
      "datacoverage": 1,
      "id": "GHCND:SWE00139090",
      "elevationUnit": "METERS",
      "longitude": 14.17
    },
    {
      "elevation": 10,
      "mindate": "1960-02-01",
      "maxdate": "1964-04-30",
      "latitude": 59.72,
      "name": "OSTERNAS, SW",
      "datacoverage": 1,
      "id": "GHCND:SWE00139092",
      "elevationUnit": "METERS",
      "longitude": 19
    },
    {
      "elevation": 20,
      "mindate": "1952-10-01",
      "maxdate": "1981-10-31",
      "latitude": 59.72,
      "name": "KNIVSTA, SW",
      "datacoverage": 0.9943,
      "id": "GHCND:SWE00139094",
      "elevationUnit": "METERS",
      "longitude": 17.8097
    },
    {
      "elevation": 10,
      "mindate": "1964-05-01",
      "maxdate": "1970-04-30",
      "latitude": 59.73,
      "name": "KOHOLMA, SW",
      "datacoverage": 1,
      "id": "GHCND:SWE00139096",
      "elevationUnit": "METERS",
      "longitude": 19.07
    },
    {
      "elevation": 80,
      "mindate": "1966-10-01",
      "maxdate": "2018-11-30",
      "latitude": 59.74,
      "name": "OSTRA AMTERVIK, SW",
      "datacoverage": 1,
      "id": "GHCND:SWE00139098",
      "elevationUnit": "METERS",
      "longitude": 13.21
    },
    {
      "elevation": 200,
      "mindate": "1945-01-01",
      "maxdate": "2005-03-31",
      "latitude": 59.75,
      "name": "NYBERGET, SW",
      "datacoverage": 1,
      "id": "GHCND:SWE00139100",
      "elevationUnit": "METERS",
      "longitude": 14.99
    },
    {
      "elevation": 20,
      "mindate": "1945-01-01",
      "maxdate": "1999-02-28",
      "latitude": 59.75,
      "name": "HYVLINGE, SW",
      "datacoverage": 1,
      "id": "GHCND:SWE00139102",
      "elevationUnit": "METERS",
      "longitude": 17.07
    },
    {
      "elevation": 20,
      "mindate": "1952-10-15",
      "maxdate": "2025-01-31",
      "latitude": 59.75,
      "name": "RIMBO, SW",
      "datacoverage": 0.9087,
      "id": "GHCND:SWE00139104",
      "elevationUnit": "METERS",
      "longitude": 18.35
    },
    {
      "elevation": 200,
      "mindate": "1976-07-01",
      "maxdate": "2025-01-31",
      "latitude": 59.75,
      "name": "PERSBERG, SW",
      "datacoverage": 0.9982,
      "id": "GHCND:SWE00139106",
      "elevationUnit": "METERS",
      "longitude": 14.24
    },
    {
      "elevation": 95,
      "mindate": "1961-01-01",
      "maxdate": "1967-12-31",
      "latitude": 59.75,
      "name": "UTTERSBERG, SW",
      "datacoverage": 1,
      "id": "GHCND:SWE00139108",
      "elevationUnit": "METERS",
      "longitude": 15.67
    },
    {
      "elevation": 15,
      "mindate": "1961-01-01",
      "maxdate": "1984-03-31",
      "latitude": 59.77,
      "name": "NORRTALJE, SW",
      "datacoverage": 0.9715,
      "id": "GHCND:SWE00139110",
      "elevationUnit": "METERS",
      "longitude": 18.65
    },
    {
      "elevation": 15,
      "mindate": "1947-01-01",
      "maxdate": "2025-01-31",
      "latitude": 59.75,
      "name": "SODERARM, SW",
      "datacoverage": 0.9783,
      "id": "GHCND:SWE00139112",
      "elevationUnit": "METERS",
      "longitude": 19.41
    },
    {
      "elevation": 110,
      "mindate": "1945-01-01",
      "maxdate": "1964-04-30",
      "latitude": 59.77,
      "name": "NOREBORG, SW",
      "datacoverage": 1,
      "id": "GHCND:SWE00139114",
      "elevationUnit": "METERS",
      "longitude": 12.33
    },
    {
      "elevation": 85,
      "mindate": "1964-05-01",
      "maxdate": "1976-04-30",
      "latitude": 59.77,
      "name": "AMOTFORS PAPPERSBRUK, SW",
      "datacoverage": 1,
      "id": "GHCND:SWE00139116",
      "elevationUnit": "METERS",
      "longitude": 12.35
    },
    {
      "elevation": 30,
      "mindate": "2000-10-01",
      "maxdate": "2009-05-31",
      "latitude": 59.77,
      "name": "FJARDHUNDRA D, SW",
      "datacoverage": 1,
      "id": "GHCND:SWE00139118",
      "elevationUnit": "METERS",
      "longitude": 16.92
    },
    {
      "elevation": 20,
      "mindate": "1970-03-01",
      "maxdate": "1972-03-31",
      "latitude": 59.78,
      "name": "RANAS, SW",
      "datacoverage": 1,
      "id": "GHCND:SWE00139120",
      "elevationUnit": "METERS",
      "longitude": 18.3
    },
    {
      "elevation": 125,
      "mindate": "1922-01-01",
      "maxdate": "1971-09-30",
      "latitude": 59.8,
      "name": "ADOLFSFORS, SW",
      "datacoverage": 1,
      "id": "GHCND:SWE00139122",
      "elevationUnit": "METERS",
      "longitude": 12.23
    },
    {
      "elevation": 55,
      "mindate": "1945-01-01",
      "maxdate": "1978-05-31",
      "latitude": 59.8,
      "name": "TOMTA, SW",
      "datacoverage": 0.9907,
      "id": "GHCND:SWE00139124",
      "elevationUnit": "METERS",
      "longitude": 16.55
    },
    {
      "elevation": 155,
      "mindate": "1931-01-01",
      "maxdate": "2025-01-31",
      "latitude": 59.81,
      "name": "RIDDARHYTTAN, SW",
      "datacoverage": 0.9321,
      "id": "GHCND:SWE00139126",
      "elevationUnit": "METERS",
      "longitude": 15.56
    },
    {
      "elevation": 15,
      "mindate": "1945-01-01",
      "maxdate": "2003-08-31",
      "latitude": 59.81,
      "name": "ULTUNA, SW",
      "datacoverage": 0.9787,
      "id": "GHCND:SWE00139128",
      "elevationUnit": "METERS",
      "longitude": 17.6664
    },
    {
      "elevation": 130,
      "mindate": "1987-03-01",
      "maxdate": "2001-12-31",
      "latitude": 59.82,
      "name": "SKILLINGMARK, SW",
      "datacoverage": 0.9945,
      "id": "GHCND:SWE00139130",
      "elevationUnit": "METERS",
      "longitude": 12
    },
    {
      "elevation": 25,
      "mindate": "1945-01-01",
      "maxdate": "2025-01-31",
      "latitude": 59.83,
      "name": "NORRVEDA, SW",
      "datacoverage": 0.9896,
      "id": "GHCND:SWE00139132",
      "elevationUnit": "METERS",
      "longitude": 18.95
    },
    {
      "elevation": 15,
      "mindate": "1995-08-01",
      "maxdate": "2025-01-31",
      "latitude": 59.83,
      "name": "SVANBERGA A, SW",
      "datacoverage": 1,
      "id": "GHCND:SWE00139134",
      "elevationUnit": "METERS",
      "longitude": 18.63
    },
    {
      "elevation": 150,
      "mindate": "1945-01-01",
      "maxdate": "1976-09-30",
      "latitude": 59.83,
      "name": "STJARNFORS, SW",
      "datacoverage": 0.9948,
      "id": "GHCND:SWE00139136",
      "elevationUnit": "METERS",
      "longitude": 15.02
    },
    {
      "elevation": 113,
      "mindate": "1945-09-16",
      "maxdate": "1974-06-30",
      "latitude": 59.83,
      "name": "SKINNSKATTEBERG, SW",
      "datacoverage": 0.9972,
      "id": "GHCND:SWE00139138",
      "elevationUnit": "METERS",
      "longitude": 15.68
    },
    {
      "elevation": 80,
      "mindate": "1950-01-01",
      "maxdate": "2017-03-31",
      "latitude": 59.85,
      "name": "MUNKFORS, SW",
      "datacoverage": 0.993,
      "id": "GHCND:SWE00139140",
      "elevationUnit": "METERS",
      "longitude": 13.54
    },
    {
      "elevation": 205,
      "mindate": "1998-05-01",
      "maxdate": "2025-01-31",
      "latitude": 59.85,
      "name": "SILVERGRUVAN, SW",
      "datacoverage": 1,
      "id": "GHCND:SWE00139142",
      "elevationUnit": "METERS",
      "longitude": 14.48
    },
    {
      "elevation": 15,
      "mindate": "1989-01-01",
      "maxdate": "1994-10-31",
      "latitude": 59.85,
      "name": "NORRTALJE VASBY, SW",
      "datacoverage": 1,
      "id": "GHCND:SWE00139146",
      "elevationUnit": "METERS",
      "longitude": 18.73
    },
    {
      "elevation": 13,
      "mindate": "1836-01-01",
      "maxdate": "2025-01-31",
      "latitude": 59.86,
      "name": "UPPSALA AUT, SW",
      "datacoverage": 1,
      "id": "GHCND:SWE00139148",
      "elevationUnit": "METERS",
      "longitude": 17.63
    },
    {
      "elevation": 146,
      "mindate": "1976-10-01",
      "maxdate": "2025-01-31",
      "latitude": 59.87,
      "name": "KOPPARBERG D, SW",
      "datacoverage": 0.9656,
      "id": "GHCND:SWE00139152",
      "elevationUnit": "METERS",
      "longitude": 15.02
    },
    {
      "elevation": 130,
      "mindate": "1969-05-01",
      "maxdate": "1986-02-28",
      "latitude": 59.86,
      "name": "HANGSTAD, SW",
      "datacoverage": 0.9994,
      "id": "GHCND:SWE00139154",
      "elevationUnit": "METERS",
      "longitude": 11.97
    },
    {
      "elevation": 110,
      "mindate": "1961-01-01",
      "maxdate": "2025-01-31",
      "latitude": 59.86,
      "name": "SUNNE A, SW",
      "datacoverage": 0.9999,
      "id": "GHCND:SWE00139156",
      "elevationUnit": "METERS",
      "longitude": 13.12
    },
    {
      "elevation": 285,
      "mindate": "1978-06-01",
      "maxdate": "2018-07-31",
      "latitude": 59.87,
      "name": "KLOTEN, SW",
      "datacoverage": 0.9793,
      "id": "GHCND:SWE00139158",
      "elevationUnit": "METERS",
      "longitude": 15.25
    },
    {
      "elevation": 289,
      "mindate": "2009-08-01",
      "maxdate": "2025-01-31",
      "latitude": 59.87,
      "name": "KLOTEN A, SW",
      "datacoverage": 1,
      "id": "GHCND:SWE00139160",
      "elevationUnit": "METERS",
      "longitude": 15.26
    },
    {
      "elevation": 165,
      "mindate": "1976-06-01",
      "maxdate": "2006-01-31",
      "latitude": 59.88,
      "name": "TRESKOG, SW",
      "datacoverage": 0.9747,
      "id": "GHCND:SWE00139162",
      "elevationUnit": "METERS",
      "longitude": 12.63
    },
    {
      "elevation": 130,
      "mindate": "1912-03-26",
      "maxdate": "1969-04-30",
      "latitude": 59.88,
      "name": "HOGSATER, SW",
      "datacoverage": 1,
      "id": "GHCND:SWE00139164",
      "elevationUnit": "METERS",
      "longitude": 11.97
    },
    {
      "elevation": 205,
      "mindate": "1979-11-01",
      "maxdate": "1997-02-28",
      "latitude": 59.88,
      "name": "SAVENFORS, SW",
      "datacoverage": 0.9993,
      "id": "GHCND:SWE00139166",
      "elevationUnit": "METERS",
      "longitude": 14.54
    },
    {
      "elevation": 135,
      "mindate": "1945-01-01",
      "maxdate": "2024-12-31",
      "latitude": 59.89,
      "name": "CHARLOTTENBERG, SW",
      "datacoverage": 0.9925,
      "id": "GHCND:SWE00139168",
      "elevationUnit": "METERS",
      "longitude": 12.3
    },
    {
      "elevation": 21,
      "mindate": "1944-06-30",
      "maxdate": "2025-01-31",
      "latitude": 59.9,
      "name": "UPPSALA FLYGPLATS, SW",
      "datacoverage": 1,
      "id": "GHCND:SWE00139172",
      "elevationUnit": "METERS",
      "longitude": 17.59
    },
    {
      "elevation": 50,
      "mindate": "1973-11-01",
      "maxdate": "2024-12-31",
      "latitude": 59.9,
      "name": "VITTINGE, SW",
      "datacoverage": 1,
      "id": "GHCND:SWE00139176",
      "elevationUnit": "METERS",
      "longitude": 17.03
    },
    {
      "elevation": 60,
      "mindate": "1951-06-01",
      "maxdate": "2024-12-31",
      "latitude": 59.9,
      "name": "SALA, SW",
      "datacoverage": 0.9977,
      "id": "GHCND:SWE00139178",
      "elevationUnit": "METERS",
      "longitude": 16.66
    },
    {
      "elevation": 15,
      "mindate": "1945-01-01",
      "maxdate": "1987-05-31",
      "latitude": 59.91,
      "name": "FROTUNA, SW",
      "datacoverage": 0.9812,
      "id": "GHCND:SWE00139180",
      "elevationUnit": "METERS",
      "longitude": 17.86
    },
    {
      "elevation": 57,
      "mindate": "1995-08-01",
      "maxdate": "2025-01-31",
      "latitude": 59.91,
      "name": "SALA A, SW",
      "datacoverage": 1,
      "id": "GHCND:SWE00139182",
      "elevationUnit": "METERS",
      "longitude": 16.69
    },
    {
      "elevation": 250,
      "mindate": "1947-03-01",
      "maxdate": "1973-08-31",
      "latitude": 59.92,
      "name": "VINTERSJOHOJDEN, SW",
      "datacoverage": 1,
      "id": "GHCND:SWE00139184",
      "elevationUnit": "METERS",
      "longitude": 14.35
    },
    {
      "elevation": 205,
      "mindate": "1967-02-01",
      "maxdate": "2025-01-31",
      "latitude": 59.95,
      "name": "STALLDALEN, SW",
      "datacoverage": 0.9984,
      "id": "GHCND:SWE00139186",
      "elevationUnit": "METERS",
      "longitude": 14.95
    },
    {
      "elevation": 108,
      "mindate": "1972-07-01",
      "maxdate": "1998-08-31",
      "latitude": 59.93,
      "name": "GRASMARK, SW",
      "datacoverage": 0.9936,
      "id": "GHCND:SWE00139188",
      "elevationUnit": "METERS",
      "longitude": 12.9
    },
    {
      "elevation": 15,
      "mindate": "1988-05-01",
      "maxdate": "2019-05-31",
      "latitude": 59.93,
      "name": "ALMUNGE, SW",
      "datacoverage": 0.9975,
      "id": "GHCND:SWE00139190",
      "elevationUnit": "METERS",
      "longitude": 18.05
    },
    {
      "elevation": 108,
      "mindate": "2007-06-01",
      "maxdate": "2018-08-31",
      "latitude": 59.94,
      "name": "UDDHEDEN D, SW",
      "datacoverage": 1,
      "id": "GHCND:SWE00139192",
      "elevationUnit": "METERS",
      "longitude": 12.91
    },
    {
      "elevation": 125,
      "mindate": "1945-01-01",
      "maxdate": "2004-01-31",
      "latitude": 59.96,
      "name": "FORSHULT, SW",
      "datacoverage": 0.9828,
      "id": "GHCND:SWE00139194",
      "elevationUnit": "METERS",
      "longitude": 13.53
    },
    {
      "elevation": 340,
      "mindate": "1945-01-01",
      "maxdate": "1972-02-29",
      "latitude": 59.95,
      "name": "DALKARLSJOHYTTAN, SW",
      "datacoverage": 1,
      "id": "GHCND:SWE00139196",
      "elevationUnit": "METERS",
      "longitude": 14.13
    },
    {
      "elevation": 205,
      "mindate": "1961-01-01",
      "maxdate": "1967-01-31",
      "latitude": 59.95,
      "name": "STANGFALLET, SW",
      "datacoverage": 1,
      "id": "GHCND:SWE00139198",
      "elevationUnit": "METERS",
      "longitude": 14.88
    },
    {
      "elevation": 20,
      "mindate": "1970-04-01",
      "maxdate": "2025-01-31",
      "latitude": 59.96,
      "name": "VALLNORA D, SW",
      "datacoverage": 0.9945,
      "id": "GHCND:SWE00139202",
      "elevationUnit": "METERS",
      "longitude": 18.35
    },
    {
      "elevation": 250,
      "mindate": "1973-01-01",
      "maxdate": "2025-01-31",
      "latitude": 59.98,
      "name": "LESJOFORS, SW",
      "datacoverage": 0.9827,
      "id": "GHCND:SWE00139206",
      "elevationUnit": "METERS",
      "longitude": 14.18
    },
    {
      "elevation": 10,
      "mindate": "1945-01-01",
      "maxdate": "1972-03-31",
      "latitude": 59.98,
      "name": "VADDO, SW",
      "datacoverage": 1,
      "id": "GHCND:SWE00139208",
      "elevationUnit": "METERS",
      "longitude": 18.82
    },
    {
      "elevation": 125,
      "mindate": "2004-02-01",
      "maxdate": "2011-12-31",
      "latitude": 59.99,
      "name": "RADA, SW",
      "datacoverage": 1,
      "id": "GHCND:SWE00139212",
      "elevationUnit": "METERS",
      "longitude": 13.59
    },
    {
      "elevation": 30,
      "mindate": "1945-01-01",
      "maxdate": "2007-08-31",
      "latitude": 59.99,
      "name": "DRALINGE, SW",
      "datacoverage": 1,
      "id": "GHCND:SWE00139214",
      "elevationUnit": "METERS",
      "longitude": 17.57
    },
    {
      "elevation": 100,
      "mindate": "1945-01-01",
      "maxdate": "2013-04-30",
      "latitude": 60,
      "name": "FAGERSTA, SW",
      "datacoverage": 0.9989,
      "id": "GHCND:SWE00139216",
      "elevationUnit": "METERS",
      "longitude": 15.8
    },
    {
      "elevation": 270,
      "mindate": "1956-02-01",
      "maxdate": "1970-12-31",
      "latitude": 60.02,
      "name": "MOSSFALLET, SW",
      "datacoverage": 1,
      "id": "GHCND:SWE00139218",
      "elevationUnit": "METERS",
      "longitude": 13.92
    },
    {
      "elevation": 50,
      "mindate": "1967-12-01",
      "maxdate": "1969-07-31",
      "latitude": 60.02,
      "name": "HOLMSBERG, SW",
      "datacoverage": 1,
      "id": "GHCND:SWE00139222",
      "elevationUnit": "METERS",
      "longitude": 18.33
    },
    {
      "elevation": 10,
      "mindate": "1945-01-01",
      "maxdate": "1966-12-31",
      "latitude": 60.02,
      "name": "ORA, SW",
      "datacoverage": 0.9714,
      "id": "GHCND:SWE00139224",
      "elevationUnit": "METERS",
      "longitude": 18.0797
    },
    {
      "elevation": 25,
      "mindate": "1945-01-01",
      "maxdate": "2025-01-31",
      "latitude": 60.03,
      "name": "VATTHOLMA, SW",
      "datacoverage": 0.994,
      "id": "GHCND:SWE00139226",
      "elevationUnit": "METERS",
      "longitude": 17.7197
    },
    {
      "elevation": 250,
      "mindate": "1945-01-01",
      "maxdate": "2010-10-31",
      "latitude": 60.03,
      "name": "HORKEN, SW",
      "datacoverage": 1,
      "id": "GHCND:SWE00139228",
      "elevationUnit": "METERS",
      "longitude": 14.94
    },
    {
      "elevation": 235,
      "mindate": "1945-01-01",
      "maxdate": "1963-07-31",
      "latitude": 60.03,
      "name": "HALLSJON, SW",
      "datacoverage": 0.9994,
      "id": "GHCND:SWE00139230",
      "elevationUnit": "METERS",
      "longitude": 15.15
    },
    {
      "elevation": 220,
      "mindate": "1974-10-01",
      "maxdate": "1985-06-30",
      "latitude": 60.06,
      "name": "BOGEN, SW",
      "datacoverage": 1,
      "id": "GHCND:SWE00139232",
      "elevationUnit": "METERS",
      "longitude": 12.56
    },
    {
      "elevation": 10,
      "mindate": "1945-01-01",
      "maxdate": "2025-01-31",
      "latitude": 60.06,
      "name": "NORRBY S, SW",
      "datacoverage": 0.9941,
      "id": "GHCND:SWE00139234",
      "elevationUnit": "METERS",
      "longitude": 18.74
    },
    {
      "elevation": 115,
      "mindate": "1992-02-01",
      "maxdate": "2025-01-31",
      "latitude": 60.06,
      "name": "SODERBARKE D, SW",
      "datacoverage": 1,
      "id": "GHCND:SWE00139236",
      "elevationUnit": "METERS",
      "longitude": 15.58
    },
    {
      "elevation": 135,
      "mindate": "1945-01-01",
      "maxdate": "2024-12-31",
      "latitude": 60.11,
      "name": "NORBERG, SW",
      "datacoverage": 0.983,
      "id": "GHCND:SWE00139238",
      "elevationUnit": "METERS",
      "longitude": 15.93
    },
    {
      "elevation": 155,
      "mindate": "1945-01-01",
      "maxdate": "1977-06-30",
      "latitude": 60.07,
      "name": "EDEBACK, SW",
      "datacoverage": 1,
      "id": "GHCND:SWE00139240",
      "elevationUnit": "METERS",
      "longitude": 13.55
    },
    {
      "elevation": 65,
      "mindate": "1962-11-01",
      "maxdate": "1970-12-31",
      "latitude": 60.07,
      "name": "HILLERSBO, SW",
      "datacoverage": 1,
      "id": "GHCND:SWE00139242",
      "elevationUnit": "METERS",
      "longitude": 16.5797
    },
    {
      "elevation": 280,
      "mindate": "1945-01-01",
      "maxdate": "2009-09-30",
      "latitude": 60.09,
      "name": "GRANGESBERG, SW",
      "datacoverage": 0.9568,
      "id": "GHCND:SWE00139244",
      "elevationUnit": "METERS",
      "longitude": 15.02
    },
    {
      "elevation": 70,
      "mindate": "1971-01-01",
      "maxdate": "1979-12-31",
      "latitude": 60.08,
      "name": "MOKLINTA, SW",
      "datacoverage": 0.9909,
      "id": "GHCND:SWE00139246",
      "elevationUnit": "METERS",
      "longitude": 16.55
    },
    {
      "elevation": 220,
      "mindate": "1987-07-01",
      "maxdate": "2008-03-31",
      "latitude": 60.09,
      "name": "MITANDERSFORS D, SW",
      "datacoverage": 0.9993,
      "id": "GHCND:SWE00139248",
      "elevationUnit": "METERS",
      "longitude": 12.52
    },
    {
      "elevation": 100,
      "mindate": "1991-01-01",
      "maxdate": "2025-01-31",
      "latitude": 60.1,
      "name": "BROVALLEN, SW",
      "datacoverage": 1,
      "id": "GHCND:SWE00139250",
      "elevationUnit": "METERS",
      "longitude": 16.3097
    },
    {
      "elevation": 38,
      "mindate": "1973-11-01",
      "maxdate": "1974-10-31",
      "latitude": 60.1,
      "name": "NOLMYRA, SW",
      "datacoverage": 1,
      "id": "GHCND:SWE00139252",
      "elevationUnit": "METERS",
      "longitude": 17.12
    },
    {
      "elevation": 80,
      "mindate": "1945-01-01",
      "maxdate": "2025-01-31",
      "latitude": 60.14,
      "name": "TORSBY, SW",
      "datacoverage": 0.9764,
      "id": "GHCND:SWE00139254",
      "elevationUnit": "METERS",
      "longitude": 13.01
    },
    {
      "elevation": 89,
      "mindate": "1986-10-01",
      "maxdate": "1990-12-31",
      "latitude": 60.12,
      "name": "SONNBO, SW",
      "datacoverage": 1,
      "id": "GHCND:SWE00139256",
      "elevationUnit": "METERS",
      "longitude": 16.28
    },
    {
      "elevation": 65,
      "mindate": "1945-01-01",
      "maxdate": "1982-01-31",
      "latitude": 60.12,
      "name": "LEKNAS, SW",
      "datacoverage": 0.9786,
      "id": "GHCND:SWE00139258",
      "elevationUnit": "METERS",
      "longitude": 16.59
    }
  ]
}
