{
  "metadata": {
    "resultset": {
      "offset": 57500,
      "count": 154115,
      "limit": 100
    }
  },
  "results": [
    {
      "elevation": 468,
      "mindate": "2005-09-01",
      "maxdate": "2025-01-31",
      "latitude": 48.6106,
      "name": "HERMARINGEN ALLEWIND, GM",
      "datacoverage": 1,
      "id": "GHCND:GME00131986",
      "elevationUnit": "METERS",
      "longitude": 10.2692
    },
    {
      "elevation": 688,
      "mindate": "2006-03-31",
      "maxdate": "2025-01-31",
      "latitude": 50.6208,
      "name": "DEUTSCHNEUDORF BRUDERWIESE, GM",
      "datacoverage": 1,
      "id": "GHCND:GME00131998",
      "elevationUnit": "METERS",
      "longitude": 13.4831
    },
    {
      "elevation": 588,
      "mindate": "2006-08-01",
      "maxdate": "2025-01-31",
      "latitude": 49.1094,
      "name": "PRACKENBACH NEUHAUSEL, GM",
      "datacoverage": 0.9979,
      "id": "GHCND:GME00132010",
      "elevationUnit": "METERS",
      "longitude": 12.8244
    },
    {
      "elevation": 115,
      "mindate": "2005-09-08",
      "maxdate": "2025-01-31",
      "latitude": 53.3175,
      "name": "FELDBERG MECKLENBURG, GM",
      "datacoverage": 0.9998,
      "id": "GHCND:GME00132022",
      "elevationUnit": "METERS",
      "longitude": 13.4175
    },
    {
      "elevation": 74,
      "mindate": "2007-01-01",
      "maxdate": "2025-01-31",
      "latitude": 51.6831,
      "name": "JESSNITZ, GM",
      "datacoverage": 1,
      "id": "GHCND:GME00132034",
      "elevationUnit": "METERS",
      "longitude": 12.3056
    },
    {
      "elevation": 144,
      "mindate": "2007-12-01",
      "maxdate": "2025-01-31",
      "latitude": 51.9669,
      "name": "ALFELD, GM",
      "datacoverage": 1,
      "id": "GHCND:GME00132046",
      "elevationUnit": "METERS",
      "longitude": 9.8042
    },
    {
      "elevation": 312,
      "mindate": "2007-11-01",
      "maxdate": "2025-01-31",
      "latitude": 51.0025,
      "name": "EISENACH, GM",
      "datacoverage": 0.9998,
      "id": "GHCND:GME00132058",
      "elevationUnit": "METERS",
      "longitude": 10.3633
    },
    {
      "elevation": 475,
      "mindate": "2007-11-01",
      "maxdate": "2025-01-31",
      "latitude": 49.1631,
      "name": "FEUCHTWANGEN HEILBRONN, GM",
      "datacoverage": 0.9998,
      "id": "GHCND:GME00132070",
      "elevationUnit": "METERS",
      "longitude": 10.3669
    },
    {
      "elevation": 390,
      "mindate": "1947-01-01",
      "maxdate": "1999-12-31",
      "latitude": 49.6314,
      "name": "BRUCKEN, GM",
      "datacoverage": 0.945,
      "id": "GHCND:GME00132082",
      "elevationUnit": "METERS",
      "longitude": 7.1156
    },
    {
      "elevation": 499,
      "mindate": "2006-12-11",
      "maxdate": "2025-01-31",
      "latitude": 49.3919,
      "name": "WALDMUNCHEN, GM",
      "datacoverage": 1,
      "id": "GHCND:GME00132094",
      "elevationUnit": "METERS",
      "longitude": 12.6853
    },
    {
      "elevation": 3,
      "mindate": "2006-03-01",
      "maxdate": "2025-01-31",
      "latitude": 53.6,
      "name": "BORKUM FLUGPLATZ, GM",
      "datacoverage": 1,
      "id": "GHCND:GME00132106",
      "elevationUnit": "METERS",
      "longitude": 6.7031
    },
    {
      "elevation": 82,
      "mindate": "2006-12-01",
      "maxdate": "2025-01-31",
      "latitude": 52.7458,
      "name": "HECKELBERG, GM",
      "datacoverage": 0.9998,
      "id": "GHCND:GME00132130",
      "elevationUnit": "METERS",
      "longitude": 13.8419
    },
    {
      "elevation": 310,
      "mindate": "1931-01-01",
      "maxdate": "1984-08-31",
      "latitude": 50.3092,
      "name": "BAD BRUCKENAU A, GM",
      "datacoverage": 0.9628,
      "id": "GHCND:GME00132142",
      "elevationUnit": "METERS",
      "longitude": 9.7844
    },
    {
      "elevation": 116,
      "mindate": "2010-01-01",
      "maxdate": "2025-01-31",
      "latitude": 51.4506,
      "name": "HOYERSWERDA, GM",
      "datacoverage": 1,
      "id": "GHCND:GME00132154",
      "elevationUnit": "METERS",
      "longitude": 14.2542
    },
    {
      "elevation": 622,
      "mindate": "2006-06-01",
      "maxdate": "2025-01-31",
      "latitude": 50.0317,
      "name": "WUNSIEDEL SCHONBRUNN, GM",
      "datacoverage": 1,
      "id": "GHCND:GME00132166",
      "elevationUnit": "METERS",
      "longitude": 11.9742
    },
    {
      "elevation": 350,
      "mindate": "2007-12-01",
      "maxdate": "2025-01-31",
      "latitude": 48.6606,
      "name": "GOTTFRIEDING, GM",
      "datacoverage": 0.9998,
      "id": "GHCND:GME00132178",
      "elevationUnit": "METERS",
      "longitude": 12.5403
    },
    {
      "elevation": 743,
      "mindate": "2008-05-01",
      "maxdate": "2025-01-31",
      "latitude": 50.5083,
      "name": "HOHERODSKOPF VOGELSBERG, GM",
      "datacoverage": 0.9989,
      "id": "GHCND:GME00132190",
      "elevationUnit": "METERS",
      "longitude": 9.2244
    },
    {
      "elevation": 340,
      "mindate": "1931-01-01",
      "maxdate": "2025-01-31",
      "latitude": 48.6167,
      "name": "ALDERSBACH KRIESTORF, GM",
      "datacoverage": 0.9888,
      "id": "GHCND:GME00132202",
      "elevationUnit": "METERS",
      "longitude": 13.0519
    },
    {
      "elevation": 672,
      "mindate": "2007-04-01",
      "maxdate": "2025-01-31",
      "latitude": 47.7964,
      "name": "LEUTKIRCH HERLAZHOFEN, GM",
      "datacoverage": 0.9981,
      "id": "GHCND:GME00132214",
      "elevationUnit": "METERS",
      "longitude": 10.0333
    },
    {
      "elevation": 350,
      "mindate": "2011-02-01",
      "maxdate": "2025-01-31",
      "latitude": 50.7531,
      "name": "NEU ULRICHSTEIN, GM",
      "datacoverage": 1,
      "id": "GHCND:GME00132226",
      "elevationUnit": "METERS",
      "longitude": 9.0233
    },
    {
      "elevation": 340,
      "mindate": "2006-10-01",
      "maxdate": "2025-01-31",
      "latitude": 50.0092,
      "name": "NEUHUTTEN SPESSART, GM",
      "datacoverage": 0.9987,
      "id": "GHCND:GME00132238",
      "elevationUnit": "METERS",
      "longitude": 9.425
    },
    {
      "elevation": 390,
      "mindate": "2006-12-01",
      "maxdate": "2025-01-31",
      "latitude": 50.6619,
      "name": "LANGENWETZENDORF GOTTENDORF, GM",
      "datacoverage": 1,
      "id": "GHCND:GME00132250",
      "elevationUnit": "METERS",
      "longitude": 12.0769
    },
    {
      "elevation": 246,
      "mindate": "2007-04-01",
      "maxdate": "2025-01-31",
      "latitude": 51.1056,
      "name": "KREIPITZSCH BEI BAD KOSEN, GM",
      "datacoverage": 1,
      "id": "GHCND:GME00132262",
      "elevationUnit": "METERS",
      "longitude": 11.7125
    },
    {
      "elevation": 458,
      "mindate": "2006-12-01",
      "maxdate": "2025-01-31",
      "latitude": 47.7731,
      "name": "PIDING, GM",
      "datacoverage": 1,
      "id": "GHCND:GME00132274",
      "elevationUnit": "METERS",
      "longitude": 12.9089
    },
    {
      "elevation": 17,
      "mindate": "2007-08-31",
      "maxdate": "2025-01-31",
      "latitude": 54.0206,
      "name": "PADENSTEDT PONY PARK, GM",
      "datacoverage": 1,
      "id": "GHCND:GME00132286",
      "elevationUnit": "METERS",
      "longitude": 9.9267
    },
    {
      "elevation": 397,
      "mindate": "2007-05-01",
      "maxdate": "2025-01-31",
      "latitude": 50.4178,
      "name": "VEILSDORF, GM",
      "datacoverage": 1,
      "id": "GHCND:GME00132298",
      "elevationUnit": "METERS",
      "longitude": 10.8167
    },
    {
      "elevation": 604,
      "mindate": "2007-11-01",
      "maxdate": "2025-01-31",
      "latitude": 48.0139,
      "name": "OBERHACHING LAUFZORN, GM",
      "datacoverage": 1,
      "id": "GHCND:GME00132310",
      "elevationUnit": "METERS",
      "longitude": 11.5539
    },
    {
      "elevation": 72,
      "mindate": "2007-05-01",
      "maxdate": "2025-01-31",
      "latitude": 52.6439,
      "name": "WITTINGEN VORHOP, GM",
      "datacoverage": 1,
      "id": "GHCND:GME00132322",
      "elevationUnit": "METERS",
      "longitude": 10.6642
    },
    {
      "elevation": 340,
      "mindate": "1935-01-01",
      "maxdate": "2025-01-31",
      "latitude": 49.5192,
      "name": "KR. NECKAR ODENWALD BUCHEN, GM",
      "datacoverage": 0.9741,
      "id": "GHCND:GME00132334",
      "elevationUnit": "METERS",
      "longitude": 9.3225
    },
    {
      "elevation": 445,
      "mindate": "1990-10-01",
      "maxdate": "2025-01-31",
      "latitude": 47.9631,
      "name": "BUCHENBACH, GM",
      "datacoverage": 1,
      "id": "GHCND:GME00132346",
      "elevationUnit": "METERS",
      "longitude": 7.9989
    },
    {
      "elevation": 77,
      "mindate": "1976-06-01",
      "maxdate": "2025-01-31",
      "latitude": 53.3567,
      "name": "BUCHHOLZ IN DER NORDHEIDE, GM",
      "datacoverage": 0.7723,
      "id": "GHCND:GME00132358",
      "elevationUnit": "METERS",
      "longitude": 9.9367
    },
    {
      "elevation": 477,
      "mindate": "2001-04-01",
      "maxdate": "2025-01-31",
      "latitude": 50.1739,
      "name": "BUCHEL FLUGPLATZ, GM",
      "datacoverage": 0.9008,
      "id": "GHCND:GME00132370",
      "elevationUnit": "METERS",
      "longitude": 7.0631
    },
    {
      "elevation": 68,
      "mindate": "1978-01-01",
      "maxdate": "2025-01-31",
      "latitude": 52.2817,
      "name": "BUCKEBURG, GM",
      "datacoverage": 0.9955,
      "id": "GHCND:GME00132382",
      "elevationUnit": "METERS",
      "longitude": 9.0878
    },
    {
      "elevation": 148,
      "mindate": "1931-01-01",
      "maxdate": "2004-12-31",
      "latitude": 50.2781,
      "name": "BUDINGEN, GM",
      "datacoverage": 0.973,
      "id": "GHCND:GME00132394",
      "elevationUnit": "METERS",
      "longitude": 9.1178
    },
    {
      "elevation": 190,
      "mindate": "1947-01-01",
      "maxdate": "1986-04-30",
      "latitude": 48.6967,
      "name": "BUHLERTAL, GM",
      "datacoverage": 0.998,
      "id": "GHCND:GME00132406",
      "elevationUnit": "METERS",
      "longitude": 8.1753
    },
    {
      "elevation": 478,
      "mindate": "1986-05-01",
      "maxdate": "2004-12-31",
      "latitude": 48.6753,
      "name": "BUHLERTAL OBERTAL, GM",
      "datacoverage": 1,
      "id": "GHCND:GME00132418",
      "elevationUnit": "METERS",
      "longitude": 8.1806
    },
    {
      "elevation": 65,
      "mindate": "1961-01-01",
      "maxdate": "2025-01-31",
      "latitude": 52.4864,
      "name": "ALFHAUSEN, GM",
      "datacoverage": 0.9962,
      "id": "GHCND:GME00132430",
      "elevationUnit": "METERS",
      "longitude": 7.9128
    },
    {
      "elevation": 530,
      "mindate": "1992-01-01",
      "maxdate": "1994-10-31",
      "latitude": 49.6631,
      "name": "BUHLENBERG, GM",
      "datacoverage": 1,
      "id": "GHCND:GME00132442",
      "elevationUnit": "METERS",
      "longitude": 7.1106
    },
    {
      "elevation": 290,
      "mindate": "1941-01-01",
      "maxdate": "2025-01-31",
      "latitude": 49.7458,
      "name": "SCHLUSSELFELD KLARANLAGE, GM",
      "datacoverage": 0.8153,
      "id": "GHCND:GME00132454",
      "elevationUnit": "METERS",
      "longitude": 10.6444
    },
    {
      "elevation": 293,
      "mindate": "1952-10-01",
      "maxdate": "2025-01-31",
      "latitude": 51.0317,
      "name": "BURGWALD BOTTENDORF, GM",
      "datacoverage": 0.9965,
      "id": "GHCND:GME00132466",
      "elevationUnit": "METERS",
      "longitude": 8.8156
    },
    {
      "elevation": 897,
      "mindate": "1989-12-01",
      "maxdate": "2025-01-31",
      "latitude": 50.4319,
      "name": "CARLSFELD, GM",
      "datacoverage": 0.9993,
      "id": "GHCND:GME00132490",
      "elevationUnit": "METERS",
      "longitude": 12.6128
    },
    {
      "elevation": 33,
      "mindate": "1940-01-01",
      "maxdate": "2025-01-31",
      "latitude": 52.6164,
      "name": "CELLE STADT, GM",
      "datacoverage": 0.9755,
      "id": "GHCND:GME00132502",
      "elevationUnit": "METERS",
      "longitude": 10.0739
    },
    {
      "elevation": 39,
      "mindate": "1979-01-01",
      "maxdate": "2025-01-31",
      "latitude": 52.5953,
      "name": "CELLE, GM",
      "datacoverage": 0.9905,
      "id": "GHCND:GME00132514",
      "elevationUnit": "METERS",
      "longitude": 10.0281
    },
    {
      "elevation": 389,
      "mindate": "1931-01-01",
      "maxdate": "2025-01-31",
      "latitude": 49.2514,
      "name": "PEMFLING PITZLING, GM",
      "datacoverage": 0.969,
      "id": "GHCND:GME00132526",
      "elevationUnit": "METERS",
      "longitude": 12.6056
    },
    {
      "elevation": 418,
      "mindate": "1882-01-01",
      "maxdate": "2025-01-31",
      "latitude": 50.7925,
      "name": "CHEMNITZ, GM",
      "datacoverage": 0.94,
      "id": "GHCND:GME00132538",
      "elevationUnit": "METERS",
      "longitude": 12.8733
    },
    {
      "elevation": 551,
      "mindate": "1998-01-01",
      "maxdate": "2025-01-31",
      "latitude": 47.8853,
      "name": "CHIEMING, GM",
      "datacoverage": 0.9643,
      "id": "GHCND:GME00132550",
      "elevationUnit": "METERS",
      "longitude": 12.5417
    },
    {
      "elevation": 585,
      "mindate": "1890-01-01",
      "maxdate": "2012-04-04",
      "latitude": 51.7917,
      "name": "CLAUSTHAL ZELLERFELD, GM",
      "datacoverage": 0.942,
      "id": "GHCND:GME00132562",
      "elevationUnit": "METERS",
      "longitude": 10.3481
    },
    {
      "elevation": 42,
      "mindate": "1960-01-01",
      "maxdate": "1971-02-28",
      "latitude": 52.8456,
      "name": "CLOPPENBURG, GM",
      "datacoverage": 1,
      "id": "GHCND:GME00132574",
      "elevationUnit": "METERS",
      "longitude": 8.0631
    },
    {
      "elevation": 345,
      "mindate": "1947-01-01",
      "maxdate": "2025-01-31",
      "latitude": 50.3081,
      "name": "LAUTERTAL OBERLAUTER, GM",
      "datacoverage": 0.9984,
      "id": "GHCND:GME00132586",
      "elevationUnit": "METERS",
      "longitude": 10.9692
    },
    {
      "elevation": 68,
      "mindate": "2001-04-01",
      "maxdate": "2003-03-31",
      "latitude": 51.7667,
      "name": "COTTBUS FLUGPLATZ, GM",
      "datacoverage": 0.7822,
      "id": "GHCND:GME00132598",
      "elevationUnit": "METERS",
      "longitude": 14.2831
    },
    {
      "elevation": 423,
      "mindate": "1950-01-01",
      "maxdate": "2021-07-12",
      "latitude": 49.0992,
      "name": "CRAILSHEIM ALEXANDERSREUT, GM",
      "datacoverage": 0.9955,
      "id": "GHCND:GME00132610",
      "elevationUnit": "METERS",
      "longitude": 10.0992
    },
    {
      "elevation": 269,
      "mindate": "1965-01-01",
      "maxdate": "1997-01-31",
      "latitude": 50.8158,
      "name": "CRIMMITSCHAU, GM",
      "datacoverage": 0.8677,
      "id": "GHCND:GME00132622",
      "elevationUnit": "METERS",
      "longitude": 12.3833
    },
    {
      "elevation": 170,
      "mindate": "1949-07-01",
      "maxdate": "2025-01-31",
      "latitude": 51.0783,
      "name": "DACHWIG, GM",
      "datacoverage": 0.9929,
      "id": "GHCND:GME00132634",
      "elevationUnit": "METERS",
      "longitude": 10.8639
    },
    {
      "elevation": 162,
      "mindate": "1995-08-01",
      "maxdate": "2025-01-31",
      "latitude": 49.8817,
      "name": "DARMSTADT, GM",
      "datacoverage": 1,
      "id": "GHCND:GME00132646",
      "elevationUnit": "METERS",
      "longitude": 8.6775
    },
    {
      "elevation": 122,
      "mindate": "1987-10-01",
      "maxdate": "1995-07-31",
      "latitude": 49.8464,
      "name": "DARMSTADT A, GM",
      "datacoverage": 1,
      "id": "GHCND:GME00132658",
      "elevationUnit": "METERS",
      "longitude": 8.625
    },
    {
      "elevation": 169,
      "mindate": "1937-02-01",
      "maxdate": "1974-07-31",
      "latitude": 49.8706,
      "name": "DARMSTADT BOTANISCHER GARTEN, GM",
      "datacoverage": 1,
      "id": "GHCND:GME00132670",
      "elevationUnit": "METERS",
      "longitude": 8.6806
    },
    {
      "elevation": 300,
      "mindate": "1978-11-01",
      "maxdate": "2025-01-31",
      "latitude": 50.7456,
      "name": "ALSFELD EIFA, GM",
      "datacoverage": 0.9982,
      "id": "GHCND:GME00132682",
      "elevationUnit": "METERS",
      "longitude": 9.3467
    },
    {
      "elevation": 708,
      "mindate": "1989-08-01",
      "maxdate": "2025-01-31",
      "latitude": 47.8017,
      "name": "DEGGENHAUSERTAL AZENWEILER, GM",
      "datacoverage": 0.9985,
      "id": "GHCND:GME00132694",
      "elevationUnit": "METERS",
      "longitude": 9.4117
    },
    {
      "elevation": 269,
      "mindate": "1971-01-01",
      "maxdate": "1999-12-31",
      "latitude": 50.7703,
      "name": "ALSFELD REIBERTENROD, GM",
      "datacoverage": 1,
      "id": "GHCND:GME00132706",
      "elevationUnit": "METERS",
      "longitude": 9.2553
    },
    {
      "elevation": 60,
      "mindate": "1948-03-01",
      "maxdate": "1950-12-31",
      "latitude": 51.8525,
      "name": "DESSAU, GM",
      "datacoverage": 1,
      "id": "GHCND:GME00132722",
      "elevationUnit": "METERS",
      "longitude": 12.2531
    },
    {
      "elevation": 481,
      "mindate": "1931-01-01",
      "maxdate": "2025-01-31",
      "latitude": 49.7631,
      "name": "DEUSELBACH, GM",
      "datacoverage": 0.9826,
      "id": "GHCND:GME00132730",
      "elevationUnit": "METERS",
      "longitude": 7.0556
    },
    {
      "elevation": 413,
      "mindate": "1952-01-01",
      "maxdate": "1962-12-31",
      "latitude": 50.0842,
      "name": "DIERFELD, GM",
      "datacoverage": 1,
      "id": "GHCND:GME00132754",
      "elevationUnit": "METERS",
      "longitude": 6.8908
    },
    {
      "elevation": 100,
      "mindate": "1948-06-01",
      "maxdate": "1990-06-30",
      "latitude": 51.2414,
      "name": "DIESBAR SEUSSLITZ, GM",
      "datacoverage": 0.9839,
      "id": "GHCND:GME00132770",
      "elevationUnit": "METERS",
      "longitude": 13.4181
    },
    {
      "elevation": 405,
      "mindate": "1985-04-01",
      "maxdate": "2025-01-31",
      "latitude": 49.4169,
      "name": "DIETENHOFEN, GM",
      "datacoverage": 0.9936,
      "id": "GHCND:GME00132778",
      "elevationUnit": "METERS",
      "longitude": 10.6742
    },
    {
      "elevation": 314,
      "mindate": "1931-01-01",
      "maxdate": "2023-03-12",
      "latitude": 50.7325,
      "name": "DILLENBURG, GM",
      "datacoverage": 0.9728,
      "id": "GHCND:GME00132790",
      "elevationUnit": "METERS",
      "longitude": 8.2631
    },
    {
      "elevation": 420,
      "mindate": "1947-05-01",
      "maxdate": "2006-11-30",
      "latitude": 48.5708,
      "name": "DILLINGEN DONAU, GM",
      "datacoverage": 1,
      "id": "GHCND:GME00132802",
      "elevationUnit": "METERS",
      "longitude": 10.4994
    },
    {
      "elevation": 419,
      "mindate": "1951-01-01",
      "maxdate": "2025-01-31",
      "latitude": 48.5569,
      "name": "DILLINGEN DONAU FRISTINGEN, GM",
      "datacoverage": 0.9865,
      "id": "GHCND:GME00132814",
      "elevationUnit": "METERS",
      "longitude": 10.5608
    },
    {
      "elevation": 365,
      "mindate": "1945-08-01",
      "maxdate": "2025-01-31",
      "latitude": 50.9181,
      "name": "DIPPOLDISWALDE REINBERG, GM",
      "datacoverage": 0.9958,
      "id": "GHCND:GME00132838",
      "elevationUnit": "METERS",
      "longitude": 13.7144
    },
    {
      "elevation": 17,
      "mindate": "1973-01-01",
      "maxdate": "2012-12-01",
      "latitude": 54.8,
      "name": "LECK, GM",
      "datacoverage": 0.9995,
      "id": "GHCND:GMM00010022",
      "elevationUnit": "METERS",
      "longitude": 8.95
    },
    {
      "elevation": 11,
      "mindate": "2001-09-01",
      "maxdate": "2009-11-01",
      "latitude": 54.333,
      "name": "ST PETER ORDING, GM",
      "datacoverage": 1,
      "id": "GHCND:GMM00010028",
      "elevationUnit": "METERS",
      "longitude": 8.6
    },
    {
      "elevation": 4,
      "mindate": "1975-06-07",
      "maxdate": "2003-08-16",
      "latitude": 54.667,
      "name": "OLPENITZ AUT, GM",
      "datacoverage": 0.9986,
      "id": "GHCND:GMM00010042",
      "elevationUnit": "METERS",
      "longitude": 10.033
    },
    {
      "elevation": 34,
      "mindate": "1991-11-01",
      "maxdate": "2003-08-16",
      "latitude": 54.367,
      "name": "PUTBUS, GM",
      "datacoverage": 0.1197,
      "id": "GHCND:GMM00010093",
      "elevationUnit": "METERS",
      "longitude": 13.483
    },
    {
      "elevation": 12,
      "mindate": "1947-08-01",
      "maxdate": "2025-01-31",
      "latitude": 54.2456,
      "name": "GREIFSWALDER OIE, GM",
      "datacoverage": 0.512,
      "id": "GHCND:GMM00010097",
      "elevationUnit": "METERS",
      "longitude": 13.9125
    },
    {
      "elevation": 7,
      "mindate": "1949-01-01",
      "maxdate": "2025-01-31",
      "latitude": 53.5344,
      "name": "BREMERHAVEN, GM",
      "datacoverage": 0.9995,
      "id": "GHCND:GMM00010129",
      "elevationUnit": "METERS",
      "longitude": 8.5769
    },
    {
      "elevation": 1,
      "mindate": "1988-01-01",
      "maxdate": "2003-08-16",
      "latitude": 54.067,
      "name": "ELPERSBUETTEL AUT, GM",
      "datacoverage": 0.6661,
      "id": "GHCND:GMM00010130",
      "elevationUnit": "METERS",
      "longitude": 9.017
    },
    {
      "elevation": 5,
      "mindate": "1990-04-01",
      "maxdate": "2003-08-16",
      "latitude": 53.5,
      "name": "BREMERVOERDE AUT, GM",
      "datacoverage": 0.2236,
      "id": "GHCND:GMM00010139",
      "elevationUnit": "METERS",
      "longitude": 9.167
    },
    {
      "elevation": 26,
      "mindate": "1973-01-02",
      "maxdate": "2005-10-01",
      "latitude": 53.983,
      "name": "ITZEHOE, GM",
      "datacoverage": 0.8582,
      "id": "GHCND:GMM00010142",
      "elevationUnit": "METERS",
      "longitude": 9.567
    },
    {
      "elevation": 17,
      "mindate": "1996-04-01",
      "maxdate": "2012-12-01",
      "latitude": 53.733,
      "name": "QUICKBORN, GM",
      "datacoverage": 0.9931,
      "id": "GHCND:GMM00010146",
      "elevationUnit": "METERS",
      "longitude": 9.883
    },
    {
      "elevation": 28,
      "mindate": "2001-09-01",
      "maxdate": "2012-12-01",
      "latitude": 54.167,
      "name": "DOERNICK, GM",
      "datacoverage": 0.9975,
      "id": "GHCND:GMM00010150",
      "elevationUnit": "METERS",
      "longitude": 10.35
    },
    {
      "elevation": 2,
      "mindate": "1988-02-01",
      "maxdate": "2003-08-16",
      "latitude": 54.083,
      "name": "PELZERHAKEN AUT",
      "datacoverage": 0.3316,
      "id": "GHCND:GMM00010152",
      "elevationUnit": "METERS",
      "longitude": 10.883
    },
    {
      "elevation": 16.2,
      "mindate": "1973-01-01",
      "maxdate": "2025-03-06",
      "latitude": 53.805,
      "name": "LUBECK BLANKENSEE, GM",
      "datacoverage": 0.7692,
      "id": "GHCND:GMM00010156",
      "elevationUnit": "METERS",
      "longitude": 10.719
    },
    {
      "elevation": 15,
      "mindate": "1947-01-01",
      "maxdate": "2025-01-31",
      "latitude": 54.0042,
      "name": "BOLTENHAGEN, GM",
      "datacoverage": 1,
      "id": "GHCND:GMM00010161",
      "elevationUnit": "METERS",
      "longitude": 11.1919
    },
    {
      "elevation": 58,
      "mindate": "1888-01-01",
      "maxdate": "2025-01-31",
      "latitude": 53.6069,
      "name": "GOLDBERG, GM",
      "datacoverage": 0.9313,
      "id": "GHCND:GMM00010168",
      "elevationUnit": "METERS",
      "longitude": 12.1042
    },
    {
      "elevation": 7,
      "mindate": "1936-08-01",
      "maxdate": "2003-08-16",
      "latitude": 54.367,
      "name": "BARTH, GM",
      "datacoverage": 0.1,
      "id": "GHCND:GMM00010180",
      "elevationUnit": "METERS",
      "longitude": 12.733
    },
    {
      "elevation": 7,
      "mindate": "1937-06-01",
      "maxdate": "2003-08-16",
      "latitude": 53.75,
      "name": "UECKERMUENDE AUT, GM",
      "datacoverage": 0.7267,
      "id": "GHCND:GMM00010193",
      "elevationUnit": "METERS",
      "longitude": 14.067
    },
    {
      "elevation": 77,
      "mindate": "1973-01-01",
      "maxdate": "2003-08-16",
      "latitude": 53,
      "name": "SOLTAU, GM",
      "datacoverage": 0.9986,
      "id": "GHCND:GMM00010235",
      "elevationUnit": "METERS",
      "longitude": 9.833
    },
    {
      "elevation": 46,
      "mindate": "1952-01-01",
      "maxdate": "2003-08-16",
      "latitude": 53.4,
      "name": "BOIZENBURG AUT, GM",
      "datacoverage": 0.25,
      "id": "GHCND:GMM00010249",
      "elevationUnit": "METERS",
      "longitude": 10.683
    },
    {
      "elevation": 17,
      "mindate": "1931-01-01",
      "maxdate": "2025-01-31",
      "latitude": 52.9739,
      "name": "LUCHOW, GM",
      "datacoverage": 0.974,
      "id": "GHCND:GMM00010253",
      "elevationUnit": "METERS",
      "longitude": 11.1392
    },
    {
      "elevation": 23,
      "mindate": "1991-11-01",
      "maxdate": "2003-08-16",
      "latitude": 52.9,
      "name": "SEEHAUSEN ALTMARK, GM",
      "datacoverage": 0.1197,
      "id": "GHCND:GMM00010261",
      "elevationUnit": "METERS",
      "longitude": 11.733
    },
    {
      "elevation": 40,
      "mindate": "1945-05-01",
      "maxdate": "2025-01-31",
      "latitude": 52.9381,
      "name": "KYRITZ, GM",
      "datacoverage": 0.9803,
      "id": "GHCND:GMM00010267",
      "elevationUnit": "METERS",
      "longitude": 12.4106
    },
    {
      "elevation": 71,
      "mindate": "1994-10-01",
      "maxdate": "2004-12-31",
      "latitude": 53.517,
      "name": "WAREN, GM",
      "datacoverage": 0.9834,
      "id": "GHCND:GMM00010268",
      "elevationUnit": "METERS",
      "longitude": 12.667
    },
    {
      "elevation": 69,
      "mindate": "1994-12-01",
      "maxdate": "2025-01-31",
      "latitude": 53.6019,
      "name": "TROLLENHAGEN, GM",
      "datacoverage": 0.9771,
      "id": "GHCND:GMM00010281",
      "elevationUnit": "METERS",
      "longitude": 13.3058
    },
    {
      "elevation": 57,
      "mindate": "1936-01-01",
      "maxdate": "2003-08-16",
      "latitude": 53.317,
      "name": "GRUENOW AUT, GM",
      "datacoverage": 0.1182,
      "id": "GHCND:GMM00010289",
      "elevationUnit": "METERS",
      "longitude": 13.933
    },
    {
      "elevation": 21,
      "mindate": "1973-01-01",
      "maxdate": "2003-08-16",
      "latitude": 52.517,
      "name": "LINGEN, GM",
      "datacoverage": 0.6604,
      "id": "GHCND:GMM00010305",
      "elevationUnit": "METERS",
      "longitude": 7.317
    },
    {
      "elevation": 46,
      "mindate": "2006-03-01",
      "maxdate": "2025-01-31",
      "latitude": 52.0828,
      "name": "AHAUS, GM",
      "datacoverage": 1,
      "id": "GHCND:GMM00010309",
      "elevationUnit": "METERS",
      "longitude": 6.9417
    },
    {
      "elevation": 104,
      "mindate": "1936-01-01",
      "maxdate": "1942-12-31",
      "latitude": 52.318,
      "name": "BELM, GM",
      "datacoverage": 0.9999,
      "id": "GHCND:GMM00010312",
      "elevationUnit": "METERS",
      "longitude": 8.17
    },
    {
      "elevation": 39,
      "mindate": "1952-09-01",
      "maxdate": "2025-03-06",
      "latitude": 52.5903,
      "name": "DIEPHOLZ, GM",
      "datacoverage": 1,
      "id": "GHCND:GMM00010321",
      "elevationUnit": "METERS",
      "longitude": 8.3464
    },
    {
      "elevation": 98,
      "mindate": "1973-01-01",
      "maxdate": "2003-08-16",
      "latitude": 52.1,
      "name": "BAD SALZUFLEN, GM",
      "datacoverage": 0.6604,
      "id": "GHCND:GMM00010325",
      "elevationUnit": "METERS",
      "longitude": 8.75
    },
    {
      "elevation": 89.9,
      "mindate": "1936-01-01",
      "maxdate": "2025-03-06",
      "latitude": 52.319,
      "name": "BRAUNSCHWEIG WOLFSBURG, GM",
      "datacoverage": 0.494,
      "id": "GHCND:GMM00010348",
      "elevationUnit": "METERS",
      "longitude": 10.556
    },
    {
      "elevation": 163,
      "mindate": "1991-11-01",
      "maxdate": "2003-08-16",
      "latitude": 52.167,
      "name": "UMMENDORF AUT, GM",
      "datacoverage": 0.7841,
      "id": "GHCND:GMM00010356",
      "elevationUnit": "METERS",
      "longitude": 11.183
    }
  ]
}
