{
  "metadata": {
    "resultset": {
      "offset": 61200,
      "count": 154115,
      "limit": 100
    }
  },
  "results": [
    {
      "elevation": 245,
      "mindate": "1901-01-01",
      "maxdate": "1970-12-31",
      "latitude": 11.22,
      "name": "JAYAMKONDAM, IN",
      "datacoverage": 0.9857,
      "id": "GHCND:IN020131900",
      "elevationUnit": "METERS",
      "longitude": 79.37
    },
    {
      "elevation": 132,
      "mindate": "1901-01-01",
      "maxdate": "1969-09-30",
      "latitude": 10.45,
      "name": "ANNAVASAL, IN",
      "datacoverage": 0.9855,
      "id": "GHCND:IN020131901",
      "elevationUnit": "METERS",
      "longitude": 78.7
    },
    {
      "elevation": 174,
      "mindate": "1901-01-01",
      "maxdate": "1970-12-31",
      "latitude": 10.28,
      "name": "PONNAMARAVATHI, IN",
      "datacoverage": 0.9857,
      "id": "GHCND:IN020132000",
      "elevationUnit": "METERS",
      "longitude": 78.53
    },
    {
      "elevation": 192,
      "mindate": "1941-07-01",
      "maxdate": "1963-12-31",
      "latitude": 11.03,
      "name": "SIRUGANUR, IN",
      "datacoverage": 0.948,
      "id": "GHCND:IN020132100",
      "elevationUnit": "METERS",
      "longitude": 78.8
    },
    {
      "elevation": 80,
      "mindate": "1901-01-01",
      "maxdate": "1962-12-31",
      "latitude": 10.55,
      "name": "ADANAKOTTAI, IN",
      "datacoverage": 0.9987,
      "id": "GHCND:IN020132101",
      "elevationUnit": "METERS",
      "longitude": 78.97
    },
    {
      "elevation": 32,
      "mindate": "1901-01-01",
      "maxdate": "1969-12-31",
      "latitude": 10.45,
      "name": "KARAMBAKKUDI, IN",
      "datacoverage": 0.9795,
      "id": "GHCND:IN020132200",
      "elevationUnit": "METERS",
      "longitude": 79.15
    },
    {
      "elevation": 80,
      "mindate": "1937-10-01",
      "maxdate": "1970-10-31",
      "latitude": 10.48,
      "name": "PERUNGALUR, IN",
      "datacoverage": 0.9698,
      "id": "GHCND:IN020132201",
      "elevationUnit": "METERS",
      "longitude": 78.92
    },
    {
      "elevation": 143,
      "mindate": "1951-01-01",
      "maxdate": "1970-12-31",
      "latitude": 10.88,
      "name": "ANAIPALAYAM, IN",
      "datacoverage": 0.9458,
      "id": "GHCND:IN020132400",
      "elevationUnit": "METERS",
      "longitude": 77.95
    },
    {
      "elevation": 227,
      "mindate": "1942-11-01",
      "maxdate": "1970-12-31",
      "latitude": 10.63,
      "name": "PALAVIDUTHI, IN",
      "datacoverage": 0.8166,
      "id": "GHCND:IN020132600",
      "elevationUnit": "METERS",
      "longitude": 78.25
    },
    {
      "elevation": 206,
      "mindate": "1941-04-01",
      "maxdate": "1970-11-30",
      "latitude": 10.97,
      "name": "PULLAMBADI, IN",
      "datacoverage": 0.7595,
      "id": "GHCND:IN020132700",
      "elevationUnit": "METERS",
      "longitude": 78.92
    },
    {
      "elevation": 45,
      "mindate": "1941-08-01",
      "maxdate": "1969-09-30",
      "latitude": 10.42,
      "name": "MALAIYUR, IN",
      "datacoverage": 0.8994,
      "id": "GHCND:IN020132701",
      "elevationUnit": "METERS",
      "longitude": 79
    },
    {
      "elevation": 840,
      "mindate": "1942-11-01",
      "maxdate": "1970-12-31",
      "latitude": 10.48,
      "name": "VEMBAVUR, IN",
      "datacoverage": 0.9171,
      "id": "GHCND:IN020132800",
      "elevationUnit": "METERS",
      "longitude": 78.57
    },
    {
      "elevation": 174,
      "mindate": "1937-09-01",
      "maxdate": "1970-12-31",
      "latitude": 10.37,
      "name": "KARAIYUR, IN",
      "datacoverage": 0.88,
      "id": "GHCND:IN020132900",
      "elevationUnit": "METERS",
      "longitude": 78.6
    },
    {
      "elevation": 45,
      "mindate": "1901-01-01",
      "maxdate": "1970-12-31",
      "latitude": 10.37,
      "name": "ALANGUDI, IN",
      "datacoverage": 0.9845,
      "id": "GHCND:IN020133000",
      "elevationUnit": "METERS",
      "longitude": 78.98
    },
    {
      "elevation": 104,
      "mindate": "1951-01-01",
      "maxdate": "1970-12-31",
      "latitude": 10.93,
      "name": "MAYANUR, IN",
      "datacoverage": 0.95,
      "id": "GHCND:IN020133400",
      "elevationUnit": "METERS",
      "longitude": 78.25
    },
    {
      "elevation": 32,
      "mindate": "1951-01-01",
      "maxdate": "1970-12-31",
      "latitude": 10.97,
      "name": "PONNERI HEAD, IN",
      "datacoverage": 0.95,
      "id": "GHCND:IN020133401",
      "elevationUnit": "METERS",
      "longitude": 79.23
    },
    {
      "elevation": 48,
      "mindate": "1951-01-01",
      "maxdate": "1970-12-31",
      "latitude": 10.9,
      "name": "MANDHIYAR HEAD, IN",
      "datacoverage": 0.95,
      "id": "GHCND:IN020133500",
      "elevationUnit": "METERS",
      "longitude": 78.95
    },
    {
      "elevation": 77,
      "mindate": "1951-01-01",
      "maxdate": "1970-12-31",
      "latitude": 10.9,
      "name": "UPPER ANICUT, IN",
      "datacoverage": 0.95,
      "id": "GHCND:IN020133600",
      "elevationUnit": "METERS",
      "longitude": 78.55
    },
    {
      "elevation": 181,
      "mindate": "1977-07-01",
      "maxdate": "2018-02-27",
      "latitude": 10.95,
      "name": "K. PARAMATHY, IN",
      "datacoverage": 0.9661,
      "id": "GHCND:IN020133800",
      "elevationUnit": "METERS",
      "longitude": 78.083
    },
    {
      "elevation": 747,
      "mindate": "1977-01-01",
      "maxdate": "1984-12-31",
      "latitude": 11.167,
      "name": "ARIYALUR, IN",
      "datacoverage": 0.8646,
      "id": "GHCND:IN020133801",
      "elevationUnit": "METERS",
      "longitude": 79
    },
    {
      "elevation": 228,
      "mindate": "1962-01-01",
      "maxdate": "1970-12-31",
      "latitude": 10.65,
      "name": "KADARUR, IN",
      "datacoverage": 0.8797,
      "id": "GHCND:IN020134300",
      "elevationUnit": "METERS",
      "longitude": 78.23
    },
    {
      "elevation": 5,
      "mindate": "1901-01-01",
      "maxdate": "1970-12-31",
      "latitude": 8.87,
      "name": "ARASADI, IN",
      "datacoverage": 0.9929,
      "id": "GHCND:IN020140100",
      "elevationUnit": "METERS",
      "longitude": 78.1
    },
    {
      "elevation": 69,
      "mindate": "1904-07-01",
      "maxdate": "1970-12-31",
      "latitude": 8.95,
      "name": "KAYATNUR, IN",
      "datacoverage": 1,
      "id": "GHCND:IN020140102",
      "elevationUnit": "METERS",
      "longitude": 77.78
    },
    {
      "elevation": 191,
      "mindate": "1901-01-01",
      "maxdate": "1970-12-31",
      "latitude": 8.95,
      "name": "TENKASI, IN",
      "datacoverage": 0.9988,
      "id": "GHCND:IN020140202",
      "elevationUnit": "METERS",
      "longitude": 77.32
    },
    {
      "elevation": 21,
      "mindate": "1901-01-01",
      "maxdate": "1970-12-31",
      "latitude": 8.92,
      "name": "OTTAPIDARAM, IN",
      "datacoverage": 0.9786,
      "id": "GHCND:IN020140300",
      "elevationUnit": "METERS",
      "longitude": 78.03
    },
    {
      "elevation": 64,
      "mindate": "1901-01-01",
      "maxdate": "1970-12-31",
      "latitude": 8.7,
      "name": "AMBASAMUDRAM, IN",
      "datacoverage": 1,
      "id": "GHCND:IN020140400",
      "elevationUnit": "METERS",
      "longitude": 77.43
    },
    {
      "elevation": 2,
      "mindate": "1901-01-01",
      "maxdate": "1970-12-31",
      "latitude": 8.42,
      "name": "KULASEKARAPATNAM, IN",
      "datacoverage": 0.9953,
      "id": "GHCND:IN020140401",
      "elevationUnit": "METERS",
      "longitude": 78.05
    },
    {
      "elevation": 51,
      "mindate": "1901-01-01",
      "maxdate": "1970-12-31",
      "latitude": 8.733,
      "name": "PALAYANKOTTAI, IN",
      "datacoverage": 0.9976,
      "id": "GHCND:IN020140500",
      "elevationUnit": "METERS",
      "longitude": 77.75
    },
    {
      "elevation": 3,
      "mindate": "1901-01-01",
      "maxdate": "1958-12-31",
      "latitude": 8.55,
      "name": "KIRNUR NAM, IN",
      "datacoverage": 0.99,
      "id": "GHCND:IN020140502",
      "elevationUnit": "METERS",
      "longitude": 78.1
    },
    {
      "elevation": 119,
      "mindate": "1901-01-01",
      "maxdate": "1970-12-31",
      "latitude": 8.48,
      "name": "NANGUNERI, IN",
      "datacoverage": 0.9845,
      "id": "GHCND:IN020140600",
      "elevationUnit": "METERS",
      "longitude": 77.65
    },
    {
      "elevation": 2,
      "mindate": "1914-03-01",
      "maxdate": "1970-12-31",
      "latitude": 8.5,
      "name": "TIRUCHENDUR, IN",
      "datacoverage": 0.9882,
      "id": "GHCND:IN020140601",
      "elevationUnit": "METERS",
      "longitude": 78.12
    },
    {
      "elevation": 8,
      "mindate": "1901-01-01",
      "maxdate": "1970-12-31",
      "latitude": 8.27,
      "name": "RADHAPURAM, IN",
      "datacoverage": 0.9976,
      "id": "GHCND:IN020140702",
      "elevationUnit": "METERS",
      "longitude": 77.68
    },
    {
      "elevation": 3,
      "mindate": "1968-01-01",
      "maxdate": "1970-12-31",
      "latitude": 8.75,
      "name": "TUTICORIN HARBOUOBSY SR, IN",
      "datacoverage": 1,
      "id": "GHCND:IN020140800",
      "elevationUnit": "METERS",
      "longitude": 78.18
    },
    {
      "elevation": 13,
      "mindate": "1902-04-01",
      "maxdate": "1970-12-31",
      "latitude": 8.45,
      "name": "SATTANKULAM, IN",
      "datacoverage": 0.994,
      "id": "GHCND:IN020140802",
      "elevationUnit": "METERS",
      "longitude": 77.92
    },
    {
      "elevation": 12,
      "mindate": "1901-01-01",
      "maxdate": "1970-12-31",
      "latitude": 8.63,
      "name": "SRIVAIKUNTAM, IN",
      "datacoverage": 0.9976,
      "id": "GHCND:IN020140901",
      "elevationUnit": "METERS",
      "longitude": 77.92
    },
    {
      "elevation": 88,
      "mindate": "1902-08-01",
      "maxdate": "1970-12-31",
      "latitude": 9.17,
      "name": "KO253LPATTI SR, IN",
      "datacoverage": 0.9951,
      "id": "GHCND:IN020141000",
      "elevationUnit": "METERS",
      "longitude": 77.87
    },
    {
      "elevation": 38,
      "mindate": "1912-01-01",
      "maxdate": "1970-12-31",
      "latitude": 8.73,
      "name": "TIRUNELVELI, IN",
      "datacoverage": 1,
      "id": "GHCND:IN020141001",
      "elevationUnit": "METERS",
      "longitude": 77.68
    },
    {
      "elevation": 152,
      "mindate": "1901-01-01",
      "maxdate": "1970-12-31",
      "latitude": 9.17,
      "name": "SANKARANKOIL, IN",
      "datacoverage": 0.9976,
      "id": "GHCND:IN020141100",
      "elevationUnit": "METERS",
      "longitude": 77.55
    },
    {
      "elevation": 172,
      "mindate": "1916-01-01",
      "maxdate": "1970-12-31",
      "latitude": 8.97,
      "name": "SHENCOTTAH, IN",
      "datacoverage": 0.9985,
      "id": "GHCND:IN020141101",
      "elevationUnit": "METERS",
      "longitude": 77.25
    },
    {
      "elevation": 163,
      "mindate": "1905-06-01",
      "maxdate": "1970-12-31",
      "latitude": 9.33,
      "name": "SIVAGIRI, IN",
      "datacoverage": 0.9949,
      "id": "GHCND:IN020141200",
      "elevationUnit": "METERS",
      "longitude": 77.43
    },
    {
      "elevation": 204,
      "mindate": "1905-06-01",
      "maxdate": "1970-12-31",
      "latitude": 9.08,
      "name": "KADAYANALLUR, IN",
      "datacoverage": 0.9987,
      "id": "GHCND:IN020141300",
      "elevationUnit": "METERS",
      "longitude": 77.35
    },
    {
      "elevation": 21,
      "mindate": "1901-01-01",
      "maxdate": "1970-12-31",
      "latitude": 9.15,
      "name": "VILATNIKULAM, IN",
      "datacoverage": 0.9976,
      "id": "GHCND:IN020141400",
      "elevationUnit": "METERS",
      "longitude": 78.17
    },
    {
      "elevation": 161,
      "mindate": "1916-01-01",
      "maxdate": "1970-12-31",
      "latitude": 9,
      "name": "AYIKUDI, IN",
      "datacoverage": 0.997,
      "id": "GHCND:IN020142200",
      "elevationUnit": "METERS",
      "longitude": 77.33
    },
    {
      "elevation": 105,
      "mindate": "1906-06-01",
      "maxdate": "1970-12-31",
      "latitude": 8.82,
      "name": "KADAYAM, IN",
      "datacoverage": 0.9148,
      "id": "GHCND:IN020143400",
      "elevationUnit": "METERS",
      "longitude": 77.37
    },
    {
      "elevation": 86,
      "mindate": "1951-01-01",
      "maxdate": "1970-12-31",
      "latitude": 8.68,
      "name": "KANNADIAN ANICUT, IN",
      "datacoverage": 0.95,
      "id": "GHCND:IN020143700",
      "elevationUnit": "METERS",
      "longitude": 77.48
    },
    {
      "elevation": 78,
      "mindate": "1951-01-01",
      "maxdate": "1970-12-31",
      "latitude": 8.67,
      "name": "CHERANMAHADEVI, IN",
      "datacoverage": 0.95,
      "id": "GHCND:IN020143800",
      "elevationUnit": "METERS",
      "longitude": 77.55
    },
    {
      "elevation": 76,
      "mindate": "1953-06-01",
      "maxdate": "1970-12-31",
      "latitude": 8.58,
      "name": "MANIMUTHAR, IN",
      "datacoverage": 0.9369,
      "id": "GHCND:IN020143900",
      "elevationUnit": "METERS",
      "longitude": 77.42
    },
    {
      "elevation": 16,
      "mindate": "1901-01-01",
      "maxdate": "2025-03-06",
      "latitude": 23.883,
      "name": "AGARTALA, IN",
      "datacoverage": 0.9227,
      "id": "GHCND:IN021010100",
      "elevationUnit": "METERS",
      "longitude": 91.25
    },
    {
      "elevation": 34,
      "mindate": "1938-01-01",
      "maxdate": "1970-12-31",
      "latitude": 24.08,
      "name": "KHOWAI, IN",
      "datacoverage": 0.952,
      "id": "GHCND:IN021010101",
      "elevationUnit": "METERS",
      "longitude": 91.62
    },
    {
      "elevation": 31,
      "mindate": "1938-01-01",
      "maxdate": "1970-12-31",
      "latitude": 23.47,
      "name": "SONAMURA, IN",
      "datacoverage": 0.9091,
      "id": "GHCND:IN021010200",
      "elevationUnit": "METERS",
      "longitude": 91.28
    },
    {
      "elevation": 40,
      "mindate": "1957-01-01",
      "maxdate": "1970-12-31",
      "latitude": 24.2,
      "name": "KAMALPUR, IN",
      "datacoverage": 1,
      "id": "GHCND:IN021010201",
      "elevationUnit": "METERS",
      "longitude": 91.83
    },
    {
      "elevation": 31,
      "mindate": "1938-01-01",
      "maxdate": "1970-12-31",
      "latitude": 23.02,
      "name": "SABROOM, IN",
      "datacoverage": 0.8738,
      "id": "GHCND:IN021010400",
      "elevationUnit": "METERS",
      "longitude": 91.73
    },
    {
      "elevation": 43,
      "mindate": "1938-01-01",
      "maxdate": "1970-12-31",
      "latitude": 23.5,
      "name": "AMARPUR, IN",
      "datacoverage": 0.9015,
      "id": "GHCND:IN021010500",
      "elevationUnit": "METERS",
      "longitude": 91.65
    },
    {
      "elevation": 25,
      "mindate": "1938-01-01",
      "maxdate": "1970-12-31",
      "latitude": 23.53,
      "name": "UDAIPUR, IN",
      "datacoverage": 0.9621,
      "id": "GHCND:IN021010600",
      "elevationUnit": "METERS",
      "longitude": 91.5
    },
    {
      "elevation": 114,
      "mindate": "1956-03-01",
      "maxdate": "1970-12-31",
      "latitude": 23.7,
      "name": "GUNAMANI S. PARA, IN",
      "datacoverage": 0.8651,
      "id": "GHCND:IN021010800",
      "elevationUnit": "METERS",
      "longitude": 91.93
    },
    {
      "elevation": 66,
      "mindate": "1956-01-01",
      "maxdate": "1963-05-31",
      "latitude": 23.3,
      "name": "PALANGAPHABARI, IN",
      "datacoverage": 0.8326,
      "id": "GHCND:IN021010900",
      "elevationUnit": "METERS",
      "longitude": 91.75
    },
    {
      "elevation": 21,
      "mindate": "1938-01-01",
      "maxdate": "1970-12-31",
      "latitude": 24.32,
      "name": "KAILASHAHAR, IN",
      "datacoverage": 0.9445,
      "id": "GHCND:IN021011200",
      "elevationUnit": "METERS",
      "longitude": 92.02
    },
    {
      "elevation": 21,
      "mindate": "1938-01-01",
      "maxdate": "1970-12-31",
      "latitude": 24.38,
      "name": "DHARMANAGAR, IN",
      "datacoverage": 0.9697,
      "id": "GHCND:IN021011300",
      "elevationUnit": "METERS",
      "longitude": 92.17
    },
    {
      "elevation": 30,
      "mindate": "1945-01-19",
      "maxdate": "2025-03-06",
      "latitude": 24.317,
      "name": "KAILASHAHAR, IN",
      "datacoverage": 0.2049,
      "id": "GHCND:IN021012000",
      "elevationUnit": "METERS",
      "longitude": 92
    },
    {
      "elevation": 210,
      "mindate": "1941-01-01",
      "maxdate": "1965-12-31",
      "latitude": 28.62,
      "name": "NAJAFGARH, IN",
      "datacoverage": 0.9034,
      "id": "GHCND:IN022021500",
      "elevationUnit": "METERS",
      "longitude": 76.98
    },
    {
      "elevation": 220,
      "mindate": "1901-01-01",
      "maxdate": "1965-12-31",
      "latitude": 28.63,
      "name": "DELHI SADAR, IN",
      "datacoverage": 0.5539,
      "id": "GHCND:IN022021600",
      "elevationUnit": "METERS",
      "longitude": 77.25
    },
    {
      "elevation": 213,
      "mindate": "1941-01-01",
      "maxdate": "1965-12-31",
      "latitude": 28.68,
      "name": "NANGLOI, IN",
      "datacoverage": 0.9167,
      "id": "GHCND:IN022021700",
      "elevationUnit": "METERS",
      "longitude": 77.07
    },
    {
      "elevation": 203,
      "mindate": "1941-01-01",
      "maxdate": "1962-12-31",
      "latitude": 28.67,
      "name": "SHAHDARA, IN",
      "datacoverage": 0.5872,
      "id": "GHCND:IN022021800",
      "elevationUnit": "METERS",
      "longitude": 77.3
    },
    {
      "elevation": 216,
      "mindate": "1901-01-01",
      "maxdate": "2025-03-06",
      "latitude": 28.583,
      "name": "NEW DELHI SAFDARJUN, IN",
      "datacoverage": 0.9437,
      "id": "GHCND:IN022021900",
      "elevationUnit": "METERS",
      "longitude": 77.2
    },
    {
      "elevation": 213,
      "mindate": "1941-01-01",
      "maxdate": "1965-12-31",
      "latitude": 28.75,
      "name": "BADLI, IN",
      "datacoverage": 0.89,
      "id": "GHCND:IN022022000",
      "elevationUnit": "METERS",
      "longitude": 77.13
    },
    {
      "elevation": 210,
      "mindate": "1941-01-01",
      "maxdate": "1965-12-31",
      "latitude": 28.75,
      "name": "ALIPUR, IN",
      "datacoverage": 0.87,
      "id": "GHCND:IN022022100",
      "elevationUnit": "METERS",
      "longitude": 77.08
    },
    {
      "elevation": 259,
      "mindate": "1901-01-01",
      "maxdate": "1965-12-31",
      "latitude": 28.52,
      "name": "MAHRAULI, IN",
      "datacoverage": 0.4795,
      "id": "GHCND:IN022022200",
      "elevationUnit": "METERS",
      "longitude": 77.18
    },
    {
      "elevation": 213,
      "mindate": "1941-01-01",
      "maxdate": "1965-12-31",
      "latitude": 28.85,
      "name": "NARELA, IN",
      "datacoverage": 0.7734,
      "id": "GHCND:IN022022700",
      "elevationUnit": "METERS",
      "longitude": 77.08
    },
    {
      "elevation": 215,
      "mindate": "1959-07-01",
      "maxdate": "1970-12-31",
      "latitude": 28.55,
      "name": "OKHLA OBSERVATORY, IN",
      "datacoverage": 0.8692,
      "id": "GHCND:IN022022900",
      "elevationUnit": "METERS",
      "longitude": 77.27
    },
    {
      "elevation": 233,
      "mindate": "1959-01-01",
      "maxdate": "2025-03-06",
      "latitude": 28.567,
      "name": "NEW DELHI PALAM, IN",
      "datacoverage": 0.916,
      "id": "GHCND:IN022023000",
      "elevationUnit": "METERS",
      "longitude": 77.117
    },
    {
      "elevation": 227,
      "mindate": "1960-01-01",
      "maxdate": "1970-12-31",
      "latitude": 28.68,
      "name": "CHANDRAWAL OBSERVATORY, IN",
      "datacoverage": 0.8939,
      "id": "GHCND:IN022023100",
      "elevationUnit": "METERS",
      "longitude": 77.22
    },
    {
      "elevation": 15,
      "mindate": "1975-01-01",
      "maxdate": "1983-12-31",
      "latitude": 20.72,
      "name": "DIU OBSERVATORY, IN",
      "datacoverage": 0.8056,
      "id": "GHCND:IN022030300",
      "elevationUnit": "METERS",
      "longitude": 70.92
    },
    {
      "elevation": 62,
      "mindate": "1975-01-01",
      "maxdate": "2020-06-01",
      "latitude": 15.417,
      "name": "MORMUGAO",
      "datacoverage": 0.8749,
      "id": "GHCND:IN022030400",
      "elevationUnit": "METERS",
      "longitude": 73.783
    },
    {
      "elevation": 60,
      "mindate": "1973-01-01",
      "maxdate": "2025-03-06",
      "latitude": 15.483,
      "name": "GOA PANJIM, IN",
      "datacoverage": 1,
      "id": "GHCND:IN022030600",
      "elevationUnit": "METERS",
      "longitude": 73.817
    },
    {
      "elevation": 12,
      "mindate": "1977-01-01",
      "maxdate": "1983-12-31",
      "latitude": 20.417,
      "name": "DAMAN, IN",
      "datacoverage": 0.8217,
      "id": "GHCND:IN022030901",
      "elevationUnit": "METERS",
      "longitude": 72.85
    },
    {
      "elevation": 6,
      "mindate": "1975-01-01",
      "maxdate": "1984-12-31",
      "latitude": 11.92,
      "name": "PONDICHERY OBSERVATORY, IN",
      "datacoverage": 0.8665,
      "id": "GHCND:IN022043400",
      "elevationUnit": "METERS",
      "longitude": 79.83
    },
    {
      "elevation": 7,
      "mindate": "1975-07-01",
      "maxdate": "2025-03-06",
      "latitude": 10.917,
      "name": "KARAIKAL, IN",
      "datacoverage": 0.4458,
      "id": "GHCND:IN022043500",
      "elevationUnit": "METERS",
      "longitude": 79.833
    },
    {
      "elevation": 192,
      "mindate": "1901-01-01",
      "maxdate": "1968-12-31",
      "latitude": 26.93,
      "name": "KHAIRAGARH, IN",
      "datacoverage": 0.9706,
      "id": "GHCND:IN023010100",
      "elevationUnit": "METERS",
      "longitude": 77.8
    },
    {
      "elevation": 151,
      "mindate": "1901-01-01",
      "maxdate": "1968-12-31",
      "latitude": 26.88,
      "name": "BAH, IN",
      "datacoverage": 0.9706,
      "id": "GHCND:IN023010101",
      "elevationUnit": "METERS",
      "longitude": 78.6
    },
    {
      "elevation": 183,
      "mindate": "1901-01-01",
      "maxdate": "1968-12-31",
      "latitude": 27.2,
      "name": "AGRA, IN",
      "datacoverage": 0.9706,
      "id": "GHCND:IN023010600",
      "elevationUnit": "METERS",
      "longitude": 78
    },
    {
      "elevation": 229,
      "mindate": "1901-01-01",
      "maxdate": "1968-12-31",
      "latitude": 27.15,
      "name": "FIROZABAD, IN",
      "datacoverage": 0.9706,
      "id": "GHCND:IN023010700",
      "elevationUnit": "METERS",
      "longitude": 78.38
    },
    {
      "elevation": 166,
      "mindate": "1901-01-01",
      "maxdate": "1968-12-31",
      "latitude": 27.23,
      "name": "ETMADPUR, IN",
      "datacoverage": 0.9681,
      "id": "GHCND:IN023010800",
      "elevationUnit": "METERS",
      "longitude": 78.2
    },
    {
      "elevation": 163,
      "mindate": "1901-01-01",
      "maxdate": "1968-12-31",
      "latitude": 27.08,
      "name": "FATEHPUR SIKRI, IN",
      "datacoverage": 0.9706,
      "id": "GHCND:IN023010900",
      "elevationUnit": "METERS",
      "longitude": 77.67
    },
    {
      "elevation": 253,
      "mindate": "1901-01-01",
      "maxdate": "1961-12-31",
      "latitude": 27.67,
      "name": "BHIKAPUR, IN",
      "datacoverage": 0.97,
      "id": "GHCND:IN023010901",
      "elevationUnit": "METERS",
      "longitude": 78.67
    },
    {
      "elevation": 164,
      "mindate": "1901-01-01",
      "maxdate": "1968-12-31",
      "latitude": 27.03,
      "name": "FATEHABAD, IN",
      "datacoverage": 0.967,
      "id": "GHCND:IN023011000",
      "elevationUnit": "METERS",
      "longitude": 78.3
    },
    {
      "elevation": 169,
      "mindate": "1901-01-01",
      "maxdate": "1970-12-31",
      "latitude": 27.167,
      "name": "AGRA, IN",
      "datacoverage": 1,
      "id": "GHCND:IN023011900",
      "elevationUnit": "METERS",
      "longitude": 78.033
    },
    {
      "elevation": 186,
      "mindate": "1901-01-01",
      "maxdate": "1967-12-31",
      "latitude": 27.9,
      "name": "ALIGARH, IN",
      "datacoverage": 0.9652,
      "id": "GHCND:IN023020100",
      "elevationUnit": "METERS",
      "longitude": 78.08
    },
    {
      "elevation": 188,
      "mindate": "1901-01-01",
      "maxdate": "1968-12-31",
      "latitude": 27.93,
      "name": "KHAIR, IN",
      "datacoverage": 0.9645,
      "id": "GHCND:IN023020101",
      "elevationUnit": "METERS",
      "longitude": 77.83
    },
    {
      "elevation": 184,
      "mindate": "1901-01-01",
      "maxdate": "1968-12-31",
      "latitude": 28.03,
      "name": "ATRAULI, IN",
      "datacoverage": 0.9645,
      "id": "GHCND:IN023020200",
      "elevationUnit": "METERS",
      "longitude": 78.28
    },
    {
      "elevation": 178,
      "mindate": "1901-01-01",
      "maxdate": "1968-12-31",
      "latitude": 27.72,
      "name": "IGLAS, IN",
      "datacoverage": 0.9632,
      "id": "GHCND:IN023020201",
      "elevationUnit": "METERS",
      "longitude": 77.93
    },
    {
      "elevation": 178,
      "mindate": "1901-01-01",
      "maxdate": "1968-12-31",
      "latitude": 27.6,
      "name": "HATHRAS, IN",
      "datacoverage": 0.9645,
      "id": "GHCND:IN023020202",
      "elevationUnit": "METERS",
      "longitude": 78.05
    },
    {
      "elevation": 175,
      "mindate": "1901-01-01",
      "maxdate": "1968-12-31",
      "latitude": 27.68,
      "name": "SIKANDRA RAO, IN",
      "datacoverage": 0.9657,
      "id": "GHCND:IN023020300",
      "elevationUnit": "METERS",
      "longitude": 78.38
    },
    {
      "elevation": 193,
      "mindate": "1901-01-01",
      "maxdate": "1968-12-31",
      "latitude": 28,
      "name": "BALANPUR, IN",
      "datacoverage": 0.94,
      "id": "GHCND:IN023020900",
      "elevationUnit": "METERS",
      "longitude": 77.67
    },
    {
      "elevation": 187,
      "mindate": "1931-03-01",
      "maxdate": "1970-12-31",
      "latitude": 27.883,
      "name": "ALIGARH, IN",
      "datacoverage": 0.9731,
      "id": "GHCND:IN023021500",
      "elevationUnit": "METERS",
      "longitude": 78.067
    },
    {
      "elevation": 90,
      "mindate": "1901-01-01",
      "maxdate": "1968-12-31",
      "latitude": 25.38,
      "name": "HANDIA, IN",
      "datacoverage": 0.9706,
      "id": "GHCND:IN023030100",
      "elevationUnit": "METERS",
      "longitude": 82.18
    },
    {
      "elevation": 183,
      "mindate": "1901-01-01",
      "maxdate": "1968-12-31",
      "latitude": 25.15,
      "name": "MEJA, IN",
      "datacoverage": 0.9706,
      "id": "GHCND:IN023030200",
      "elevationUnit": "METERS",
      "longitude": 82.1
    },
    {
      "elevation": 101,
      "mindate": "1901-01-01",
      "maxdate": "1968-12-31",
      "latitude": 25.65,
      "name": "SIRATHU, IN",
      "datacoverage": 0.9706,
      "id": "GHCND:IN023030300",
      "elevationUnit": "METERS",
      "longitude": 81.32
    },
    {
      "elevation": 175,
      "mindate": "1901-01-01",
      "maxdate": "1968-12-31",
      "latitude": 25.53,
      "name": "MANJHANPUR, IN",
      "datacoverage": 0.9706,
      "id": "GHCND:IN023030400",
      "elevationUnit": "METERS",
      "longitude": 81.38
    },
    {
      "elevation": 94,
      "mindate": "1901-01-01",
      "maxdate": "1968-12-31",
      "latitude": 25.62,
      "name": "SORAON, IN",
      "datacoverage": 0.9706,
      "id": "GHCND:IN023030500",
      "elevationUnit": "METERS",
      "longitude": 81.83
    },
    {
      "elevation": 94,
      "mindate": "1901-01-01",
      "maxdate": "1968-12-31",
      "latitude": 25.28,
      "name": "KARCHANA, IN",
      "datacoverage": 0.9706,
      "id": "GHCND:IN023030600",
      "elevationUnit": "METERS",
      "longitude": 81.93
    }
  ]
}
