{
  "metadata": {
    "resultset": {
      "offset": 150800,
      "count": 154115,
      "limit": 100
    }
  },
  "results": [
    {
      "elevation": 163,
      "mindate": "1978-01-01",
      "maxdate": "1996-12-31",
      "latitude": 7.47,
      "name": "HACIENDA BETANIA, VE",
      "datacoverage": 0.9429,
      "id": "GHCND:VE000004050",
      "elevationUnit": "METERS",
      "longitude": -72.43
    },
    {
      "elevation": 60,
      "mindate": "1978-01-01",
      "maxdate": "1996-12-31",
      "latitude": 7.98,
      "name": "PARAMO EL ZUMBADOR, VE",
      "datacoverage": 1,
      "id": "GHCND:VE000004072",
      "elevationUnit": "METERS",
      "longitude": -72.1
    },
    {
      "elevation": 268,
      "mindate": "1968-01-01",
      "maxdate": "1996-12-31",
      "latitude": 7.58,
      "name": "PUENTE SALOM, VE",
      "datacoverage": 0.9626,
      "id": "GHCND:VE000004083",
      "elevationUnit": "METERS",
      "longitude": -72.18
    },
    {
      "elevation": 1168,
      "mindate": "1968-11-01",
      "maxdate": "1996-12-31",
      "latitude": 7.05,
      "name": "ELORZA, VE",
      "datacoverage": 0.9142,
      "id": "GHCND:VE000004291",
      "elevationUnit": "METERS",
      "longitude": -69.48
    },
    {
      "elevation": 768,
      "mindate": "1969-01-01",
      "maxdate": "1996-04-30",
      "latitude": 8,
      "name": "BRUZUAL, VE",
      "datacoverage": 0.8995,
      "id": "GHCND:VE000004292",
      "elevationUnit": "METERS",
      "longitude": -69.35
    },
    {
      "elevation": 368,
      "mindate": "1968-03-01",
      "maxdate": "1996-12-31",
      "latitude": 7.57,
      "name": "MANTECAL, VE",
      "datacoverage": 0.9439,
      "id": "GHCND:VE000004296",
      "elevationUnit": "METERS",
      "longitude": -69.13
    },
    {
      "elevation": 370,
      "mindate": "1970-04-01",
      "maxdate": "1991-03-31",
      "latitude": 7.62,
      "name": "CAICARA DEL ORINOCO, VE",
      "datacoverage": 0.9921,
      "id": "GHCND:VE000004501",
      "elevationUnit": "METERS",
      "longitude": -66.17
    },
    {
      "elevation": 1268,
      "mindate": "1969-01-01",
      "maxdate": "1996-12-31",
      "latitude": 7.42,
      "name": "MARIPA, VE",
      "datacoverage": 1,
      "id": "GHCND:VE000004667",
      "elevationUnit": "METERS",
      "longitude": -65.18
    },
    {
      "elevation": 554,
      "mindate": "1967-01-01",
      "maxdate": "1995-12-31",
      "latitude": 10.62,
      "name": "LOS CARACAS, VE",
      "datacoverage": 1,
      "id": "GHCND:VE000005011",
      "elevationUnit": "METERS",
      "longitude": -66.58
    },
    {
      "elevation": 669,
      "mindate": "1971-01-01",
      "maxdate": "1993-11-30",
      "latitude": 6.17,
      "name": "CARARABO, VE",
      "datacoverage": 0.9928,
      "id": "GHCND:VE000005203",
      "elevationUnit": "METERS",
      "longitude": -69.27
    },
    {
      "elevation": 665,
      "mindate": "1967-01-01",
      "maxdate": "1996-12-31",
      "latitude": 6.93,
      "name": "HATO URANON, VE",
      "datacoverage": 0.8722,
      "id": "GHCND:VE000005408",
      "elevationUnit": "METERS",
      "longitude": -67.27
    },
    {
      "elevation": 55,
      "mindate": "1968-03-01",
      "maxdate": "2025-03-06",
      "latitude": 6.167,
      "name": "PUERTO CARRENO A.GU, CO",
      "datacoverage": 0.6759,
      "id": "GHCND:VE000005484",
      "elevationUnit": "METERS",
      "longitude": -67.5
    },
    {
      "elevation": 1068,
      "mindate": "1968-10-01",
      "maxdate": "1990-05-31",
      "latitude": 6.3,
      "name": "PIE DE SALTO, VE",
      "datacoverage": 1,
      "id": "GHCND:VE000005791",
      "elevationUnit": "METERS",
      "longitude": -64.48
    },
    {
      "elevation": 1169,
      "mindate": "1970-01-01",
      "maxdate": "1996-12-31",
      "latitude": 6.75,
      "name": "ANACOCO, VE",
      "datacoverage": 1,
      "id": "GHCND:VE000005911",
      "elevationUnit": "METERS",
      "longitude": -61.17
    },
    {
      "elevation": 570,
      "mindate": "1970-05-01",
      "maxdate": "1990-05-31",
      "latitude": 5.95,
      "name": "ENTRE RIOS, VE",
      "datacoverage": 0.9958,
      "id": "GHCND:VE000006703",
      "elevationUnit": "METERS",
      "longitude": -64.43
    },
    {
      "elevation": 456,
      "mindate": "1952-01-01",
      "maxdate": "1990-05-31",
      "latitude": 5.73,
      "name": "KAMARATA, VE",
      "datacoverage": 0.7889,
      "id": "GHCND:VE000006850",
      "elevationUnit": "METERS",
      "longitude": -62.33
    },
    {
      "elevation": 990,
      "mindate": "1991-01-01",
      "maxdate": "1996-12-31",
      "latitude": 9.28,
      "name": "BOCONO AEROPUERTO, VE",
      "datacoverage": 0.9998,
      "id": "GHCND:VE000007146",
      "elevationUnit": "METERS",
      "longitude": -70.23
    },
    {
      "elevation": 772,
      "mindate": "1975-01-01",
      "maxdate": "1990-05-31",
      "latitude": 4.15,
      "name": "AMENADINA, VE",
      "datacoverage": 0.9353,
      "id": "GHCND:VE000007896",
      "elevationUnit": "METERS",
      "longitude": -63.75
    },
    {
      "elevation": 174,
      "mindate": "1974-01-01",
      "maxdate": "1996-12-31",
      "latitude": 7.75,
      "name": "EL PARADERO, VE",
      "datacoverage": 0.9819,
      "id": "GHCND:VE000009060",
      "elevationUnit": "METERS",
      "longitude": -71.9
    },
    {
      "elevation": 156,
      "mindate": "1967-01-01",
      "maxdate": "1995-10-31",
      "latitude": 10.53,
      "name": "CARAYACA, VE",
      "datacoverage": 0.9856,
      "id": "GHCND:VE000009311",
      "elevationUnit": "METERS",
      "longitude": -66.12
    },
    {
      "elevation": 971,
      "mindate": "1971-09-01",
      "maxdate": "1993-04-30",
      "latitude": 10.08,
      "name": "EL CORTIJO, VE",
      "datacoverage": 0.9501,
      "id": "GHCND:VE000009350",
      "elevationUnit": "METERS",
      "longitude": -67.42
    },
    {
      "elevation": 968,
      "mindate": "1968-10-01",
      "maxdate": "1996-12-31",
      "latitude": 1.93,
      "name": "SAN CARLOS RIO NEGRO, VE",
      "datacoverage": 0.9527,
      "id": "GHCND:VE000009401",
      "elevationUnit": "METERS",
      "longitude": -67.05
    },
    {
      "elevation": 165,
      "mindate": "1968-09-01",
      "maxdate": "1996-12-31",
      "latitude": 3.15,
      "name": "TAMA TAMA, VE",
      "datacoverage": 0.9993,
      "id": "GHCND:VE000009402",
      "elevationUnit": "METERS",
      "longitude": -65.8
    },
    {
      "elevation": 968,
      "mindate": "1968-09-01",
      "maxdate": "1996-12-31",
      "latitude": 3.93,
      "name": "SANTA BARBARA ORINOCO, VE",
      "datacoverage": 0.9993,
      "id": "GHCND:VE000009404",
      "elevationUnit": "METERS",
      "longitude": -67.13
    },
    {
      "elevation": 968,
      "mindate": "1968-09-01",
      "maxdate": "1996-12-31",
      "latitude": 4,
      "name": "SAN FERNANDO ATABAPO, VE",
      "datacoverage": 0.9882,
      "id": "GHCND:VE000009405",
      "elevationUnit": "METERS",
      "longitude": -67.67
    },
    {
      "elevation": 369,
      "mindate": "1969-03-01",
      "maxdate": "1996-12-31",
      "latitude": 5.07,
      "name": "YEKUANA, VE",
      "datacoverage": 0.9938,
      "id": "GHCND:VE000009408",
      "elevationUnit": "METERS",
      "longitude": -65.22
    },
    {
      "elevation": 667,
      "mindate": "1969-07-01",
      "maxdate": "1996-12-31",
      "latitude": 5.23,
      "name": "SAN JUAN MANAPIARE, VE",
      "datacoverage": 0.9998,
      "id": "GHCND:VE000009410",
      "elevationUnit": "METERS",
      "longitude": -66.17
    },
    {
      "elevation": 667,
      "mindate": "1970-03-01",
      "maxdate": "1996-12-31",
      "latitude": 2.8,
      "name": "SANTA MARIA GUAICAS, VE",
      "datacoverage": 0.9843,
      "id": "GHCND:VE000009415",
      "elevationUnit": "METERS",
      "longitude": -65.25
    },
    {
      "elevation": 667,
      "mindate": "1969-11-01",
      "maxdate": "1992-01-31",
      "latitude": 1.45,
      "name": "SANTA ROSA AMANADONA, CO",
      "datacoverage": 0.9962,
      "id": "GHCND:VE000009418",
      "elevationUnit": "METERS",
      "longitude": -66.92
    },
    {
      "elevation": 173,
      "mindate": "1973-01-01",
      "maxdate": "1993-04-30",
      "latitude": 1.17,
      "name": "SANTA LUCIA, BR",
      "datacoverage": 0.9879,
      "id": "GHCND:VE000009512",
      "elevationUnit": "METERS",
      "longitude": -66.92
    },
    {
      "elevation": 3,
      "mindate": "1959-01-01",
      "maxdate": "2020-09-05",
      "latitude": 11.8,
      "name": "LA ORCHILA, VE",
      "datacoverage": 0.8665,
      "id": "GHCND:VE000080405",
      "elevationUnit": "METERS",
      "longitude": -66.183
    },
    {
      "elevation": 437,
      "mindate": "1959-01-01",
      "maxdate": "2025-03-06",
      "latitude": 10.25,
      "name": "MARACAY B.A. SUCR, VE",
      "datacoverage": 0.9869,
      "id": "GHCND:VE000080413",
      "elevationUnit": "METERS",
      "longitude": -67.65
    },
    {
      "elevation": 14,
      "mindate": "1961-01-01",
      "maxdate": "2016-10-06",
      "latitude": 10.583,
      "name": "GUIRIA, VE",
      "datacoverage": 0.8733,
      "id": "GHCND:VE000080423",
      "elevationUnit": "METERS",
      "longitude": -62.317
    },
    {
      "elevation": 28,
      "mindate": "1961-01-01",
      "maxdate": "2018-11-09",
      "latitude": 9.817,
      "name": "MENE GRANDE, VE",
      "datacoverage": 0.9993,
      "id": "GHCND:VE000080425",
      "elevationUnit": "METERS",
      "longitude": -70.933
    },
    {
      "elevation": 1498,
      "mindate": "1961-01-01",
      "maxdate": "2023-11-03",
      "latitude": 8.6,
      "name": "MERIDA, VE",
      "datacoverage": 1,
      "id": "GHCND:VE000080438",
      "elevationUnit": "METERS",
      "longitude": -71.183
    },
    {
      "elevation": 47,
      "mindate": "1961-01-01",
      "maxdate": "2021-07-03",
      "latitude": 7.68,
      "name": "SAN FERNANDO, VE",
      "datacoverage": 0.9909,
      "id": "GHCND:VE000080450",
      "elevationUnit": "METERS",
      "longitude": -67.42
    },
    {
      "elevation": 181,
      "mindate": "1961-01-01",
      "maxdate": "2014-04-17",
      "latitude": 7.3,
      "name": "TUMEREMO, VE",
      "datacoverage": 0.9875,
      "id": "GHCND:VE000080453",
      "elevationUnit": "METERS",
      "longitude": -61.45
    },
    {
      "elevation": 907,
      "mindate": "1961-01-01",
      "maxdate": "2016-03-25",
      "latitude": 4.6,
      "name": "SANTA ELENA DE UAIR, VE",
      "datacoverage": 0.9625,
      "id": "GHCND:VE000080462",
      "elevationUnit": "METERS",
      "longitude": -61.117
    },
    {
      "elevation": 15.8,
      "mindate": "1959-01-01",
      "maxdate": "2024-06-01",
      "latitude": 11.415,
      "name": "JOSE LEONARDO CHIRINOS, VE",
      "datacoverage": 0.8993,
      "id": "GHCND:VEM00080403",
      "elevationUnit": "METERS",
      "longitude": -69.681
    },
    {
      "elevation": 71.6,
      "mindate": "1959-01-01",
      "maxdate": "2025-03-06",
      "latitude": 10.558,
      "name": "LA CHINITA INTERNATIONAL, VE",
      "datacoverage": 0.8993,
      "id": "GHCND:VEM00080407",
      "elevationUnit": "METERS",
      "longitude": -71.728
    },
    {
      "elevation": 622.4,
      "mindate": "1959-01-01",
      "maxdate": "2025-03-06",
      "latitude": 10.043,
      "name": "BARQUISIMETO INTERNATIONAL, VE",
      "datacoverage": 0.9995,
      "id": "GHCND:VEM00080410",
      "elevationUnit": "METERS",
      "longitude": -69.359
    },
    {
      "elevation": 9.8,
      "mindate": "1962-08-01",
      "maxdate": "2015-09-25",
      "latitude": 10.481,
      "name": "GENERAL BARTOLOME SALOM INTERNATIONAL, VE",
      "datacoverage": 0.5997,
      "id": "GHCND:VEM00080412",
      "elevationUnit": "METERS",
      "longitude": -68.073
    },
    {
      "elevation": 71.6,
      "mindate": "1973-01-01",
      "maxdate": "2025-03-06",
      "latitude": 10.603,
      "name": "SIMON BOLIVAR INTERNATIONAL, VE",
      "datacoverage": 0.9913,
      "id": "GHCND:VEM00080415",
      "elevationUnit": "METERS",
      "longitude": -66.991
    },
    {
      "elevation": 856,
      "mindate": "1973-05-01",
      "maxdate": "2022-12-15",
      "latitude": 10.485,
      "name": "GENERALISIMO FRANCISCO DE MIR, VE",
      "datacoverage": 0.7495,
      "id": "GHCND:VEM00080416",
      "elevationUnit": "METERS",
      "longitude": -66.844
    },
    {
      "elevation": 7.9,
      "mindate": "1973-05-01",
      "maxdate": "2025-03-06",
      "latitude": 10.107,
      "name": "GENERAL JOSE ANTONIO ANZOATEG, VE",
      "datacoverage": 0.8103,
      "id": "GHCND:VEM00080419",
      "elevationUnit": "METERS",
      "longitude": -64.689
    },
    {
      "elevation": 4.3,
      "mindate": "1984-07-01",
      "maxdate": "2016-10-07",
      "latitude": 10.45,
      "name": "ANTONIO JOSE DE SUCRE, VE",
      "datacoverage": 0.8871,
      "id": "GHCND:VEM00080420",
      "elevationUnit": "METERS",
      "longitude": -64.13
    },
    {
      "elevation": 19,
      "mindate": "1975-08-01",
      "maxdate": "2024-11-28",
      "latitude": 10.917,
      "name": "PORLAMAR AEROPUERTO INTERNATIONAL DEL, VE",
      "datacoverage": 0.8706,
      "id": "GHCND:VEM00080421",
      "elevationUnit": "METERS",
      "longitude": -63.967
    },
    {
      "elevation": 627.9,
      "mindate": "1982-10-01",
      "maxdate": "2023-03-27",
      "latitude": 9.34,
      "name": "DR ANTONIO NICOLAS BRICENO, VE",
      "datacoverage": 0.8582,
      "id": "GHCND:VEM00080426",
      "elevationUnit": "METERS",
      "longitude": -70.584
    },
    {
      "elevation": 195.1,
      "mindate": "1973-05-01",
      "maxdate": "2018-11-12",
      "latitude": 9.553,
      "name": "OSWALDO GUEVARA MUJICA, VE",
      "datacoverage": 0.9145,
      "id": "GHCND:VEM00080427",
      "elevationUnit": "METERS",
      "longitude": -69.238
    },
    {
      "elevation": 184.7,
      "mindate": "1973-05-01",
      "maxdate": "2023-09-03",
      "latitude": 9.027,
      "name": "GUANARE, VE",
      "datacoverage": 0.9534,
      "id": "GHCND:VEM00080428",
      "elevationUnit": "METERS",
      "longitude": -69.755
    },
    {
      "elevation": 161,
      "mindate": "1981-06-01",
      "maxdate": "2014-08-19",
      "latitude": 9.417,
      "name": "CARRIZAL, VE",
      "datacoverage": 0.9819,
      "id": "GHCND:VEM00080432",
      "elevationUnit": "METERS",
      "longitude": -66.917
    },
    {
      "elevation": 68.3,
      "mindate": "1973-05-01",
      "maxdate": "2025-03-06",
      "latitude": 9.749,
      "name": "MATURIN, VE",
      "datacoverage": 0.897,
      "id": "GHCND:VEM00080435",
      "elevationUnit": "METERS",
      "longitude": -63.153
    },
    {
      "elevation": 103,
      "mindate": "1992-09-01",
      "maxdate": "2018-10-09",
      "latitude": 8.633,
      "name": "EL VIGIA, VE",
      "datacoverage": 0.6008,
      "id": "GHCND:VEM00080437",
      "elevationUnit": "METERS",
      "longitude": -71.65
    },
    {
      "elevation": 203,
      "mindate": "1991-04-16",
      "maxdate": "2023-06-30",
      "latitude": 8.62,
      "name": "BARINAS, VE",
      "datacoverage": 0.8116,
      "id": "GHCND:VEM00080440",
      "elevationUnit": "METERS",
      "longitude": -70.221
    },
    {
      "elevation": 100,
      "mindate": "1991-12-07",
      "maxdate": "2014-06-20",
      "latitude": 8.925,
      "name": "CALABOZO, VE",
      "datacoverage": 0.9195,
      "id": "GHCND:VEM00080442",
      "elevationUnit": "METERS",
      "longitude": -67.417
    },
    {
      "elevation": 60,
      "mindate": "1973-05-01",
      "maxdate": "2024-07-29",
      "latitude": 8.122,
      "name": "CIUDAD BOLIVAR, VE",
      "datacoverage": 0.7883,
      "id": "GHCND:VEM00080444",
      "elevationUnit": "METERS",
      "longitude": -63.537
    },
    {
      "elevation": 399.9,
      "mindate": "1973-05-01",
      "maxdate": "2025-03-06",
      "latitude": 7.841,
      "name": "SAN ANTONIO DEL TACHIRA, VE",
      "datacoverage": 0.9534,
      "id": "GHCND:VEM00080447",
      "elevationUnit": "METERS",
      "longitude": -72.44
    },
    {
      "elevation": 129.8,
      "mindate": "1974-03-01",
      "maxdate": "2024-11-25",
      "latitude": 7.211,
      "name": "GUASDUALITO, VE",
      "datacoverage": 0.7564,
      "id": "GHCND:VEM00080448",
      "elevationUnit": "METERS",
      "longitude": -70.756
    },
    {
      "elevation": 74.7,
      "mindate": "1973-05-01",
      "maxdate": "2021-09-12",
      "latitude": 5.62,
      "name": "CASIQUE ARAMARE, VE",
      "datacoverage": 0.8582,
      "id": "GHCND:VEM00080457",
      "elevationUnit": "METERS",
      "longitude": -67.606
    },
    {
      "elevation": 430.1,
      "mindate": "1991-12-01",
      "maxdate": "2025-03-06",
      "latitude": 10.15,
      "name": "ARTURO MICHELENA INTERNATIONAL, VE",
      "datacoverage": 0.8467,
      "id": "GHCND:VEM00080472",
      "elevationUnit": "METERS",
      "longitude": -67.928
    },
    {
      "elevation": 330.1,
      "mindate": "1982-08-01",
      "maxdate": "2015-11-07",
      "latitude": 7.565,
      "name": "MAYOR BUENAVENTURA VIVAS, VE",
      "datacoverage": 0.6391,
      "id": "GHCND:VEM00080475",
      "elevationUnit": "METERS",
      "longitude": -72.035
    },
    {
      "elevation": 26,
      "mindate": "1983-11-01",
      "maxdate": "2016-03-22",
      "latitude": 10.517,
      "name": "LA CANADA, VE",
      "datacoverage": 0.5758,
      "id": "GHCND:VEM00080476",
      "elevationUnit": "METERS",
      "longitude": -71.65
    },
    {
      "elevation": 30,
      "mindate": "1982-11-01",
      "maxdate": "1997-04-05",
      "latitude": 9.017,
      "name": "TEMBLADOR PRIVATE, VE",
      "datacoverage": 0.9819,
      "id": "GHCND:VEM00080478",
      "elevationUnit": "METERS",
      "longitude": -62.617
    },
    {
      "elevation": 1000,
      "mindate": "1992-02-01",
      "maxdate": "2003-05-12",
      "latitude": 10.3,
      "name": "PALMICHAL, VE",
      "datacoverage": 0.9709,
      "id": "GHCND:VEM00080479",
      "elevationUnit": "METERS",
      "longitude": -68.233
    },
    {
      "elevation": 5,
      "mindate": "1951-01-01",
      "maxdate": "2025-03-06",
      "latitude": 10.82,
      "name": "TAN SON HOA, VM",
      "datacoverage": 0.9667,
      "id": "GHCND:VM000048900",
      "elevationUnit": "METERS",
      "longitude": 106.67
    },
    {
      "elevation": 676,
      "mindate": "1997-03-01",
      "maxdate": "2025-03-06",
      "latitude": 21.333,
      "name": "SON LA, VM",
      "datacoverage": 0.9999,
      "id": "GHCND:VMM00048806",
      "elevationUnit": "METERS",
      "longitude": 103.9
    },
    {
      "elevation": 243,
      "mindate": "1959-05-01",
      "maxdate": "2025-03-06",
      "latitude": 22.667,
      "name": "CAO BANG, VM",
      "datacoverage": 0.5595,
      "id": "GHCND:VMM00048808",
      "elevationUnit": "METERS",
      "longitude": 106.25
    },
    {
      "elevation": 11.9,
      "mindate": "1958-12-01",
      "maxdate": "2025-03-06",
      "latitude": 21.221,
      "name": "NOIBAI INTERNATIONAL, VM",
      "datacoverage": 0.8137,
      "id": "GHCND:VMM00048820",
      "elevationUnit": "METERS",
      "longitude": 105.807
    },
    {
      "elevation": 7.9,
      "mindate": "2012-09-01",
      "maxdate": "2025-03-06",
      "latitude": 20.967,
      "name": "HA DONG, VM",
      "datacoverage": 1,
      "id": "GHCND:VMM00048825",
      "elevationUnit": "METERS",
      "longitude": 105.767
    },
    {
      "elevation": 116,
      "mindate": "1974-09-01",
      "maxdate": "2025-03-06",
      "latitude": 20.8,
      "name": "PHU LIEN, VM",
      "datacoverage": 0.9467,
      "id": "GHCND:VMM00048826",
      "elevationUnit": "METERS",
      "longitude": 106.633
    },
    {
      "elevation": 263,
      "mindate": "1974-09-01",
      "maxdate": "2025-03-06",
      "latitude": 21.833,
      "name": "LANG SON, VM",
      "datacoverage": 0.8605,
      "id": "GHCND:VMM00048830",
      "elevationUnit": "METERS",
      "longitude": 106.767
    },
    {
      "elevation": 5,
      "mindate": "1974-09-01",
      "maxdate": "2025-03-06",
      "latitude": 19.75,
      "name": "THANH HOA, VM",
      "datacoverage": 0.7236,
      "id": "GHCND:VMM00048840",
      "elevationUnit": "METERS",
      "longitude": 105.783
    },
    {
      "elevation": 5.2,
      "mindate": "1974-10-01",
      "maxdate": "2025-03-06",
      "latitude": 18.737,
      "name": "VINH, VM",
      "datacoverage": 0.9507,
      "id": "GHCND:VMM00048845",
      "elevationUnit": "METERS",
      "longitude": 105.671
    },
    {
      "elevation": 8,
      "mindate": "1974-09-01",
      "maxdate": "2025-03-06",
      "latitude": 17.483,
      "name": "DONG HOI, VM",
      "datacoverage": 0.9359,
      "id": "GHCND:VMM00048848",
      "elevationUnit": "METERS",
      "longitude": 106.6
    },
    {
      "elevation": 10.1,
      "mindate": "1957-01-01",
      "maxdate": "2025-03-06",
      "latitude": 16.044,
      "name": "DANANG INTERNATIONAL, VM",
      "datacoverage": 0.941,
      "id": "GHCND:VMM00048855",
      "elevationUnit": "METERS",
      "longitude": 108.199
    },
    {
      "elevation": 5,
      "mindate": "1956-11-01",
      "maxdate": "2025-03-06",
      "latitude": 10.933,
      "name": "PHAN THIET, VM",
      "datacoverage": 0.8327,
      "id": "GHCND:VMM00048887",
      "elevationUnit": "METERS",
      "longitude": 108.1
    },
    {
      "elevation": 2,
      "mindate": "1957-08-31",
      "maxdate": "2025-03-06",
      "latitude": 9.183,
      "name": "CA MAU, VM",
      "datacoverage": 0.8252,
      "id": "GHCND:VMM00048914",
      "elevationUnit": "METERS",
      "longitude": 105.15
    },
    {
      "elevation": 4,
      "mindate": "1957-04-15",
      "maxdate": "2025-03-06",
      "latitude": 10.217,
      "name": "PHU QUOC, VM",
      "datacoverage": 0.7653,
      "id": "GHCND:VMM00048917",
      "elevationUnit": "METERS",
      "longitude": 103.967
    },
    {
      "elevation": 3,
      "mindate": "1962-09-01",
      "maxdate": "1967-12-31",
      "latitude": 9.58333,
      "name": "SOC TRANG, VM",
      "datacoverage": 1,
      "id": "GHCND:VMW00040001",
      "elevationUnit": "METERS",
      "longitude": 105.96667
    },
    {
      "elevation": 7,
      "mindate": "1965-01-01",
      "maxdate": "1967-12-31",
      "latitude": 16.05,
      "name": "DA NANG, VM",
      "datacoverage": 1,
      "id": "GHCND:VMW00041003",
      "elevationUnit": "METERS",
      "longitude": 108.2
    },
    {
      "elevation": 4.3,
      "mindate": "1963-04-01",
      "maxdate": "1967-12-31",
      "latitude": 10.36667,
      "name": "VUNG TAU, VM",
      "datacoverage": 1,
      "id": "GHCND:VMW00041004",
      "elevationUnit": "METERS",
      "longitude": 107.1
    },
    {
      "elevation": 745.2,
      "mindate": "1963-01-01",
      "maxdate": "1967-12-31",
      "latitude": 14,
      "name": "PLEIKU, VM",
      "datacoverage": 0.9995,
      "id": "GHCND:VMW00041005",
      "elevationUnit": "METERS",
      "longitude": 108.01667
    },
    {
      "elevation": 5.2,
      "mindate": "1963-05-01",
      "maxdate": "1967-12-31",
      "latitude": 10.25,
      "name": "VINH LONG, VM",
      "datacoverage": 1,
      "id": "GHCND:VMW00041006",
      "elevationUnit": "METERS",
      "longitude": 105.95
    },
    {
      "elevation": 3,
      "mindate": "1963-05-01",
      "maxdate": "1963-12-31",
      "latitude": 10.083333,
      "name": "PHONG DENH, VM",
      "datacoverage": 0.9959,
      "id": "GHCND:VMW00041007",
      "elevationUnit": "METERS",
      "longitude": 105.716667
    },
    {
      "elevation": 10.1,
      "mindate": "1966-01-01",
      "maxdate": "1967-12-31",
      "latitude": 10.81667,
      "name": "SAIGON, VM",
      "datacoverage": 1,
      "id": "GHCND:VMW00041008",
      "elevationUnit": "METERS",
      "longitude": 106.65
    },
    {
      "elevation": 14,
      "mindate": "1965-01-01",
      "maxdate": "1967-12-31",
      "latitude": 10.96667,
      "name": "BIEN HOA, VM",
      "datacoverage": 1,
      "id": "GHCND:VMW00041009",
      "elevationUnit": "METERS",
      "longitude": 106.81667
    },
    {
      "elevation": 9.1,
      "mindate": "1957-01-01",
      "maxdate": "2025-03-06",
      "latitude": 12.23333,
      "name": "NHA TRANG",
      "datacoverage": 0.8787,
      "id": "GHCND:VMW00041010",
      "elevationUnit": "METERS",
      "longitude": 109.2
    },
    {
      "elevation": 6.1,
      "mindate": "1957-01-04",
      "maxdate": "2025-03-06",
      "latitude": 13.766667,
      "name": "QUI NHON, VM",
      "datacoverage": 0.8841,
      "id": "GHCND:VMW00041011",
      "elevationUnit": "METERS",
      "longitude": 109.216667
    },
    {
      "elevation": 18.3,
      "mindate": "1965-01-01",
      "maxdate": "1967-10-31",
      "latitude": 15.46667,
      "name": "KY HA",
      "datacoverage": 1,
      "id": "GHCND:VMW00041013",
      "elevationUnit": "METERS",
      "longitude": 108.7
    },
    {
      "elevation": 11.3,
      "mindate": "1965-01-01",
      "maxdate": "1970-09-11",
      "latitude": 15.41667,
      "name": "CHU LAI, VM",
      "datacoverage": 1,
      "id": "GHCND:VMW00041014",
      "elevationUnit": "METERS",
      "longitude": 108.7
    },
    {
      "mindate": "1965-01-01",
      "maxdate": "1967-12-31",
      "latitude": 11.998153,
      "name": "CAM RANH BAY, VM",
      "datacoverage": 1,
      "id": "GHCND:VMW00041015",
      "longitude": 109.219372
    },
    {
      "elevation": 2.1,
      "mindate": "1965-12-01",
      "maxdate": "1967-12-31",
      "latitude": 10.08333,
      "name": "BINH THUY, VM",
      "datacoverage": 1,
      "id": "GHCND:VMW00041016",
      "elevationUnit": "METERS",
      "longitude": 105.73333
    },
    {
      "elevation": 420,
      "mindate": "1965-01-01",
      "maxdate": "1967-12-31",
      "latitude": 13.96667,
      "name": "AN KHE, VM",
      "datacoverage": 1,
      "id": "GHCND:VMW00041021",
      "elevationUnit": "METERS",
      "longitude": 108.66667
    },
    {
      "elevation": 17.1,
      "mindate": "1966-01-01",
      "maxdate": "1967-12-31",
      "latitude": 11.61667,
      "name": "PHAN RANG, VM",
      "datacoverage": 1,
      "id": "GHCND:VMW00041022",
      "elevationUnit": "METERS",
      "longitude": 108.95
    },
    {
      "elevation": 28,
      "mindate": "1966-01-01",
      "maxdate": "1968-02-29",
      "latitude": 16.81667,
      "name": "DONG HA, VM",
      "datacoverage": 1,
      "id": "GHCND:VMW00041023",
      "elevationUnit": "METERS",
      "longitude": 107.08333
    },
    {
      "elevation": 10.1,
      "mindate": "1966-01-01",
      "maxdate": "1971-03-31",
      "latitude": 16.043917,
      "name": "MARBLE MOUNTAIN, VM",
      "datacoverage": 0.9998,
      "id": "GHCND:VMW00041024",
      "elevationUnit": "METERS",
      "longitude": 108.19937
    },
    {
      "elevation": 539.2,
      "mindate": "1966-01-01",
      "maxdate": "1967-12-31",
      "latitude": 12.66667,
      "name": "BAN ME THUOT, VM",
      "datacoverage": 1,
      "id": "GHCND:VMW00041025",
      "elevationUnit": "METERS",
      "longitude": 108.11667
    },
    {
      "elevation": 33.2,
      "mindate": "1966-01-01",
      "maxdate": "1967-12-31",
      "latitude": 11,
      "name": "PHU LOI, VM",
      "datacoverage": 1,
      "id": "GHCND:VMW00041026",
      "elevationUnit": "METERS",
      "longitude": 106.7
    },
    {
      "elevation": 14,
      "mindate": "1966-01-01",
      "maxdate": "1967-12-31",
      "latitude": 10.96667,
      "name": "CU CHI, VM",
      "datacoverage": 1,
      "id": "GHCND:VMW00041027",
      "elevationUnit": "METERS",
      "longitude": 106.48333
    },
    {
      "elevation": 55.2,
      "mindate": "1966-08-01",
      "maxdate": "1967-12-31",
      "latitude": 11.3,
      "name": "PHUOC VINH, VM",
      "datacoverage": 0.9989,
      "id": "GHCND:VMW00041029",
      "elevationUnit": "METERS",
      "longitude": 106.78333
    }
  ]
}
