{
  "metadata": {
    "resultset": {
      "offset": 96200,
      "count": 154115,
      "limit": 100
    }
  },
  "results": [
    {
      "elevation": 196,
      "mindate": "2012-04-01",
      "maxdate": "2013-11-17",
      "latitude": 43.6243063956499,
      "name": "MIDLAND 1.2 E, MI US",
      "datacoverage": 0.8996,
      "id": "GHCND:US1MIMD0007",
      "elevationUnit": "METERS",
      "longitude": -84.2060825228691
    },
    {
      "elevation": 193.2,
      "mindate": "2013-10-06",
      "maxdate": "2023-01-12",
      "latitude": 43.5934143066406,
      "name": "MIDLAND 2.9 SW, MI US",
      "datacoverage": 0.9986,
      "id": "GHCND:US1MIMD0008",
      "elevationUnit": "METERS",
      "longitude": -84.2682266235352
    },
    {
      "elevation": 196,
      "mindate": "2017-06-20",
      "maxdate": "2024-07-10",
      "latitude": 43.514949,
      "name": "FREELAND 7.6 W, MI US",
      "datacoverage": 0.3564,
      "id": "GHCND:US1MIMD0009",
      "elevationUnit": "METERS",
      "longitude": -84.26824
    },
    {
      "elevation": 199,
      "mindate": "1998-06-17",
      "maxdate": "2025-03-07",
      "latitude": 43.644126,
      "name": "MIDLAND 1.5 NNE, MI US",
      "datacoverage": 0.8633,
      "id": "GHCND:US1MIMD0010",
      "elevationUnit": "METERS",
      "longitude": -84.217296
    },
    {
      "elevation": 189.6,
      "mindate": "2022-10-01",
      "maxdate": "2023-11-13",
      "latitude": 43.56141,
      "name": "MIDLAND 4.7 SSE, MI US",
      "datacoverage": 0.9992,
      "id": "GHCND:US1MIMD0014",
      "elevationUnit": "METERS",
      "longitude": -84.190122
    },
    {
      "elevation": 190.8,
      "mindate": "2023-01-10",
      "maxdate": "2025-03-07",
      "latitude": 43.570974,
      "name": "MIDLAND 4.4 SW, MI US",
      "datacoverage": 0.9251,
      "id": "GHCND:US1MIMD0015",
      "elevationUnit": "METERS",
      "longitude": -84.27807
    },
    {
      "elevation": 203.3,
      "mindate": "2023-11-14",
      "maxdate": "2025-03-05",
      "latitude": 43.637131,
      "name": "MIDLAND 1.5 NE, MI US",
      "datacoverage": 0.8153,
      "id": "GHCND:US1MIMD0016",
      "elevationUnit": "METERS",
      "longitude": -84.206439
    },
    {
      "elevation": 284.7,
      "mindate": "2008-09-01",
      "maxdate": "2010-04-30",
      "latitude": 43.684888,
      "name": "BIG RAPIDS 1.4 SSE, MI US",
      "datacoverage": 0.9026,
      "id": "GHCND:US1MIME0001",
      "elevationUnit": "METERS",
      "longitude": -85.475174
    },
    {
      "elevation": 281.9,
      "mindate": "2009-04-01",
      "maxdate": "2011-08-04",
      "latitude": 43.707458,
      "name": "BIG RAPIDS 0.7 ENE, MI US",
      "datacoverage": 0.9996,
      "id": "GHCND:US1MIME0002",
      "elevationUnit": "METERS",
      "longitude": -85.47386
    },
    {
      "elevation": 307.5,
      "mindate": "2009-05-01",
      "maxdate": "2013-07-22",
      "latitude": 43.738311,
      "name": "BIG RAPIDS 3.2 NE, MI US",
      "datacoverage": 0.499,
      "id": "GHCND:US1MIME0003",
      "elevationUnit": "METERS",
      "longitude": -85.443267
    },
    {
      "elevation": 303.6,
      "mindate": "2014-07-01",
      "maxdate": "2021-07-15",
      "latitude": 43.4821245074272,
      "name": "LAKEVIEW 2.5 NNE, MI US",
      "datacoverage": 0.7134,
      "id": "GHCND:US1MIME0008",
      "elevationUnit": "METERS",
      "longitude": -85.262514129281
    },
    {
      "elevation": 297.2,
      "mindate": "2015-10-01",
      "maxdate": "2020-09-30",
      "latitude": 43.562697,
      "name": "MECOSTA 4.6 SSW, MI US",
      "datacoverage": 0.9996,
      "id": "GHCND:US1MIME0010",
      "elevationUnit": "METERS",
      "longitude": -85.280632
    },
    {
      "elevation": 270.4,
      "mindate": "2016-02-28",
      "maxdate": "2025-03-06",
      "latitude": 43.6263,
      "name": "BIG RAPIDS 5.4 S, MI US",
      "datacoverage": 0.7803,
      "id": "GHCND:US1MIME0011",
      "elevationUnit": "METERS",
      "longitude": -85.476
    },
    {
      "elevation": 287.1,
      "mindate": "2017-07-01",
      "maxdate": "2025-02-27",
      "latitude": 43.677222,
      "name": "BIG RAPIDS 3.1 SE, MI US",
      "datacoverage": 0.8146,
      "id": "GHCND:US1MIME0012",
      "elevationUnit": "METERS",
      "longitude": -85.435194
    },
    {
      "elevation": 298.7,
      "mindate": "2022-04-11",
      "maxdate": "2023-07-06",
      "latitude": 43.51377,
      "name": "LAKEVIEW 4.7 N, MI US",
      "datacoverage": 0.8271,
      "id": "GHCND:US1MIME0013",
      "elevationUnit": "METERS",
      "longitude": -85.28539
    },
    {
      "elevation": 311.8,
      "mindate": "2023-05-13",
      "maxdate": "2024-12-29",
      "latitude": 43.6792,
      "name": "MECOSTA 4.5 NNW, MI US",
      "datacoverage": 0.5695,
      "id": "GHCND:US1MIME0014",
      "elevationUnit": "METERS",
      "longitude": -85.2669
    },
    {
      "elevation": 184.1,
      "mindate": "2008-07-01",
      "maxdate": "2009-06-02",
      "latitude": 43.207627,
      "name": "MUSKEGON 2.5 WSW, MI US",
      "datacoverage": 0.9173,
      "id": "GHCND:US1MIMG0001",
      "elevationUnit": "METERS",
      "longitude": -86.296977
    },
    {
      "elevation": 193.9,
      "mindate": "2008-07-01",
      "maxdate": "2008-10-28",
      "latitude": 43.183772,
      "name": "NORTON SHORES 2.9 NW, MI US",
      "datacoverage": 0.9898,
      "id": "GHCND:US1MIMG0003",
      "elevationUnit": "METERS",
      "longitude": -86.300655
    },
    {
      "elevation": 183.5,
      "mindate": "2010-03-01",
      "maxdate": "2012-10-28",
      "latitude": 43.16025,
      "name": "NORTON SHORES 0.9 W, MI US",
      "datacoverage": 0.8108,
      "id": "GHCND:US1MIMG0010",
      "elevationUnit": "METERS",
      "longitude": -86.271083
    },
    {
      "elevation": 187.5,
      "mindate": "2010-05-01",
      "maxdate": "2016-09-22",
      "latitude": 43.1843999,
      "name": "NORTON SHORES 3.0 WNW, MI US",
      "datacoverage": 0.5934,
      "id": "GHCND:US1MIMG0012",
      "elevationUnit": "METERS",
      "longitude": -86.3028861
    },
    {
      "elevation": 189.3,
      "mindate": "2010-05-01",
      "maxdate": "2024-10-22",
      "latitude": 43.1791279,
      "name": "MUSKEGON 3.5 SSE, MI US",
      "datacoverage": 0.7039,
      "id": "GHCND:US1MIMG0013",
      "elevationUnit": "METERS",
      "longitude": -86.2363559
    },
    {
      "elevation": 196.3,
      "mindate": "2010-10-12",
      "maxdate": "2021-07-23",
      "latitude": 43.19172916,
      "name": "MUSKEGON 5.5 ESE, MI US",
      "datacoverage": 0.0317,
      "id": "GHCND:US1MIMG0014",
      "elevationUnit": "METERS",
      "longitude": -86.15858117
    },
    {
      "elevation": 205.7,
      "mindate": "2010-11-01",
      "maxdate": "2019-01-17",
      "latitude": 43.2262,
      "name": "WOLF LAKE 3.2 ESE, MI US",
      "datacoverage": 0.8835,
      "id": "GHCND:US1MIMG0015",
      "elevationUnit": "METERS",
      "longitude": -86.047914
    },
    {
      "elevation": 200.6,
      "mindate": "2010-11-01",
      "maxdate": "2012-11-19",
      "latitude": 43.297622,
      "name": "TWIN LAKE 5.1 SSE, MI US",
      "datacoverage": 0.6399,
      "id": "GHCND:US1MIMG0016",
      "elevationUnit": "METERS",
      "longitude": -86.15307
    },
    {
      "elevation": 182.6,
      "mindate": "2012-04-01",
      "maxdate": "2022-04-02",
      "latitude": 43.1269,
      "name": "NORTON SHORES 2.3 SSE, MI US",
      "datacoverage": 1,
      "id": "GHCND:US1MIMG0018",
      "elevationUnit": "METERS",
      "longitude": -86.2431
    },
    {
      "elevation": 188.1,
      "mindate": "2013-06-01",
      "maxdate": "2024-11-19",
      "latitude": 43.2774122804403,
      "name": "NORTH MUSKEGON 2.4 NW, MI US",
      "datacoverage": 0.7001,
      "id": "GHCND:US1MIMG0019",
      "elevationUnit": "METERS",
      "longitude": -86.302200704813
    },
    {
      "elevation": 210.6,
      "mindate": "2013-12-01",
      "maxdate": "2017-11-27",
      "latitude": 43.365833,
      "name": "TWIN LAKE 0.5 WSW, MI US",
      "datacoverage": 0.9288,
      "id": "GHCND:US1MIMG0020",
      "elevationUnit": "METERS",
      "longitude": -86.18945
    },
    {
      "elevation": 192.6,
      "mindate": "2015-04-01",
      "maxdate": "2015-08-30",
      "latitude": 43.1456360220909,
      "name": "NORTON SHORES 2.5 ESE, MI US",
      "datacoverage": 0.9947,
      "id": "GHCND:US1MIMG0023",
      "elevationUnit": "METERS",
      "longitude": -86.207642108202
    },
    {
      "elevation": 191.1,
      "mindate": "2018-02-18",
      "maxdate": "2024-11-19",
      "latitude": 43.19694,
      "name": "MUSKEGON 2.3 SSW, MI US",
      "datacoverage": 0.09,
      "id": "GHCND:US1MIMG0026",
      "elevationUnit": "METERS",
      "longitude": -86.27433
    },
    {
      "elevation": 192.9,
      "mindate": "2018-05-20",
      "maxdate": "2023-07-29",
      "latitude": 43.270315,
      "name": "NORTH MUSKEGON 1.9 NE, MI US",
      "datacoverage": 0.1444,
      "id": "GHCND:US1MIMG0027",
      "elevationUnit": "METERS",
      "longitude": -86.247784
    },
    {
      "elevation": 196,
      "mindate": "2023-04-01",
      "maxdate": "2024-06-21",
      "latitude": 43.234788112584,
      "name": "MUSKEGON 3.3 E, MI US",
      "datacoverage": 0.8316,
      "id": "GHCND:US1MIMG0030",
      "elevationUnit": "METERS",
      "longitude": -86.1903218541423
    },
    {
      "elevation": 193.5,
      "mindate": "2023-01-09",
      "maxdate": "2024-10-21",
      "latitude": 43.29471,
      "name": "NORTH MUSKEGON 4.9 NE, MI US",
      "datacoverage": 0.6472,
      "id": "GHCND:US1MIMG0032",
      "elevationUnit": "METERS",
      "longitude": -86.19747
    },
    {
      "elevation": 374.3,
      "mindate": "2010-04-01",
      "maxdate": "2025-03-07",
      "latitude": 44.265899,
      "name": "LAKE CITY 5.0 SSW, MI US",
      "datacoverage": 1,
      "id": "GHCND:US1MIMK0001",
      "elevationUnit": "METERS",
      "longitude": -85.255264
    },
    {
      "elevation": 262.7,
      "mindate": "2008-07-01",
      "maxdate": "2025-03-06",
      "latitude": 45.698937,
      "name": "SPALDING 0.5 NW, MI US",
      "datacoverage": 0.9354,
      "id": "GHCND:US1MIMM0001",
      "elevationUnit": "METERS",
      "longitude": -87.5153
    },
    {
      "elevation": 241.1,
      "mindate": "2011-09-01",
      "maxdate": "2024-12-02",
      "latitude": 45.53069,
      "name": "DAGGETT 4.8 N, MI US",
      "datacoverage": 0.9455,
      "id": "GHCND:US1MIMM0005",
      "elevationUnit": "METERS",
      "longitude": -87.61922
    },
    {
      "elevation": 198.7,
      "mindate": "2016-03-15",
      "maxdate": "2025-03-07",
      "latitude": 45.16128,
      "name": "MENOMINEE 4.1 NW, MI US",
      "datacoverage": 0.9989,
      "id": "GHCND:US1MIMM0008",
      "elevationUnit": "METERS",
      "longitude": -87.68621
    },
    {
      "elevation": 206.3,
      "mindate": "2020-02-05",
      "maxdate": "2025-03-06",
      "latitude": 45.254,
      "name": "MENOMINEE 9.4 NNE, MI US",
      "datacoverage": 0.9639,
      "id": "GHCND:US1MIMM0009",
      "elevationUnit": "METERS",
      "longitude": -87.57825
    },
    {
      "elevation": 222.5,
      "mindate": "2012-03-01",
      "maxdate": "2022-11-16",
      "latitude": 44.2337,
      "name": "WELLSTON 3.9 WNW, MI US",
      "datacoverage": 0.9792,
      "id": "GHCND:US1MIMN0006",
      "elevationUnit": "METERS",
      "longitude": -86.0358
    },
    {
      "elevation": 246.3,
      "mindate": "2017-04-01",
      "maxdate": "2025-03-06",
      "latitude": 44.3891,
      "name": "ONEKAMA 1.8 NNW, MI US",
      "datacoverage": 0.3521,
      "id": "GHCND:US1MIMN0007",
      "elevationUnit": "METERS",
      "longitude": -86.2218
    },
    {
      "elevation": 220.1,
      "mindate": "2008-06-01",
      "maxdate": "2015-11-07",
      "latitude": 46.4731,
      "name": "MARQUETTE 5.5 SSE, MI US",
      "datacoverage": 1,
      "id": "GHCND:US1MIMQ0001",
      "elevationUnit": "METERS",
      "longitude": -87.3678
    },
    {
      "elevation": 205.1,
      "mindate": "2014-09-01",
      "maxdate": "2020-12-04",
      "latitude": 46.464618,
      "name": "MARQUETTE 6.5 SSE, MI US",
      "datacoverage": 1,
      "id": "GHCND:US1MIMQ0002",
      "elevationUnit": "METERS",
      "longitude": -87.34064
    },
    {
      "elevation": 219.5,
      "mindate": "2008-07-01",
      "maxdate": "2010-10-08",
      "latitude": 46.4631,
      "name": "MARQUETTE 6.5 SSE, MI US",
      "datacoverage": 0.7112,
      "id": "GHCND:US1MIMQ0004",
      "elevationUnit": "METERS",
      "longitude": -87.34705
    },
    {
      "elevation": 230.1,
      "mindate": "2008-09-01",
      "maxdate": "2010-10-28",
      "latitude": 46.40579,
      "name": "SKANDIA 2.1 NNW, MI US",
      "datacoverage": 0.885,
      "id": "GHCND:US1MIMQ0007",
      "elevationUnit": "METERS",
      "longitude": -87.24775
    },
    {
      "elevation": 223.4,
      "mindate": "2008-12-01",
      "maxdate": "2011-11-29",
      "latitude": 46.56056,
      "name": "MARQUETTE 1.9 WNW, MI US",
      "datacoverage": 0.7227,
      "id": "GHCND:US1MIMQ0009",
      "elevationUnit": "METERS",
      "longitude": -87.4334
    },
    {
      "elevation": 449.6,
      "mindate": "2010-05-01",
      "maxdate": "2011-06-23",
      "latitude": 46.489911,
      "name": "ISHPEMING 2.5 W, MI US",
      "datacoverage": 0.9925,
      "id": "GHCND:US1MIMQ0012",
      "elevationUnit": "METERS",
      "longitude": -87.715361
    },
    {
      "elevation": 231,
      "mindate": "2011-10-01",
      "maxdate": "2024-11-20",
      "latitude": 46.5301,
      "name": "MARQUETTE 1.5 SSW, MI US",
      "datacoverage": 0.9925,
      "id": "GHCND:US1MIMQ0013",
      "elevationUnit": "METERS",
      "longitude": -87.4053
    },
    {
      "elevation": 451.1,
      "mindate": "2011-12-01",
      "maxdate": "2019-05-11",
      "latitude": 46.4854,
      "name": "ISHPEMING 2.5 W, MI US",
      "datacoverage": 0.998,
      "id": "GHCND:US1MIMQ0014",
      "elevationUnit": "METERS",
      "longitude": -87.7156
    },
    {
      "elevation": 272.2,
      "mindate": "2012-01-01",
      "maxdate": "2018-11-06",
      "latitude": 46.71,
      "name": "MARQUETTE 16.0 NW, MI US",
      "datacoverage": 0.8629,
      "id": "GHCND:US1MIMQ0015",
      "elevationUnit": "METERS",
      "longitude": -87.64
    },
    {
      "elevation": 213.4,
      "mindate": "2012-09-01",
      "maxdate": "2024-12-29",
      "latitude": 46.5477,
      "name": "MARQUETTE 0.4 ESE, MI US",
      "datacoverage": 0.7003,
      "id": "GHCND:US1MIMQ0016",
      "elevationUnit": "METERS",
      "longitude": -87.3888
    },
    {
      "elevation": 418.8,
      "mindate": "2013-09-01",
      "maxdate": "2019-04-08",
      "latitude": 46.5673,
      "name": "ISHPEMING 5.6 NNW, MI US",
      "datacoverage": 1,
      "id": "GHCND:US1MIMQ0017",
      "elevationUnit": "METERS",
      "longitude": -87.6869
    },
    {
      "elevation": 221.6,
      "mindate": "2015-10-01",
      "maxdate": "2024-09-10",
      "latitude": 46.5409780293703,
      "name": "MARQUETTE 0.7 SSW, MI US",
      "datacoverage": 0.998,
      "id": "GHCND:US1MIMQ0018",
      "elevationUnit": "METERS",
      "longitude": -87.4019466340542
    },
    {
      "elevation": 445.9,
      "mindate": "2015-11-25",
      "maxdate": "2025-03-07",
      "latitude": 46.4055,
      "name": "ISHPEMING 7.2 SW, MI US",
      "datacoverage": 0.9991,
      "id": "GHCND:US1MIMQ0019",
      "elevationUnit": "METERS",
      "longitude": -87.7567
    },
    {
      "elevation": 200.6,
      "mindate": "2016-09-20",
      "maxdate": "2018-11-13",
      "latitude": 46.511111,
      "name": "MARQUETTE 2.8 SSE, MI US",
      "datacoverage": 0.9999,
      "id": "GHCND:US1MIMQ0020",
      "elevationUnit": "METERS",
      "longitude": -87.381667
    },
    {
      "elevation": 423.4,
      "mindate": "2017-06-25",
      "maxdate": "2017-10-31",
      "latitude": 46.506975,
      "name": "NEGAUNEE 0.8 NW, MI US",
      "datacoverage": 0.9925,
      "id": "GHCND:US1MIMQ0022",
      "elevationUnit": "METERS",
      "longitude": -87.608699
    },
    {
      "elevation": 491,
      "mindate": "2018-05-27",
      "maxdate": "2025-03-07",
      "latitude": 46.498396,
      "name": "WOBIC 0.5 ESE, MI US",
      "datacoverage": 1,
      "id": "GHCND:US1MIMQ0024",
      "elevationUnit": "METERS",
      "longitude": -87.940723
    },
    {
      "elevation": 486.5,
      "mindate": "2019-04-14",
      "maxdate": "2022-07-01",
      "latitude": 46.541401,
      "name": "ISHPEMING 6.3 NW, MI US",
      "datacoverage": 0.4962,
      "id": "GHCND:US1MIMQ0025",
      "elevationUnit": "METERS",
      "longitude": -87.771535
    },
    {
      "elevation": 343.2,
      "mindate": "2020-10-17",
      "maxdate": "2025-01-08",
      "latitude": 46.316389,
      "name": "CARLSHEND, MI US",
      "datacoverage": 0.5767,
      "id": "GHCND:US1MIMQ0028",
      "elevationUnit": "METERS",
      "longitude": -87.19944
    },
    {
      "elevation": 347.5,
      "mindate": "2021-04-17",
      "maxdate": "2022-08-07",
      "latitude": 46.3051495,
      "name": "CARLSHEND NUMBER 2, MI US",
      "datacoverage": 0.5968,
      "id": "GHCND:US1MIMQ0029",
      "elevationUnit": "METERS",
      "longitude": -87.199071
    },
    {
      "elevation": 380.1,
      "mindate": "2022-05-25",
      "maxdate": "2025-03-07",
      "latitude": 46.472883,
      "name": "MARQUETTE 6.1 SSW, MI US",
      "datacoverage": 0.9095,
      "id": "GHCND:US1MIMQ0030",
      "elevationUnit": "METERS",
      "longitude": -87.457057
    },
    {
      "elevation": 409.3,
      "mindate": "2022-06-06",
      "maxdate": "2023-10-11",
      "latitude": 46.5699293,
      "name": "NEGAUNEE 5.3 NNE, MI US",
      "datacoverage": 1,
      "id": "GHCND:US1MIMQ0031",
      "elevationUnit": "METERS",
      "longitude": -87.5513805
    },
    {
      "elevation": 233.8,
      "mindate": "2023-02-24",
      "maxdate": "2025-03-07",
      "latitude": 46.71871,
      "name": "BIG BAY 9.0 SE, MI US",
      "datacoverage": 1,
      "id": "GHCND:US1MIMQ0032",
      "elevationUnit": "METERS",
      "longitude": -87.61221
    },
    {
      "elevation": 211.2,
      "mindate": "2023-10-23",
      "maxdate": "2025-03-05",
      "latitude": 46.562881,
      "name": "MARQUETTE 2.0 WNW, MI US",
      "datacoverage": 0.801,
      "id": "GHCND:US1MIMQ0033",
      "elevationUnit": "METERS",
      "longitude": -87.433004
    },
    {
      "elevation": 339.9,
      "mindate": "2024-03-16",
      "maxdate": "2025-03-07",
      "latitude": 46.33748,
      "name": "SKANDIA 3.0 SSE, MI US",
      "datacoverage": 0.9011,
      "id": "GHCND:US1MIMQ0034",
      "elevationUnit": "METERS",
      "longitude": -87.21344
    },
    {
      "elevation": 178.6,
      "mindate": "2008-10-01",
      "maxdate": "2024-04-02",
      "latitude": 42.033496,
      "name": "SOUTH ROCKWOOD 2.0 S, MI US",
      "datacoverage": 0.4037,
      "id": "GHCND:US1MIMR0003",
      "elevationUnit": "METERS",
      "longitude": -83.264119
    },
    {
      "elevation": 182.3,
      "mindate": "2008-12-01",
      "maxdate": "2025-03-07",
      "latitude": 41.872635,
      "name": "MONROE 3.0 S, MI US",
      "datacoverage": 1,
      "id": "GHCND:US1MIMR0004",
      "elevationUnit": "METERS",
      "longitude": -83.380939
    },
    {
      "elevation": 200.9,
      "mindate": "2009-11-01",
      "maxdate": "2016-11-07",
      "latitude": 41.914571,
      "name": "PETERSBURG 5.1 ENE, MI US",
      "datacoverage": 0.4522,
      "id": "GHCND:US1MIMR0005",
      "elevationUnit": "METERS",
      "longitude": -83.61429
    },
    {
      "elevation": 187.5,
      "mindate": "2012-04-01",
      "maxdate": "2025-03-07",
      "latitude": 42.0212526619434,
      "name": "CARLETON 2.5 S, MI US",
      "datacoverage": 1,
      "id": "GHCND:US1MIMR0009",
      "elevationUnit": "METERS",
      "longitude": -83.3944923430681
    },
    {
      "elevation": 207.9,
      "mindate": "2015-03-01",
      "maxdate": "2017-06-08",
      "latitude": 41.7699450999498,
      "name": "LAMBERTVILLE 2.9 WNW, MI US",
      "datacoverage": 0.9967,
      "id": "GHCND:US1MIMR0010",
      "elevationUnit": "METERS",
      "longitude": -83.6705989390612
    },
    {
      "elevation": 210.9,
      "mindate": "2016-07-18",
      "maxdate": "2024-09-23",
      "latitude": 42.009476,
      "name": "BRITTON 3.7 ENE, MI US",
      "datacoverage": 0.4866,
      "id": "GHCND:US1MIMR0011",
      "elevationUnit": "METERS",
      "longitude": -83.766501
    },
    {
      "elevation": 178.9,
      "mindate": "2017-04-20",
      "maxdate": "2024-08-06",
      "latitude": 41.94268,
      "name": "MONROE 4.0 ENE, MI US",
      "datacoverage": 0.3703,
      "id": "GHCND:US1MIMR0014",
      "elevationUnit": "METERS",
      "longitude": -83.3172
    },
    {
      "elevation": 209.7,
      "mindate": "2017-06-09",
      "maxdate": "2025-03-05",
      "latitude": 41.782787,
      "name": "OTTAWA LAKE 1.4 SSW, MI US",
      "datacoverage": 0.9565,
      "id": "GHCND:US1MIMR0016",
      "elevationUnit": "METERS",
      "longitude": -83.738953
    },
    {
      "elevation": 191.4,
      "mindate": "2021-03-15",
      "maxdate": "2025-03-06",
      "latitude": 41.965405,
      "name": "MONROE 5.9 NW, MI US",
      "datacoverage": 0.8575,
      "id": "GHCND:US1MIMR0017",
      "elevationUnit": "METERS",
      "longitude": -83.479872
    },
    {
      "elevation": 207,
      "mindate": "2024-04-15",
      "maxdate": "2025-03-07",
      "latitude": 41.801,
      "name": "TEMPERANCE 4.6 WNW, MI US",
      "datacoverage": 0.9572,
      "id": "GHCND:US1MIMR0022",
      "elevationUnit": "METERS",
      "longitude": -83.6499
    },
    {
      "elevation": 209.7,
      "mindate": "2008-07-01",
      "maxdate": "2021-11-30",
      "latitude": 44.035312,
      "name": "SCOTTVILLE 6.6 NNW, MI US",
      "datacoverage": 0.9999,
      "id": "GHCND:US1MIMS0001",
      "elevationUnit": "METERS",
      "longitude": -86.340031
    },
    {
      "elevation": 182,
      "mindate": "2023-05-13",
      "maxdate": "2025-03-07",
      "latitude": 43.978821,
      "name": "LUDINGTON 1.8 NE, MI US",
      "datacoverage": 0.7158,
      "id": "GHCND:US1MIMS0008",
      "elevationUnit": "METERS",
      "longitude": -86.422785
    },
    {
      "elevation": 199,
      "mindate": "2023-04-01",
      "maxdate": "2024-11-11",
      "latitude": 43.993193,
      "name": "LUDINGTON 5.1 ENE, MI US",
      "datacoverage": 0.5707,
      "id": "GHCND:US1MIMS0009",
      "elevationUnit": "METERS",
      "longitude": -86.354052
    },
    {
      "elevation": 203.3,
      "mindate": "2024-04-29",
      "maxdate": "2025-03-07",
      "latitude": 43.9336,
      "name": "SCOTTVILLE 2.1 ESE, MI US",
      "datacoverage": 0.9329,
      "id": "GHCND:US1MIMS0010",
      "elevationUnit": "METERS",
      "longitude": -86.245
    },
    {
      "elevation": 301.4,
      "mindate": "2008-07-01",
      "maxdate": "2009-06-01",
      "latitude": 43.3871,
      "name": "EDMORE 3.0 ESE, MI US",
      "datacoverage": 0.9925,
      "id": "GHCND:US1MIMT0001",
      "elevationUnit": "METERS",
      "longitude": -84.9851
    },
    {
      "elevation": 257.9,
      "mindate": "2008-07-01",
      "maxdate": "2016-07-13",
      "latitude": 43.311641,
      "name": "TRUFANT 0.1 SE, MI US",
      "datacoverage": 0.3258,
      "id": "GHCND:US1MIMT0002",
      "elevationUnit": "METERS",
      "longitude": -85.352996
    },
    {
      "elevation": 281,
      "mindate": "2013-05-01",
      "maxdate": "2020-04-13",
      "latitude": 43.3145374059677,
      "name": "STANTON 5.0 ENE, MI US",
      "datacoverage": 0.9994,
      "id": "GHCND:US1MIMT0005",
      "elevationUnit": "METERS",
      "longitude": -84.9852065742016
    },
    {
      "elevation": 307.2,
      "mindate": "2016-03-23",
      "maxdate": "2025-03-06",
      "latitude": 43.3797492980957,
      "name": "EDMORE 3.8 ESE, MI US",
      "datacoverage": 0.9993,
      "id": "GHCND:US1MIMT0008",
      "elevationUnit": "METERS",
      "longitude": -84.9731903076172
    },
    {
      "elevation": 255.1,
      "mindate": "2018-03-20",
      "maxdate": "2023-03-13",
      "latitude": 43.15067,
      "name": "FENWICK 3.3 E, MI US",
      "datacoverage": 0.9528,
      "id": "GHCND:US1MIMT0009",
      "elevationUnit": "METERS",
      "longitude": -85.01435
    },
    {
      "elevation": 277.1,
      "mindate": "2023-09-06",
      "maxdate": "2025-03-07",
      "latitude": 43.375,
      "name": "VESTABURG 1.7 S, MI US",
      "datacoverage": 0.9337,
      "id": "GHCND:US1MIMT0013",
      "elevationUnit": "METERS",
      "longitude": -84.905
    },
    {
      "elevation": 280.4,
      "mindate": "2024-08-20",
      "maxdate": "2025-03-07",
      "latitude": 43.36924,
      "name": "LAKEVIEW 7.1 SE, MI US",
      "datacoverage": 0.925,
      "id": "GHCND:US1MIMT0014",
      "elevationUnit": "METERS",
      "longitude": -85.18213
    },
    {
      "elevation": 270.4,
      "mindate": "2008-07-01",
      "maxdate": "2009-10-26",
      "latitude": 44.979974,
      "name": "ATLANTA 1.7 S, MI US",
      "datacoverage": 0.998,
      "id": "GHCND:US1MIMY0001",
      "elevationUnit": "METERS",
      "longitude": -84.142767
    },
    {
      "elevation": 271.3,
      "mindate": "2009-03-01",
      "maxdate": "2016-09-08",
      "latitude": 44.997838,
      "name": "ATLANTA 0.9 SW, MI US",
      "datacoverage": 0.2666,
      "id": "GHCND:US1MIMY0002",
      "elevationUnit": "METERS",
      "longitude": -84.160313
    },
    {
      "elevation": 267,
      "mindate": "2009-10-01",
      "maxdate": "2020-11-18",
      "latitude": 45.01577899,
      "name": "HILLMAN 6.9 WSW, MI US",
      "datacoverage": 0.999,
      "id": "GHCND:US1MIMY0003",
      "elevationUnit": "METERS",
      "longitude": -84.02238487
    },
    {
      "elevation": 189.9,
      "mindate": "2008-08-01",
      "maxdate": "2024-11-09",
      "latitude": 43.381844,
      "name": "GRANT 4.8 NW, MI US",
      "datacoverage": 0.8539,
      "id": "GHCND:US1MINW0002",
      "elevationUnit": "METERS",
      "longitude": -85.879724
    },
    {
      "elevation": 251.2,
      "mindate": "2008-07-01",
      "maxdate": "2013-09-04",
      "latitude": 43.46164,
      "name": "NEWAYGO 10.3 ENE, MI US",
      "datacoverage": 0.9998,
      "id": "GHCND:US1MINW0003",
      "elevationUnit": "METERS",
      "longitude": -85.60268
    },
    {
      "elevation": 265.8,
      "mindate": "2008-08-01",
      "maxdate": "2011-07-22",
      "latitude": 43.39378,
      "name": "NEWAYGO 7.7 ESE, MI US",
      "datacoverage": 0.8061,
      "id": "GHCND:US1MINW0004",
      "elevationUnit": "METERS",
      "longitude": -85.65228
    },
    {
      "elevation": 244.8,
      "mindate": "2009-03-01",
      "maxdate": "2013-04-19",
      "latitude": 43.362616,
      "name": "GRANT 6.2 ENE, MI US",
      "datacoverage": 0.8316,
      "id": "GHCND:US1MINW0005",
      "elevationUnit": "METERS",
      "longitude": -85.693316
    },
    {
      "elevation": 263.7,
      "mindate": "2009-08-01",
      "maxdate": "2012-12-07",
      "latitude": 43.5106824,
      "name": "FREMONT 3.5 NNW, MI US",
      "datacoverage": 1,
      "id": "GHCND:US1MINW0006",
      "elevationUnit": "METERS",
      "longitude": -85.9665925
    },
    {
      "elevation": 294.7,
      "mindate": "2009-09-01",
      "maxdate": "2022-06-29",
      "latitude": 43.591,
      "name": "WHITE CLOUD 2.9 NW, MI US",
      "datacoverage": 1,
      "id": "GHCND:US1MINW0007",
      "elevationUnit": "METERS",
      "longitude": -85.798
    },
    {
      "elevation": 298.1,
      "mindate": "2010-03-01",
      "maxdate": "2025-03-07",
      "latitude": 43.606302,
      "name": "WHITE CLOUD 7.5 ENE, MI US",
      "datacoverage": 1,
      "id": "GHCND:US1MINW0008",
      "elevationUnit": "METERS",
      "longitude": -85.641918
    },
    {
      "elevation": 260.9,
      "mindate": "2019-03-17",
      "maxdate": "2022-01-06",
      "latitude": 43.525879,
      "name": "WHITE CLOUD 9.6 E, MI US",
      "datacoverage": 0.6423,
      "id": "GHCND:US1MINW0010",
      "elevationUnit": "METERS",
      "longitude": -85.584618
    },
    {
      "elevation": 270.1,
      "mindate": "2008-07-01",
      "maxdate": "2011-09-30",
      "latitude": 43.77334,
      "name": "WALKERVILLE 4.2 NNE, MI US",
      "datacoverage": 0.8718,
      "id": "GHCND:US1MIOC0001",
      "elevationUnit": "METERS",
      "longitude": -86.10715
    },
    {
      "elevation": 224.6,
      "mindate": "2008-08-01",
      "maxdate": "2024-12-25",
      "latitude": 43.5,
      "name": "MONTAGUE 8.1 NW, MI US",
      "datacoverage": 1,
      "id": "GHCND:US1MIOC0002",
      "elevationUnit": "METERS",
      "longitude": -86.47
    },
    {
      "elevation": 185.6,
      "mindate": "2023-09-27",
      "maxdate": "2025-01-06",
      "latitude": 43.7851,
      "name": "PENTWATER 0.4 NNE, MI US",
      "datacoverage": 0.998,
      "id": "GHCND:US1MIOC0004",
      "elevationUnit": "METERS",
      "longitude": -86.4277
    },
    {
      "elevation": 344.1,
      "mindate": "2010-09-01",
      "maxdate": "2025-03-07",
      "latitude": 44.6414,
      "name": "LUZERNE 2.4 NE, MI US",
      "datacoverage": 1,
      "id": "GHCND:US1MIOD0003",
      "elevationUnit": "METERS",
      "longitude": -84.2383
    },
    {
      "elevation": 343.8,
      "mindate": "2021-11-26",
      "maxdate": "2025-03-07",
      "latitude": 44.7476,
      "name": "MIO 6.2 NNE, MI US",
      "datacoverage": 0.6928,
      "id": "GHCND:US1MIOD0004",
      "elevationUnit": "METERS",
      "longitude": -84.1028
    }
  ]
}
