{
  "metadata": {
    "resultset": {
      "offset": 149000,
      "count": 154115,
      "limit": 100
    }
  },
  "results": [
    {
      "elevation": 15.8,
      "mindate": "1883-04-01",
      "maxdate": "1990-08-31",
      "latitude": 29.76667,
      "name": "HOUSTON WEATHER BUREAU CITY, TX US",
      "datacoverage": 0.97,
      "id": "GHCND:USW00012945",
      "elevationUnit": "METERS",
      "longitude": -95.36667
    },
    {
      "elevation": 9.1,
      "mindate": "1949-01-01",
      "maxdate": "2021-09-04",
      "latitude": 27.7,
      "name": "CORPUS CHRISTI CABANISS FIELD NAVAL OUTLYING FIELD, TX US",
      "datacoverage": 0.2082,
      "id": "GHCND:USW00012946",
      "elevationUnit": "METERS",
      "longitude": -97.43333
    },
    {
      "elevation": 144,
      "mindate": "1949-01-01",
      "maxdate": "2025-03-06",
      "latitude": 28.45854,
      "name": "COTULLA LA SALLE CO AIRPORT, TX US",
      "datacoverage": 1,
      "id": "GHCND:USW00012947",
      "elevationUnit": "METERS",
      "longitude": -99.22275
    },
    {
      "elevation": 30.5,
      "mindate": "2011-01-01",
      "maxdate": "2025-03-06",
      "latitude": 29.26611,
      "name": "WHARTON REGIONAL AIRPORT, TX US",
      "datacoverage": 0.9993,
      "id": "GHCND:USW00012953",
      "elevationUnit": "METERS",
      "longitude": -96.0075
    },
    {
      "elevation": 5.1,
      "mindate": "1998-09-01",
      "maxdate": "2025-03-06",
      "latitude": 26.15966,
      "name": "PORT ISABEL CAMERON CO AIRPORT, TX US",
      "datacoverage": 1,
      "id": "GHCND:USW00012957",
      "elevationUnit": "METERS",
      "longitude": -97.33781
    },
    {
      "elevation": 1.5,
      "mindate": "1956-06-01",
      "maxdate": "2016-03-01",
      "latitude": 29.81667,
      "name": "NEW ORLEANS ALVIN CALLENDER FIELD, LA US",
      "datacoverage": 1,
      "id": "GHCND:USW00012958",
      "elevationUnit": "METERS",
      "longitude": -90.01667
    },
    {
      "elevation": 30.1,
      "mindate": "1961-01-01",
      "maxdate": "2025-03-06",
      "latitude": 26.17912,
      "name": "MCALLEN MILLER INTERNATIONAL AIRPORT, TX US",
      "datacoverage": 1,
      "id": "GHCND:USW00012959",
      "elevationUnit": "METERS",
      "longitude": -98.2445
    },
    {
      "elevation": 27.5,
      "mindate": "1969-01-01",
      "maxdate": "2025-03-07",
      "latitude": 29.98438,
      "name": "HOUSTON INTERCONTINENTAL AIRPORT, TX US",
      "datacoverage": 1,
      "id": "GHCND:USW00012960",
      "elevationUnit": "METERS",
      "longitude": -95.36072
    },
    {
      "elevation": 492.9,
      "mindate": "2011-01-01",
      "maxdate": "2025-03-06",
      "latitude": 29.98333,
      "name": "KERRVILLE MUNICIPAL AIRPORT, TX US",
      "datacoverage": 1,
      "id": "GHCND:USW00012961",
      "elevationUnit": "METERS",
      "longitude": -99.08333
    },
    {
      "elevation": 281,
      "mindate": "1975-03-01",
      "maxdate": "2025-03-06",
      "latitude": 29.36013,
      "name": "HONDO MUNICIPAL AIRPORT, TX US",
      "datacoverage": 1,
      "id": "GHCND:USW00012962",
      "elevationUnit": "METERS",
      "longitude": -99.17423
    },
    {
      "elevation": 1,
      "mindate": "1998-05-01",
      "maxdate": "2024-06-18",
      "latitude": 29.559027,
      "name": "SALT POINT, LA US",
      "datacoverage": 1,
      "id": "GHCND:USW00012968",
      "elevationUnit": "METERS",
      "longitude": -91.525054
    },
    {
      "elevation": 173.1,
      "mindate": "1998-05-01",
      "maxdate": "2025-03-06",
      "latitude": 29.33896,
      "name": "SAN ANTONIO STINSON MUNICIPAL AIRPORT, TX US",
      "datacoverage": 1,
      "id": "GHCND:USW00012970",
      "elevationUnit": "METERS",
      "longitude": -98.47198
    },
    {
      "elevation": 197.6,
      "mindate": "1996-07-01",
      "maxdate": "2025-03-06",
      "latitude": 29.70887,
      "name": "NEW BRAUNFELS MUNICIPAL AIRPORT, TX US",
      "datacoverage": 1,
      "id": "GHCND:USW00012971",
      "elevationUnit": "METERS",
      "longitude": -98.04585
    },
    {
      "elevation": 7.5,
      "mindate": "1996-07-01",
      "maxdate": "2025-03-06",
      "latitude": 28.08366,
      "name": "ROCKPORT ARANSAS CO AIRPORT, TX US",
      "datacoverage": 1,
      "id": "GHCND:USW00012972",
      "elevationUnit": "METERS",
      "longitude": -97.04669
    },
    {
      "elevation": 71,
      "mindate": "1996-09-01",
      "maxdate": "1997-12-20",
      "latitude": 27.89469,
      "name": "ORANGE GROVE, TX US",
      "datacoverage": 0.9375,
      "id": "GHCND:USW00012974",
      "elevationUnit": "METERS",
      "longitude": -98.04252
    },
    {
      "elevation": 11.9,
      "mindate": "1997-06-01",
      "maxdate": "2025-03-06",
      "latitude": 29.51924,
      "name": "HOUSTON CLOVER FIELD, TX US",
      "datacoverage": 1,
      "id": "GHCND:USW00012975",
      "elevationUnit": "METERS",
      "longitude": -95.2423
    },
    {
      "elevation": 7.7,
      "mindate": "1998-05-01",
      "maxdate": "2025-02-25",
      "latitude": 29.11536,
      "name": "ANGLETON LAKE JACKSON BRAZORIA CO AIRPORT, TX US",
      "datacoverage": 1,
      "id": "GHCND:USW00012976",
      "elevationUnit": "METERS",
      "longitude": -95.46323
    },
    {
      "elevation": 23.5,
      "mindate": "2000-12-01",
      "maxdate": "2025-03-06",
      "latitude": 29.61971,
      "name": "HOUSTON SUGARLAND MEM, TX US",
      "datacoverage": 1,
      "id": "GHCND:USW00012977",
      "elevationUnit": "METERS",
      "longitude": -95.65748
    },
    {
      "elevation": 98.8,
      "mindate": "2011-01-01",
      "maxdate": "2025-03-06",
      "latitude": 29.90778,
      "name": "FAYETTE REGIONAL AIR CENTER AIRPORT, TX US",
      "datacoverage": 0.9993,
      "id": "GHCND:USW00012978",
      "elevationUnit": "METERS",
      "longitude": -96.95
    },
    {
      "elevation": 182,
      "mindate": "2017-01-01",
      "maxdate": "2025-03-06",
      "latitude": 29.89083,
      "name": "SAN MARCOS MUNICIPAL AIRPORT, TX US",
      "datacoverage": 0.9994,
      "id": "GHCND:USW00012979",
      "elevationUnit": "METERS",
      "longitude": -97.86444
    },
    {
      "elevation": 13.7,
      "mindate": "2011-01-01",
      "maxdate": "2025-03-06",
      "latitude": 28.97306,
      "name": "BAY CITY MUNICIPAL AIRPORT, TX US",
      "datacoverage": 0.9993,
      "id": "GHCND:USW00012981",
      "elevationUnit": "METERS",
      "longitude": -95.86333
    },
    {
      "elevation": 287.1,
      "mindate": "2011-01-01",
      "maxdate": "2025-03-06",
      "latitude": 29.21139,
      "name": "GARNER FIELD AIRPORT, TX US",
      "datacoverage": 0.9993,
      "id": "GHCND:USW00012985",
      "elevationUnit": "METERS",
      "longitude": -99.74361
    },
    {
      "elevation": 19.5,
      "mindate": "2004-02-01",
      "maxdate": "2025-03-06",
      "latitude": 26.5258,
      "name": "EDINBURG 17 NNE, TX US",
      "datacoverage": 1,
      "id": "GHCND:USW00012987",
      "elevationUnit": "METERS",
      "longitude": -98.0633
    },
    {
      "elevation": 253.9,
      "mindate": "2005-06-01",
      "maxdate": "2025-03-06",
      "latitude": 39.8668,
      "name": "CHILLICOTHE 22 ENE, MO US",
      "datacoverage": 1,
      "id": "GHCND:USW00013301",
      "elevationUnit": "METERS",
      "longitude": -93.147
    },
    {
      "elevation": 17.4,
      "mindate": "1919-06-01",
      "maxdate": "2025-03-07",
      "latitude": 39.4716,
      "name": "ABERDEEN PHILLIPS FIELD, MD US",
      "datacoverage": 1,
      "id": "GHCND:USW00013701",
      "elevationUnit": "METERS",
      "longitude": -76.1697
    },
    {
      "elevation": 3,
      "mindate": "1897-01-01",
      "maxdate": "2013-04-01",
      "latitude": 37.08278,
      "name": "LANGLEY AIR FORCE BASE, VA US",
      "datacoverage": 1,
      "id": "GHCND:USW00013702",
      "elevationUnit": "METERS",
      "longitude": -76.36028
    },
    {
      "elevation": 86,
      "mindate": "1949-01-01",
      "maxdate": "1970-12-31",
      "latitude": 38.81667,
      "name": "CAMP SPRINGS ANDREWS AFB, MD US",
      "datacoverage": 1,
      "id": "GHCND:USW00013705",
      "elevationUnit": "METERS",
      "longitude": -76.86667
    },
    {
      "elevation": 8.5,
      "mindate": "1946-07-01",
      "maxdate": "1970-12-31",
      "latitude": 39.13333,
      "name": "DOVER AFB, DE US",
      "datacoverage": 0.9994,
      "id": "GHCND:USW00013707",
      "elevationUnit": "METERS",
      "longitude": -75.46667
    },
    {
      "elevation": 18,
      "mindate": "1947-08-01",
      "maxdate": "1969-09-04",
      "latitude": 38.83333,
      "name": "WASHINGTON DC BOLLING FIELD AFB, DC US",
      "datacoverage": 0.5552,
      "id": "GHCND:USW00013710",
      "elevationUnit": "METERS",
      "longitude": -77.01667
    },
    {
      "elevation": 33.2,
      "mindate": "1900-02-01",
      "maxdate": "2010-12-31",
      "latitude": 35.3444,
      "name": "GOLDSBORO SEYMOUR JOHNSON AFB, NC US",
      "datacoverage": 1,
      "id": "GHCND:USW00013713",
      "elevationUnit": "METERS",
      "longitude": -77.9647
    },
    {
      "elevation": 66.4,
      "mindate": "1948-09-01",
      "maxdate": "2011-05-01",
      "latitude": 35.17389,
      "name": "FAYETTEVILLE POPE AFB, NC US",
      "datacoverage": 1,
      "id": "GHCND:USW00013714",
      "elevationUnit": "METERS",
      "longitude": -79.00889
    },
    {
      "elevation": 7.6,
      "mindate": "1956-01-01",
      "maxdate": "1970-12-31",
      "latitude": 33.68333,
      "name": "MYRTLE BEACH AFB, SC US",
      "datacoverage": 1,
      "id": "GHCND:USW00013717",
      "elevationUnit": "METERS",
      "longitude": -78.93333
    },
    {
      "elevation": 11.9,
      "mindate": "1945-01-01",
      "maxdate": "2025-03-06",
      "latitude": 38.3,
      "name": "PATUXENT RIVER NAS, MD US",
      "datacoverage": 1,
      "id": "GHCND:USW00013721",
      "elevationUnit": "METERS",
      "longitude": -76.41667
    },
    {
      "elevation": 120.5,
      "mindate": "1944-05-01",
      "maxdate": "2025-03-07",
      "latitude": 35.89227,
      "name": "RALEIGH DURHAM INTERNATIONAL AIRPORT, NC US",
      "datacoverage": 1,
      "id": "GHCND:USW00013722",
      "elevationUnit": "METERS",
      "longitude": -78.78194
    },
    {
      "elevation": 275,
      "mindate": "1928-11-01",
      "maxdate": "2025-03-07",
      "latitude": 36.0969,
      "name": "GREENSBORO PIEDMONT TRIAD INTERNATIONAL AIRPORT, NC US",
      "datacoverage": 1,
      "id": "GHCND:USW00013723",
      "elevationUnit": "METERS",
      "longitude": -79.94316
    },
    {
      "elevation": 3,
      "mindate": "1873-12-10",
      "maxdate": "2025-03-05",
      "latitude": 39.37778,
      "name": "ATLANTIC CITY MARINA, NJ US",
      "datacoverage": 1,
      "id": "GHCND:USW00013724",
      "elevationUnit": "METERS",
      "longitude": -74.42361
    },
    {
      "elevation": 133.3,
      "mindate": "1945-01-01",
      "maxdate": "1972-07-31",
      "latitude": 37.08333,
      "name": "BLACKSTONE, VA US",
      "datacoverage": 0.8892,
      "id": "GHCND:USW00013726",
      "elevationUnit": "METERS",
      "longitude": -77.95
    },
    {
      "elevation": 168.2,
      "mindate": "1945-11-01",
      "maxdate": "2025-03-06",
      "latitude": 36.57286,
      "name": "DANVILLE REGIONAL AIRPORT, VA US",
      "datacoverage": 1,
      "id": "GHCND:USW00013728",
      "elevationUnit": "METERS",
      "longitude": -79.33496
    },
    {
      "elevation": 595.7,
      "mindate": "1926-01-01",
      "maxdate": "2025-03-07",
      "latitude": 38.8899,
      "name": "ELKINS RANDOLPH CO AIRPORT, WV US",
      "datacoverage": 1,
      "id": "GHCND:USW00013729",
      "elevationUnit": "METERS",
      "longitude": -79.85544
    },
    {
      "elevation": 93.9,
      "mindate": "1948-01-01",
      "maxdate": "2012-06-01",
      "latitude": 39.41667,
      "name": "FREDERICK MUNICIPAL AIRPORT, MD US",
      "datacoverage": 0.9282,
      "id": "GHCND:USW00013730",
      "elevationUnit": "METERS",
      "longitude": -77.38333
    },
    {
      "elevation": 207.9,
      "mindate": "1948-08-01",
      "maxdate": "1956-06-30",
      "latitude": 39,
      "name": "FRONT ROYAL, VA US",
      "datacoverage": 0.9897,
      "id": "GHCND:USW00013731",
      "elevationUnit": "METERS",
      "longitude": -78.23333
    },
    {
      "elevation": 135,
      "mindate": "1948-08-01",
      "maxdate": "1961-04-19",
      "latitude": 38.06667,
      "name": "GORDONSVILLE, VA US",
      "datacoverage": 1,
      "id": "GHCND:USW00013732",
      "elevationUnit": "METERS",
      "longitude": -78.15
    },
    {
      "elevation": 274.9,
      "mindate": "1944-01-01",
      "maxdate": "2025-03-07",
      "latitude": 37.32126,
      "name": "LYNCHBURG REGIONAL AIRPORT, VA US",
      "datacoverage": 1,
      "id": "GHCND:USW00013733",
      "elevationUnit": "METERS",
      "longitude": -79.20649
    },
    {
      "elevation": 165,
      "mindate": "1926-01-01",
      "maxdate": "2025-03-06",
      "latitude": 39.40375,
      "name": "MARTINSBURG EASTERN WEST VIRGINIA REGIONAL AIRPORT, WV US",
      "datacoverage": 1,
      "id": "GHCND:USW00013734",
      "elevationUnit": "METERS",
      "longitude": -77.97501
    },
    {
      "elevation": 17.8,
      "mindate": "1947-02-01",
      "maxdate": "2025-03-06",
      "latitude": 39.36623,
      "name": "MILLVILLE MUNICIPAL AIRPORT, NJ US",
      "datacoverage": 1,
      "id": "GHCND:USW00013735",
      "elevationUnit": "METERS",
      "longitude": -75.07778
    },
    {
      "elevation": 373.6,
      "mindate": "1872-05-01",
      "maxdate": "2025-03-06",
      "latitude": 39.64981,
      "name": "MORGANTOWN MUNICIPAL AIRPORT, WV US",
      "datacoverage": 1,
      "id": "GHCND:USW00013736",
      "elevationUnit": "METERS",
      "longitude": -79.92064
    },
    {
      "elevation": 3.3,
      "mindate": "1946-01-01",
      "maxdate": "2025-03-07",
      "latitude": 36.90371,
      "name": "NORFOLK INTERNATIONAL AIRPORT, VA US",
      "datacoverage": 1,
      "id": "GHCND:USW00013737",
      "elevationUnit": "METERS",
      "longitude": -76.19266
    },
    {
      "elevation": 307.8,
      "mindate": "1939-01-01",
      "maxdate": "1971-11-30",
      "latitude": 39,
      "name": "PETERSBURG, WV US",
      "datacoverage": 0.9697,
      "id": "GHCND:USW00013738",
      "elevationUnit": "METERS",
      "longitude": -79.11667
    },
    {
      "elevation": 2.1,
      "mindate": "1940-07-01",
      "maxdate": "2025-03-07",
      "latitude": 39.87326,
      "name": "PHILADELPHIA INTERNATIONAL AIRPORT, PA US",
      "datacoverage": 1,
      "id": "GHCND:USW00013739",
      "elevationUnit": "METERS",
      "longitude": -75.22681
    },
    {
      "elevation": 50.7,
      "mindate": "1939-03-01",
      "maxdate": "2025-03-07",
      "latitude": 37.51154,
      "name": "RICHMOND INTERNATIONAL AIRPORT, VA US",
      "datacoverage": 1,
      "id": "GHCND:USW00013740",
      "elevationUnit": "METERS",
      "longitude": -77.32338
    },
    {
      "elevation": 346.7,
      "mindate": "1948-01-01",
      "maxdate": "2025-03-07",
      "latitude": 37.31719,
      "name": "ROANOKE BLACKSBURG REGIONAL AIRPORT, VA US",
      "datacoverage": 1,
      "id": "GHCND:USW00013741",
      "elevationUnit": "METERS",
      "longitude": -79.97369
    },
    {
      "elevation": 9.1,
      "mindate": "1948-01-01",
      "maxdate": "1973-12-31",
      "latitude": 37.63333,
      "name": "URBANNA, VA US",
      "datacoverage": 0.9967,
      "id": "GHCND:USW00013742",
      "elevationUnit": "METERS",
      "longitude": -76.56667
    },
    {
      "elevation": 4.1,
      "mindate": "1936-09-01",
      "maxdate": "2025-03-07",
      "latitude": 38.84721,
      "name": "WASHINGTON REAGAN NATIONAL AIRPORT, VA US",
      "datacoverage": 1,
      "id": "GHCND:USW00013743",
      "elevationUnit": "METERS",
      "longitude": -77.03454
    },
    {
      "elevation": 43,
      "mindate": "1948-01-01",
      "maxdate": "2025-03-06",
      "latitude": 34.18773,
      "name": "FLORENCE REGIONAL AIRPORT, SC US",
      "datacoverage": 1,
      "id": "GHCND:USW00013744",
      "elevationUnit": "METERS",
      "longitude": -79.73079
    },
    {
      "elevation": 4.6,
      "mindate": "1893-01-01",
      "maxdate": "2010-12-31",
      "latitude": 35.21667,
      "name": "HATTERAS, NC US",
      "datacoverage": 1,
      "id": "GHCND:USW00013745",
      "elevationUnit": "METERS",
      "longitude": -75.71667
    },
    {
      "elevation": 25.9,
      "mindate": "1949-01-01",
      "maxdate": "1976-12-31",
      "latitude": 35.96667,
      "name": "ROCKY MOUNT FAA AIRPORT, NC US",
      "datacoverage": 0.997,
      "id": "GHCND:USW00013746",
      "elevationUnit": "METERS",
      "longitude": -77.8
    },
    {
      "elevation": 132,
      "mindate": "1948-01-01",
      "maxdate": "1948-09-09",
      "latitude": 36.41667,
      "name": "WARRENTON WEATHER BUREAU AIRPORT, NC US",
      "datacoverage": 1,
      "id": "GHCND:USW00013747",
      "elevationUnit": "METERS",
      "longitude": -78.15
    },
    {
      "elevation": 7,
      "mindate": "1948-01-01",
      "maxdate": "2025-03-06",
      "latitude": 34.26678,
      "name": "WILMINGTON INTERNATIONAL AIRPORT, NC US",
      "datacoverage": 1,
      "id": "GHCND:USW00013748",
      "elevationUnit": "METERS",
      "longitude": -77.89987
    },
    {
      "elevation": 100,
      "mindate": "1949-01-01",
      "maxdate": "1955-04-29",
      "latitude": 39.43333,
      "name": "FREDERICK AF, MD US",
      "datacoverage": 0.9995,
      "id": "GHCND:USW00013749",
      "elevationUnit": "METERS",
      "longitude": -77.45
    },
    {
      "elevation": 5.2,
      "mindate": "1945-01-01",
      "maxdate": "2025-03-05",
      "latitude": 36.93746,
      "name": "NORFOLK NAS, VA US",
      "datacoverage": 1,
      "id": "GHCND:USW00013750",
      "elevationUnit": "METERS",
      "longitude": -76.28926
    },
    {
      "elevation": 15.8,
      "mindate": "1945-01-01",
      "maxdate": "1956-12-05",
      "latitude": 38.85,
      "name": "ANACOSTIA NAS, VA US",
      "datacoverage": 0.8328,
      "id": "GHCND:USW00013751",
      "elevationUnit": "METERS",
      "longitude": -77.03333
    },
    {
      "elevation": 1.8,
      "mindate": "1945-01-01",
      "maxdate": "2025-03-06",
      "latitude": 38.9913,
      "name": "ANNAPOLIS UNITED STATES NAVAL ACADEMY ASOS, MD US",
      "datacoverage": 1,
      "id": "GHCND:USW00013752",
      "elevationUnit": "METERS",
      "longitude": -76.4891
    },
    {
      "elevation": 20.1,
      "mindate": "1943-07-12",
      "maxdate": "1958-06-15",
      "latitude": 39.45,
      "name": "ATLANTIC CITY NAS, NJ US",
      "datacoverage": 1,
      "id": "GHCND:USW00013753",
      "elevationUnit": "METERS",
      "longitude": -74.58333
    },
    {
      "elevation": 8.8,
      "mindate": "1945-01-01",
      "maxdate": "2025-03-06",
      "latitude": 34.9,
      "name": "HAVELOCK CHERRY POINT MCAS, NC US",
      "datacoverage": 1,
      "id": "GHCND:USW00013754",
      "elevationUnit": "METERS",
      "longitude": -76.88333
    },
    {
      "elevation": 14.9,
      "mindate": "1945-01-01",
      "maxdate": "1959-03-15",
      "latitude": 37.93333,
      "name": "CHINCOTEAGUE NAS, US",
      "datacoverage": 1,
      "id": "GHCND:USW00013755",
      "elevationUnit": "METERS",
      "longitude": -75.43333
    },
    {
      "elevation": 4.9,
      "mindate": "1945-01-01",
      "maxdate": "1946-04-30",
      "latitude": 38.95,
      "name": "CAPE MAY NAS, US",
      "datacoverage": 1,
      "id": "GHCND:USW00013756",
      "elevationUnit": "METERS",
      "longitude": -74.88333
    },
    {
      "elevation": 2.1,
      "mindate": "1945-01-01",
      "maxdate": "1980-02-29",
      "latitude": 32.89861,
      "name": "CHARLESTON NAS, SC US",
      "datacoverage": 0.2057,
      "id": "GHCND:USW00013758",
      "elevationUnit": "METERS",
      "longitude": -80.04055
    },
    {
      "elevation": 6.1,
      "mindate": "1920-05-01",
      "maxdate": "1961-05-31",
      "latitude": 38.33333,
      "name": "DAHLGREN WEAPONS LAB, VA US",
      "datacoverage": 0.9919,
      "id": "GHCND:USW00013760",
      "elevationUnit": "METERS",
      "longitude": -77.03333
    },
    {
      "elevation": 13.1,
      "mindate": "1945-01-01",
      "maxdate": "1958-03-31",
      "latitude": 36.01667,
      "name": "EDENTON NAAS, NC US",
      "datacoverage": 0.6664,
      "id": "GHCND:USW00013761",
      "elevationUnit": "METERS",
      "longitude": -76.56667
    },
    {
      "elevation": 3,
      "mindate": "1996-07-01",
      "maxdate": "2025-03-05",
      "latitude": 36.700723,
      "name": "FENTRESS NAVAL AUXILIARY FIELD, VA US",
      "datacoverage": 1,
      "id": "GHCND:USW00013762",
      "elevationUnit": "METERS",
      "longitude": -76.129413
    },
    {
      "elevation": 15.1,
      "mindate": "1945-01-01",
      "maxdate": "2025-03-06",
      "latitude": 38.68974,
      "name": "GEORGETOWN DELAWARE COASTAL AIRPORT, DE US",
      "datacoverage": 1,
      "id": "GHCND:USW00013764",
      "elevationUnit": "METERS",
      "longitude": -75.36246
    },
    {
      "elevation": 7,
      "mindate": "1945-03-01",
      "maxdate": "1945-07-31",
      "latitude": 36.1,
      "name": "HARVEY POINT NAAS, NC US",
      "datacoverage": 0.9947,
      "id": "GHCND:USW00013765",
      "elevationUnit": "METERS",
      "longitude": -76.33333
    },
    {
      "elevation": 4,
      "mindate": "1945-01-01",
      "maxdate": "2025-01-31",
      "latitude": 35.9172,
      "name": "MANTEO, NC US",
      "datacoverage": 1,
      "id": "GHCND:USW00013766",
      "elevationUnit": "METERS",
      "longitude": -75.7024
    },
    {
      "elevation": 7,
      "mindate": "1945-01-01",
      "maxdate": "2025-03-06",
      "latitude": 36.81667,
      "name": "OCEANA NAS, VA US",
      "datacoverage": 1,
      "id": "GHCND:USW00013769",
      "elevationUnit": "METERS",
      "longitude": -76.03333
    },
    {
      "elevation": 6.1,
      "mindate": "1945-01-01",
      "maxdate": "1952-11-30",
      "latitude": 39.89111,
      "name": "PHILADELPHIA NAAS, PA US",
      "datacoverage": 1,
      "id": "GHCND:USW00013771",
      "elevationUnit": "METERS",
      "longitude": -75.17861
    },
    {
      "elevation": 3,
      "mindate": "1945-01-01",
      "maxdate": "2025-03-05",
      "latitude": 38.50362,
      "name": "QUANTICO MCAS, VA US",
      "datacoverage": 1,
      "id": "GHCND:USW00013773",
      "elevationUnit": "METERS",
      "longitude": -77.30503
    },
    {
      "elevation": 7,
      "mindate": "1945-01-01",
      "maxdate": "1957-06-27",
      "latitude": 36.23,
      "name": "WEEKSVILLE NAF, NC US",
      "datacoverage": 0.615,
      "id": "GHCND:USW00013774",
      "elevationUnit": "METERS",
      "longitude": -76.13
    },
    {
      "elevation": 17.1,
      "mindate": "1945-02-01",
      "maxdate": "1945-12-07",
      "latitude": 38.98333,
      "name": "WILDWOOD NAS, NJ US",
      "datacoverage": 1,
      "id": "GHCND:USW00013775",
      "elevationUnit": "METERS",
      "longitude": -74.91667
    },
    {
      "elevation": 36.9,
      "mindate": "1948-09-01",
      "maxdate": "2025-03-06",
      "latitude": 34.60817,
      "name": "LUMBERTON REGIONAL AIRPORT, NC US",
      "datacoverage": 1,
      "id": "GHCND:USW00013776",
      "elevationUnit": "METERS",
      "longitude": -79.059
    },
    {
      "elevation": 4.3,
      "mindate": "1871-01-01",
      "maxdate": "2010-12-31",
      "latitude": 39.28333,
      "name": "BALTIMORE CUSTOMS HOUSE, MD US",
      "datacoverage": 1,
      "id": "GHCND:USW00013777",
      "elevationUnit": "METERS",
      "longitude": -76.61667
    },
    {
      "elevation": 11,
      "mindate": "1871-11-01",
      "maxdate": "2010-12-31",
      "latitude": 39.95,
      "name": "PHILADELPHIA, PA US",
      "datacoverage": 1,
      "id": "GHCND:USW00013779",
      "elevationUnit": "METERS",
      "longitude": -75.15
    },
    {
      "elevation": 49.4,
      "mindate": "1897-10-01",
      "maxdate": "1954-03-31",
      "latitude": 37.53333,
      "name": "RICHMOND CHIMBORAZO PARK, VA US",
      "datacoverage": 0.9957,
      "id": "GHCND:USW00013780",
      "elevationUnit": "METERS",
      "longitude": -77.41667
    },
    {
      "elevation": 22.4,
      "mindate": "1931-04-16",
      "maxdate": "2025-03-07",
      "latitude": 39.67444,
      "name": "WILMINGTON AIRPORT, DE US",
      "datacoverage": 1,
      "id": "GHCND:USW00013781",
      "elevationUnit": "METERS",
      "longitude": -75.60566
    },
    {
      "elevation": 3,
      "mindate": "1893-01-01",
      "maxdate": "2025-03-05",
      "latitude": 32.775,
      "name": "DOWNTOWN CHARLESTON, SC US",
      "datacoverage": 1,
      "id": "GHCND:USW00013782",
      "elevationUnit": "METERS",
      "longitude": -79.9239
    },
    {
      "elevation": 1.7,
      "mindate": "1948-09-01",
      "maxdate": "2025-03-07",
      "latitude": 36.25771,
      "name": "ELIZABETH CITY COAST GUARD AIR STATION, NC US",
      "datacoverage": 1,
      "id": "GHCND:USW00013786",
      "elevationUnit": "METERS",
      "longitude": -76.1716
    },
    {
      "elevation": 131.1,
      "mindate": "1948-01-01",
      "maxdate": "2025-02-14",
      "latitude": 38.51839,
      "name": "BELLEVILLE SIU RESEARCH, IL US",
      "datacoverage": 1,
      "id": "GHCND:USW00013802",
      "elevationUnit": "METERS",
      "longitude": -89.84076
    },
    {
      "elevation": 199.9,
      "mindate": "1949-01-01",
      "maxdate": "1970-02-12",
      "latitude": 39.26667,
      "name": "COLUMBUS BAKALAR MUNICIPAL AIRPORT, IN US",
      "datacoverage": 0.8952,
      "id": "GHCND:USW00013803",
      "elevationUnit": "METERS",
      "longitude": -85.9
    },
    {
      "elevation": 174.7,
      "mindate": "1950-01-01",
      "maxdate": "1970-12-31",
      "latitude": 36.66667,
      "name": "FORT CAMPBELL ARMY AIR FIELD, KY US",
      "datacoverage": 0.9999,
      "id": "GHCND:USW00013806",
      "elevationUnit": "METERS",
      "longitude": -87.48333
    },
    {
      "elevation": 239,
      "mindate": "1948-08-01",
      "maxdate": "2016-03-01",
      "latitude": 37.9,
      "name": "FORT KNOX GODMAN ARMY AIR FIELD, KY US",
      "datacoverage": 1,
      "id": "GHCND:USW00013807",
      "elevationUnit": "METERS",
      "longitude": -85.96667
    },
    {
      "elevation": 130,
      "mindate": "1996-10-01",
      "maxdate": "2025-03-06",
      "latitude": 38.76046,
      "name": "LAWRENCEVILLE VINCENNES INTERNATIONAL AIRPORT, IL US",
      "datacoverage": 1,
      "id": "GHCND:USW00013809",
      "elevationUnit": "METERS",
      "longitude": -87.59902
    },
    {
      "elevation": 164.6,
      "mindate": "1948-08-01",
      "maxdate": "2025-03-06",
      "latitude": 38.23021,
      "name": "LOUISVILLE BOWMAN FIELD, KY US",
      "datacoverage": 1,
      "id": "GHCND:USW00013810",
      "elevationUnit": "METERS",
      "longitude": -85.66294
    },
    {
      "elevation": 226.8,
      "mindate": "1946-11-01",
      "maxdate": "1970-12-31",
      "latitude": 39.81667,
      "name": "COLUMBUS RICKENBACKER, OH US",
      "datacoverage": 0.954,
      "id": "GHCND:USW00013812",
      "elevationUnit": "METERS",
      "longitude": -82.93333
    },
    {
      "elevation": 245.1,
      "mindate": "1953-01-01",
      "maxdate": "1962-06-30",
      "latitude": 39.78333,
      "name": "WRIGHT PATTERSON AFB, OH US",
      "datacoverage": 1,
      "id": "GHCND:USW00013813",
      "elevationUnit": "METERS",
      "longitude": -84.1
    },
    {
      "elevation": 77.4,
      "mindate": "1955-01-01",
      "maxdate": "1970-12-31",
      "latitude": 35.96667,
      "name": "BLYTHEVILLE AFB, AR US",
      "datacoverage": 0.9993,
      "id": "GHCND:USW00013814",
      "elevationUnit": "METERS",
      "longitude": -89.95
    },
    {
      "elevation": 66.1,
      "mindate": "1949-01-01",
      "maxdate": "1974-04-15",
      "latitude": 31.58333,
      "name": "ALBANY NAS, GA US",
      "datacoverage": 0.9994,
      "id": "GHCND:USW00013815",
      "elevationUnit": "METERS",
      "longitude": -84.11667
    },
    {
      "elevation": 10.1,
      "mindate": "1949-01-01",
      "maxdate": "1970-12-31",
      "latitude": 30.41667,
      "name": "BILOXI KEESLER AFB, MS US",
      "datacoverage": 0.9963,
      "id": "GHCND:USW00013820",
      "elevationUnit": "METERS",
      "longitude": -88.91667
    },
    {
      "elevation": 53,
      "mindate": "1948-06-01",
      "maxdate": "2009-04-01",
      "latitude": 32.38333,
      "name": "MAXWELL AFB, AL US",
      "datacoverage": 0.6814,
      "id": "GHCND:USW00013821",
      "elevationUnit": "METERS",
      "longitude": -86.35
    },
    {
      "elevation": 298.1,
      "mindate": "1949-01-01",
      "maxdate": "1963-04-30",
      "latitude": 34.76667,
      "name": "GREENVILLE DONALDSON AFB, SC US",
      "datacoverage": 0.9995,
      "id": "GHCND:USW00013822",
      "elevationUnit": "METERS",
      "longitude": -82.38333
    },
    {
      "elevation": 17.1,
      "mindate": "1950-01-01",
      "maxdate": "1970-12-31",
      "latitude": 32.01667,
      "name": "SAVANNAH HUNTER FIELD, GA US",
      "datacoverage": 0.9518,
      "id": "GHCND:USW00013824",
      "elevationUnit": "METERS",
      "longitude": -81.13333
    },
    {
      "elevation": 66.8,
      "mindate": "1958-01-01",
      "maxdate": "1970-12-31",
      "latitude": 33.65,
      "name": "COLUMBUS AFB, MS US",
      "datacoverage": 1,
      "id": "GHCND:USW00013825",
      "elevationUnit": "METERS",
      "longitude": -88.45
    }
  ]
}
