{
  "metadata": {
    "resultset": {
      "offset": 30300,
      "count": 154115,
      "limit": 100
    }
  },
  "results": [
    {
      "elevation": 500,
      "mindate": "1750-03-15",
      "maxdate": "2024-12-31",
      "latitude": -28.055,
      "name": "MURRALAH, AS",
      "datacoverage": 0.986,
      "id": "GHCND:ASN00041388",
      "elevationUnit": "METERS",
      "longitude": 151.3297
    },
    {
      "elevation": 550,
      "mindate": "1941-01-01",
      "maxdate": "1982-05-31",
      "latitude": -28.6783,
      "name": "PIKES CREEK, AS",
      "datacoverage": 0.9981,
      "id": "GHCND:ASN00041389",
      "elevationUnit": "METERS",
      "longitude": 151.5789
    },
    {
      "elevation": 369,
      "mindate": "1939-05-01",
      "maxdate": "2003-10-31",
      "latitude": -28.3397,
      "name": "DUNBLAINE, AS",
      "datacoverage": 0.9312,
      "id": "GHCND:ASN00041390",
      "elevationUnit": "METERS",
      "longitude": 151.3942
    },
    {
      "elevation": 300,
      "mindate": "1750-03-15",
      "maxdate": "2025-02-17",
      "latitude": -28.3611,
      "name": "WOODSPRING, AS",
      "datacoverage": 0.996,
      "id": "GHCND:ASN00041391",
      "elevationUnit": "METERS",
      "longitude": 151.1464
    },
    {
      "elevation": 330,
      "mindate": "1951-07-01",
      "maxdate": "1990-07-31",
      "latitude": -27.42,
      "name": "MARMADUA FORESTRY, AS",
      "datacoverage": 0.8993,
      "id": "GHCND:ASN00041392",
      "elevationUnit": "METERS",
      "longitude": 150.635
    },
    {
      "mindate": "1962-01-01",
      "maxdate": "1980-10-31",
      "latitude": -28.5167,
      "name": "TERRICA STATION, AS",
      "datacoverage": 1,
      "id": "GHCND:ASN00041393",
      "longitude": 151.4833
    },
    {
      "elevation": 300,
      "mindate": "1973-01-01",
      "maxdate": "2000-12-31",
      "latitude": -28.0636,
      "name": "ABERDEEN, AS",
      "datacoverage": 0.997,
      "id": "GHCND:ASN00041394",
      "elevationUnit": "METERS",
      "longitude": 150.6236
    },
    {
      "elevation": 210,
      "mindate": "1958-01-01",
      "maxdate": "2006-12-31",
      "latitude": -28.17,
      "name": "GLENARADALE, AS",
      "datacoverage": 0.9558,
      "id": "GHCND:ASN00041395",
      "elevationUnit": "METERS",
      "longitude": 150.4503
    },
    {
      "mindate": "1919-09-01",
      "maxdate": "1976-01-31",
      "latitude": -28.7333,
      "name": "GLEN APLIN, AS",
      "datacoverage": 0.5905,
      "id": "GHCND:ASN00041396",
      "longitude": 151.8833
    },
    {
      "elevation": 200,
      "mindate": "1750-03-21",
      "maxdate": "2025-01-31",
      "latitude": -28.1422,
      "name": "BURILDA, AS",
      "datacoverage": 0.9956,
      "id": "GHCND:ASN00041397",
      "elevationUnit": "METERS",
      "longitude": 150.1319
    },
    {
      "elevation": 268,
      "mindate": "1974-01-01",
      "maxdate": "1975-12-31",
      "latitude": -28.4833,
      "name": "MERRILANDS, AS",
      "datacoverage": 0.959,
      "id": "GHCND:ASN00041399",
      "elevationUnit": "METERS",
      "longitude": 150.95
    },
    {
      "mindate": "1973-08-01",
      "maxdate": "1981-01-31",
      "latitude": -27.3,
      "name": "BIRRAGEELA, AS",
      "datacoverage": 1,
      "id": "GHCND:ASN00041400",
      "longitude": 151.4167
    },
    {
      "elevation": 450,
      "mindate": "1973-08-01",
      "maxdate": "1975-06-30",
      "latitude": -28.2167,
      "name": "CARMDEN, AS",
      "datacoverage": 1,
      "id": "GHCND:ASN00041401",
      "elevationUnit": "METERS",
      "longitude": 151.7167
    },
    {
      "mindate": "1973-08-01",
      "maxdate": "1984-01-31",
      "latitude": -28.2167,
      "name": "RIVERPARK, AS",
      "datacoverage": 0.8966,
      "id": "GHCND:ASN00041402",
      "longitude": 151.9667
    },
    {
      "elevation": 403,
      "mindate": "1750-03-15",
      "maxdate": "2025-01-09",
      "latitude": -27.9592,
      "name": "ELLANGOWAN, AS",
      "datacoverage": 0.9194,
      "id": "GHCND:ASN00041404",
      "elevationUnit": "METERS",
      "longitude": 151.6664
    },
    {
      "elevation": 428,
      "mindate": "1989-08-01",
      "maxdate": "2025-02-22",
      "latitude": -27.7952,
      "name": "FELTON, AS",
      "datacoverage": 0.9327,
      "id": "GHCND:ASN00041405",
      "elevationUnit": "METERS",
      "longitude": 151.7387
    },
    {
      "elevation": 35,
      "mindate": "1911-06-01",
      "maxdate": "1983-12-31",
      "latitude": -27.6,
      "name": "TARA, AS",
      "datacoverage": 0.7995,
      "id": "GHCND:ASN00041407",
      "elevationUnit": "METERS",
      "longitude": 150.3667
    },
    {
      "elevation": 400,
      "mindate": "1963-01-01",
      "maxdate": "2014-11-30",
      "latitude": -28.4992,
      "name": "GLEN ETIVE, AS",
      "datacoverage": 0.9936,
      "id": "GHCND:ASN00041408",
      "elevationUnit": "METERS",
      "longitude": 151.2317
    },
    {
      "elevation": 311,
      "mindate": "1993-09-01",
      "maxdate": "2014-01-22",
      "latitude": -26.6436,
      "name": "BERUNA, AS",
      "datacoverage": 0.9468,
      "id": "GHCND:ASN00041409",
      "elevationUnit": "METERS",
      "longitude": 150.8547
    },
    {
      "elevation": 347,
      "mindate": "1994-02-01",
      "maxdate": "2002-06-17",
      "latitude": -27.5356,
      "name": "CECIL PLAINS, AS",
      "datacoverage": 0.9995,
      "id": "GHCND:ASN00041410",
      "elevationUnit": "METERS",
      "longitude": 151.2019
    },
    {
      "elevation": 500,
      "mindate": "1926-03-01",
      "maxdate": "2007-05-31",
      "latitude": -28.2969,
      "name": "DUNGORM, AS",
      "datacoverage": 0.9546,
      "id": "GHCND:ASN00041412",
      "elevationUnit": "METERS",
      "longitude": 151.5181
    },
    {
      "elevation": 150,
      "mindate": "1923-02-01",
      "maxdate": "2003-03-31",
      "latitude": -28.3583,
      "name": "HUNTERS HILL, AS",
      "datacoverage": 0.9993,
      "id": "GHCND:ASN00041413",
      "elevationUnit": "METERS",
      "longitude": 151.5619
    },
    {
      "elevation": 470,
      "mindate": "1950-01-01",
      "maxdate": "1974-04-30",
      "latitude": -28.9167,
      "name": "RUSSENDEN, AS",
      "datacoverage": 1,
      "id": "GHCND:ASN00041414",
      "elevationUnit": "METERS",
      "longitude": 151.45
    },
    {
      "elevation": 488,
      "mindate": "2001-01-01",
      "maxdate": "2025-02-27",
      "latitude": -28.2367,
      "name": "WARAHGAI TM, AS",
      "datacoverage": 0.9179,
      "id": "GHCND:ASN00041415",
      "elevationUnit": "METERS",
      "longitude": 151.5347
    },
    {
      "elevation": 506,
      "mindate": "1929-01-01",
      "maxdate": "1991-08-31",
      "latitude": -27.5744,
      "name": "AUGHAMORE, AS",
      "datacoverage": 1,
      "id": "GHCND:ASN00041416",
      "elevationUnit": "METERS",
      "longitude": 151.7267
    },
    {
      "elevation": 375,
      "mindate": "1974-01-01",
      "maxdate": "1978-02-28",
      "latitude": -27.9333,
      "name": "WEST PRAIRIE, AS",
      "datacoverage": 1,
      "id": "GHCND:ASN00041417",
      "elevationUnit": "METERS",
      "longitude": 151.5
    },
    {
      "mindate": "1911-01-01",
      "maxdate": "1915-12-31",
      "latitude": -26.8833,
      "name": "KYURA, AS",
      "datacoverage": 1,
      "id": "GHCND:ASN00041418",
      "longitude": 151.2
    },
    {
      "mindate": "1914-05-01",
      "maxdate": "1934-12-31",
      "latitude": -28.6167,
      "name": "KARUMBUL STATE SCHOOL, AS",
      "datacoverage": 0.5442,
      "id": "GHCND:ASN00041419",
      "longitude": 150.55
    },
    {
      "mindate": "1917-01-01",
      "maxdate": "1932-12-31",
      "latitude": -28.5333,
      "name": "HOMEBUSH, AS",
      "datacoverage": 0.9844,
      "id": "GHCND:ASN00041420",
      "longitude": 151.3
    },
    {
      "mindate": "1894-01-01",
      "maxdate": "1912-01-31",
      "latitude": -27.4333,
      "name": "CABARLAH RAILWAY STATION, AS",
      "datacoverage": 1,
      "id": "GHCND:ASN00041421",
      "longitude": 151.9833
    },
    {
      "elevation": 504,
      "mindate": "1895-06-01",
      "maxdate": "1934-10-31",
      "latitude": -27.8667,
      "name": "PILTON POST OFFICE, AS",
      "datacoverage": 0.5603,
      "id": "GHCND:ASN00041422",
      "elevationUnit": "METERS",
      "longitude": 152.05
    },
    {
      "mindate": "1927-03-01",
      "maxdate": "1938-12-31",
      "latitude": -28.25,
      "name": "PALOMAR, AS",
      "datacoverage": 0.9928,
      "id": "GHCND:ASN00041423",
      "longitude": 151.1667
    },
    {
      "mindate": "1913-01-01",
      "maxdate": "1925-03-31",
      "latitude": -27.0333,
      "name": "MORNA LEA, AS",
      "datacoverage": 0.9528,
      "id": "GHCND:ASN00041424",
      "longitude": 151.4667
    },
    {
      "mindate": "1912-06-01",
      "maxdate": "1933-07-31",
      "latitude": -27.5,
      "name": "HAPPY VALLEY, AS",
      "datacoverage": 0.9606,
      "id": "GHCND:ASN00041425",
      "longitude": 151.6333
    },
    {
      "mindate": "1914-06-01",
      "maxdate": "1929-04-30",
      "latitude": -28.0167,
      "name": "INVERRAMSAY SCHOOL, AS",
      "datacoverage": 0.9445,
      "id": "GHCND:ASN00041426",
      "longitude": 152.2333
    },
    {
      "mindate": "1926-05-01",
      "maxdate": "1939-11-30",
      "latitude": -27.2833,
      "name": "MONT KEMMEL, AS",
      "datacoverage": 0.9819,
      "id": "GHCND:ASN00041427",
      "longitude": 150.5
    },
    {
      "elevation": 200,
      "mindate": "1974-06-01",
      "maxdate": "2000-02-29",
      "latitude": -28.7331,
      "name": "WOBUR, AS",
      "datacoverage": 0.9437,
      "id": "GHCND:ASN00041428",
      "elevationUnit": "METERS",
      "longitude": 151.6706
    },
    {
      "mindate": "1888-04-01",
      "maxdate": "1911-06-30",
      "latitude": -27.9333,
      "name": "ELLANGOWAN STATION, AS",
      "datacoverage": 0.0215,
      "id": "GHCND:ASN00041429",
      "longitude": 151.6167
    },
    {
      "elevation": 438,
      "mindate": "1750-03-10",
      "maxdate": "2025-02-25",
      "latitude": -28.9653,
      "name": "GLENLYON DAM, AS",
      "datacoverage": 0.998,
      "id": "GHCND:ASN00041430",
      "elevationUnit": "METERS",
      "longitude": 151.47
    },
    {
      "mindate": "1895-06-01",
      "maxdate": "1901-01-31",
      "latitude": -27.8167,
      "name": "KINCORA, AS",
      "datacoverage": 0.1178,
      "id": "GHCND:ASN00041431",
      "longitude": 151.55
    },
    {
      "mindate": "1912-01-01",
      "maxdate": "1919-09-30",
      "latitude": -28.1667,
      "name": "INGLEWOOD, AS",
      "datacoverage": 1,
      "id": "GHCND:ASN00041432",
      "longitude": 151.2
    },
    {
      "mindate": "1913-01-01",
      "maxdate": "1917-11-30",
      "latitude": -27.4,
      "name": "FORMARTIN, AS",
      "datacoverage": 1,
      "id": "GHCND:ASN00041433",
      "longitude": 151.4167
    },
    {
      "mindate": "1958-05-01",
      "maxdate": "1972-06-30",
      "latitude": -28.1167,
      "name": "AUBYNLEA, AS",
      "datacoverage": 0.9996,
      "id": "GHCND:ASN00041434",
      "longitude": 151.6
    },
    {
      "mindate": "1960-04-01",
      "maxdate": "1972-06-30",
      "latitude": -28.7167,
      "name": "TOLLANDO, AS",
      "datacoverage": 1,
      "id": "GHCND:ASN00041435",
      "longitude": 151.5333
    },
    {
      "mindate": "1922-05-01",
      "maxdate": "1941-04-30",
      "latitude": -28.5333,
      "name": "MULGOWAN, AS",
      "datacoverage": 0.0395,
      "id": "GHCND:ASN00041436",
      "longitude": 151.7333
    },
    {
      "elevation": 540,
      "mindate": "1974-11-01",
      "maxdate": "2020-03-31",
      "latitude": -28.3619,
      "name": "SILVERWOOD DAM, AS",
      "datacoverage": 0.8213,
      "id": "GHCND:ASN00041438",
      "elevationUnit": "METERS",
      "longitude": 152.0067
    },
    {
      "mindate": "1917-06-01",
      "maxdate": "1970-06-30",
      "latitude": -28.7333,
      "name": "BEEBO, AS",
      "datacoverage": 0.9993,
      "id": "GHCND:ASN00041440",
      "longitude": 150.9667
    },
    {
      "mindate": "1925-04-01",
      "maxdate": "1969-06-30",
      "latitude": -28.4333,
      "name": "LUNA, AS",
      "datacoverage": 0.7993,
      "id": "GHCND:ASN00041441",
      "longitude": 151.3833
    },
    {
      "mindate": "1933-03-01",
      "maxdate": "1968-09-30",
      "latitude": -28.4833,
      "name": "TERRAINE, AS",
      "datacoverage": 0.9994,
      "id": "GHCND:ASN00041442",
      "longitude": 151.2833
    },
    {
      "mindate": "1946-05-01",
      "maxdate": "1964-03-31",
      "latitude": -27.0167,
      "name": "KAINAMA, AS",
      "datacoverage": 0.9994,
      "id": "GHCND:ASN00041443",
      "longitude": 150.7167
    },
    {
      "mindate": "1925-10-01",
      "maxdate": "1972-11-30",
      "latitude": -28.3333,
      "name": "LONG CROSSING, AS",
      "datacoverage": 0.9989,
      "id": "GHCND:ASN00041444",
      "longitude": 152.35
    },
    {
      "elevation": 478,
      "mindate": "1750-03-15",
      "maxdate": "2025-02-12",
      "latitude": -28.2144,
      "name": "LESLIE DAM, AS",
      "datacoverage": 0.8782,
      "id": "GHCND:ASN00041445",
      "elevationUnit": "METERS",
      "longitude": 151.9194
    },
    {
      "mindate": "1943-03-01",
      "maxdate": "1957-09-30",
      "latitude": -27.55,
      "name": "NERAGA, AS",
      "datacoverage": 0.138,
      "id": "GHCND:ASN00041446",
      "longitude": 151.3833
    },
    {
      "mindate": "1933-03-01",
      "maxdate": "1946-08-31",
      "latitude": -28.45,
      "name": "LOGAN CRAIL, AS",
      "datacoverage": 0.062,
      "id": "GHCND:ASN00041447",
      "longitude": 151.4833
    },
    {
      "mindate": "1938-03-01",
      "maxdate": "1953-12-31",
      "latitude": -28.2,
      "name": "BALLANCAR, AS",
      "datacoverage": 0.0742,
      "id": "GHCND:ASN00041448",
      "longitude": 151.3333
    },
    {
      "mindate": "1922-03-01",
      "maxdate": "1941-09-30",
      "latitude": -28.1333,
      "name": "FREESTONE UPPER, AS",
      "datacoverage": 0.0425,
      "id": "GHCND:ASN00041449",
      "longitude": 152.2
    },
    {
      "mindate": "1953-06-01",
      "maxdate": "1972-06-30",
      "latitude": -28.3,
      "name": "KYOMA, AS",
      "datacoverage": 0.9994,
      "id": "GHCND:ASN00041450",
      "longitude": 151.25
    },
    {
      "mindate": "1887-01-01",
      "maxdate": "1902-03-31",
      "latitude": -27.5,
      "name": "GOWRIE STATION 2, AS",
      "datacoverage": 0.9676,
      "id": "GHCND:ASN00041452",
      "longitude": 151.8167
    },
    {
      "elevation": 940,
      "mindate": "1750-03-09",
      "maxdate": "2024-12-31",
      "latitude": -28.8333,
      "name": "GIRRAWEEN NAT PARK, AS",
      "datacoverage": 0.9807,
      "id": "GHCND:ASN00041454",
      "elevationUnit": "METERS",
      "longitude": 151.9333
    },
    {
      "mindate": "1889-01-01",
      "maxdate": "1898-12-31",
      "latitude": -27.5667,
      "name": "THE LAURELS, AS",
      "datacoverage": 0.9006,
      "id": "GHCND:ASN00041455",
      "longitude": 151.9667
    },
    {
      "elevation": 680,
      "mindate": "1976-09-01",
      "maxdate": "2023-03-13",
      "latitude": -28.0621,
      "name": "CUNNINGHAMS GAP NATIONAL PARK, AS",
      "datacoverage": 0.9965,
      "id": "GHCND:ASN00041456",
      "elevationUnit": "METERS",
      "longitude": 152.3675
    },
    {
      "elevation": 315,
      "mindate": "1750-03-25",
      "maxdate": "2025-02-14",
      "latitude": -28.4225,
      "name": "COOLMUNDA DAM, AS",
      "datacoverage": 1,
      "id": "GHCND:ASN00041457",
      "elevationUnit": "METERS",
      "longitude": 151.2131
    },
    {
      "elevation": 676,
      "mindate": "1896-01-01",
      "maxdate": "1942-04-07",
      "latitude": -27.5667,
      "name": "WEETWOOD, AS",
      "datacoverage": 0.2231,
      "id": "GHCND:ASN00041458",
      "elevationUnit": "METERS",
      "longitude": 151.9333
    },
    {
      "elevation": 380,
      "mindate": "1961-01-01",
      "maxdate": "2000-12-31",
      "latitude": -26.4997,
      "name": "SHADWELL PARK, AS",
      "datacoverage": 0.9792,
      "id": "GHCND:ASN00041459",
      "elevationUnit": "METERS",
      "longitude": 151.0772
    },
    {
      "mindate": "1927-08-01",
      "maxdate": "1936-02-29",
      "latitude": -28.0333,
      "name": "MOUNT EMLYN SCHOOL, AS",
      "datacoverage": 0.9614,
      "id": "GHCND:ASN00041460",
      "longitude": 151.35
    },
    {
      "mindate": "1921-09-01",
      "maxdate": "1926-03-31",
      "latitude": -27.1,
      "name": "KAIYUTA, AS",
      "datacoverage": 1,
      "id": "GHCND:ASN00041462",
      "longitude": 150.5833
    },
    {
      "elevation": 600,
      "mindate": "1750-03-09",
      "maxdate": "2025-02-22",
      "latitude": -28.1553,
      "name": "OAKINGTON, AS",
      "datacoverage": 1,
      "id": "GHCND:ASN00041464",
      "elevationUnit": "METERS",
      "longitude": 152.33
    },
    {
      "elevation": 670,
      "mindate": "1978-01-01",
      "maxdate": "1995-12-31",
      "latitude": -28.4283,
      "name": "CHERRABAH, AS",
      "datacoverage": 0.1713,
      "id": "GHCND:ASN00041465",
      "elevationUnit": "METERS",
      "longitude": 152.09
    },
    {
      "elevation": 371,
      "mindate": "1994-08-01",
      "maxdate": "2005-09-30",
      "latitude": -27.195,
      "name": "CLYDESDALE, AS",
      "datacoverage": 0.985,
      "id": "GHCND:ASN00041466",
      "elevationUnit": "METERS",
      "longitude": 151.485
    },
    {
      "elevation": 280,
      "mindate": "1980-08-01",
      "maxdate": "1988-02-29",
      "latitude": -27.6567,
      "name": "TUNGAMAH, AS",
      "datacoverage": 1,
      "id": "GHCND:ASN00041468",
      "elevationUnit": "METERS",
      "longitude": 150.5492
    },
    {
      "elevation": 337,
      "mindate": "1750-03-14",
      "maxdate": "2025-02-15",
      "latitude": -27.0289,
      "name": "MACALISTER, AS",
      "datacoverage": 1,
      "id": "GHCND:ASN00041469",
      "elevationUnit": "METERS",
      "longitude": 151.0947
    },
    {
      "elevation": 371,
      "mindate": "1993-01-01",
      "maxdate": "2000-12-31",
      "latitude": -27.8097,
      "name": "CENTENARY BRIDGE, AS",
      "datacoverage": 0.9896,
      "id": "GHCND:ASN00041472",
      "elevationUnit": "METERS",
      "longitude": 151.3619
    },
    {
      "elevation": 417,
      "mindate": "1996-01-01",
      "maxdate": "2025-02-15",
      "latitude": -28.1022,
      "name": "PRATTEN, AS",
      "datacoverage": 0.9958,
      "id": "GHCND:ASN00041473",
      "elevationUnit": "METERS",
      "longitude": 151.8119
    },
    {
      "mindate": "1982-01-01",
      "maxdate": "1984-05-31",
      "latitude": -26.8667,
      "name": "GLENGARRY, AS",
      "datacoverage": 0.7937,
      "id": "GHCND:ASN00041474",
      "longitude": 150.75
    },
    {
      "elevation": 340,
      "mindate": "1982-10-01",
      "maxdate": "1995-11-30",
      "latitude": -26.5047,
      "name": "MARAPANA DOWNS, AS",
      "datacoverage": 1,
      "id": "GHCND:ASN00041475",
      "elevationUnit": "METERS",
      "longitude": 150.445
    },
    {
      "elevation": 343,
      "mindate": "1983-01-01",
      "maxdate": "1985-10-31",
      "latitude": -27.2667,
      "name": "DALBY CSIRO FIELD STATION, AS",
      "datacoverage": 0.9411,
      "id": "GHCND:ASN00041480",
      "elevationUnit": "METERS",
      "longitude": 151.15
    },
    {
      "elevation": 640,
      "mindate": "1967-09-01",
      "maxdate": "1987-05-31",
      "latitude": -26.7833,
      "name": "PORTERS GAP, AS",
      "datacoverage": 0.9874,
      "id": "GHCND:ASN00041482",
      "elevationUnit": "METERS",
      "longitude": 151.4833
    },
    {
      "elevation": 421,
      "mindate": "1981-04-01",
      "maxdate": "2015-03-31",
      "latitude": -26.6317,
      "name": "WONGA, AS",
      "datacoverage": 0.9976,
      "id": "GHCND:ASN00041483",
      "elevationUnit": "METERS",
      "longitude": 151.2364
    },
    {
      "elevation": 430,
      "mindate": "1984-06-01",
      "maxdate": "1996-09-30",
      "latitude": -28.8506,
      "name": "GLENLYON, AS",
      "datacoverage": 0.8918,
      "id": "GHCND:ASN00041484",
      "elevationUnit": "METERS",
      "longitude": 151.4672
    },
    {
      "elevation": 323,
      "mindate": "1993-12-01",
      "maxdate": "2022-02-26",
      "latitude": -26.9575,
      "name": "WARRA KOGAN RD BR, AS",
      "datacoverage": 0.9019,
      "id": "GHCND:ASN00041486",
      "elevationUnit": "METERS",
      "longitude": 150.8633
    },
    {
      "elevation": 230,
      "mindate": "2000-11-01",
      "maxdate": "2021-12-18",
      "latitude": -28.0533,
      "name": "BALLYMENA TM, AS",
      "datacoverage": 0.9296,
      "id": "GHCND:ASN00041488",
      "elevationUnit": "METERS",
      "longitude": 150.1464
    },
    {
      "elevation": 216,
      "mindate": "2000-11-01",
      "maxdate": "2025-02-27",
      "latitude": -28.3011,
      "name": "MEDPARK BRIDGE TM, AS",
      "datacoverage": 0.9672,
      "id": "GHCND:ASN00041489",
      "elevationUnit": "METERS",
      "longitude": 150.2936
    },
    {
      "elevation": 297,
      "mindate": "2000-11-01",
      "maxdate": "2025-02-27",
      "latitude": -26.9,
      "name": "BRIGALOW BRIDGE TM, AS",
      "datacoverage": 0.9568,
      "id": "GHCND:ASN00041490",
      "elevationUnit": "METERS",
      "longitude": 150.7833
    },
    {
      "elevation": 20,
      "mindate": "2000-11-01",
      "maxdate": "2024-11-04",
      "latitude": -28.4333,
      "name": "BARONGAROOK TM, AS",
      "datacoverage": 0.7881,
      "id": "GHCND:ASN00041491",
      "elevationUnit": "METERS",
      "longitude": 151.4667
    },
    {
      "elevation": 295,
      "mindate": "1994-08-01",
      "maxdate": "2025-02-15",
      "latitude": -27.4967,
      "name": "THE DEEP CROSSING, AS",
      "datacoverage": 0.996,
      "id": "GHCND:ASN00041493",
      "elevationUnit": "METERS",
      "longitude": 150.4539
    },
    {
      "elevation": 490,
      "mindate": "2000-11-01",
      "maxdate": "2018-10-30",
      "latitude": -28.3731,
      "name": "ELBOW VALLEY TM, AS",
      "datacoverage": 0.9948,
      "id": "GHCND:ASN00041494",
      "elevationUnit": "METERS",
      "longitude": 152.1403
    },
    {
      "elevation": 318,
      "mindate": "2000-11-01",
      "maxdate": "2025-02-27",
      "latitude": -28.4828,
      "name": "TERRAINE TM, AS",
      "datacoverage": 0.8948,
      "id": "GHCND:ASN00041495",
      "elevationUnit": "METERS",
      "longitude": 151.2831
    },
    {
      "elevation": 347,
      "mindate": "1985-08-01",
      "maxdate": "2012-09-30",
      "latitude": -27.1494,
      "name": "DALBY AG COLLEGE, AS",
      "datacoverage": 0.9558,
      "id": "GHCND:ASN00041497",
      "elevationUnit": "METERS",
      "longitude": 151.2894
    },
    {
      "mindate": "1954-10-01",
      "maxdate": "1969-11-30",
      "latitude": -28.1167,
      "name": "ANNADALE, AS",
      "datacoverage": 1,
      "id": "GHCND:ASN00041502",
      "longitude": 151.2
    },
    {
      "elevation": 446,
      "mindate": "2000-11-01",
      "maxdate": "2025-02-27",
      "latitude": -28.2167,
      "name": "WARWICK SCOTS COLLEGE TM, AS",
      "datacoverage": 0.8199,
      "id": "GHCND:ASN00041503",
      "elevationUnit": "METERS",
      "longitude": 152.05
    },
    {
      "elevation": 377,
      "mindate": "1750-03-15",
      "maxdate": "2025-01-31",
      "latitude": -27.7358,
      "name": "GLEN ROYAL, AS",
      "datacoverage": 0.9574,
      "id": "GHCND:ASN00041504",
      "elevationUnit": "METERS",
      "longitude": 151.4117
    },
    {
      "elevation": 350,
      "mindate": "1986-07-01",
      "maxdate": "2024-12-31",
      "latitude": -27.1772,
      "name": "THE RANCH, AS",
      "datacoverage": 0.8389,
      "id": "GHCND:ASN00041505",
      "elevationUnit": "METERS",
      "longitude": 150.4739
    },
    {
      "elevation": 227.9,
      "mindate": "2000-11-01",
      "maxdate": "2025-02-27",
      "latitude": -28.6561,
      "name": "BENGALLA TM, AS",
      "datacoverage": 0.9731,
      "id": "GHCND:ASN00041506",
      "elevationUnit": "METERS",
      "longitude": 150.6653
    },
    {
      "elevation": 230,
      "mindate": "1999-05-01",
      "maxdate": "2025-02-27",
      "latitude": -28.6656,
      "name": "NEW KILDONAN TM, AS",
      "datacoverage": 0.9009,
      "id": "GHCND:ASN00041507",
      "elevationUnit": "METERS",
      "longitude": 150.445
    },
    {
      "elevation": 300,
      "mindate": "2000-11-01",
      "maxdate": "2025-02-27",
      "latitude": -27.7267,
      "name": "O CONNOR TM, AS",
      "datacoverage": 0.984,
      "id": "GHCND:ASN00041508",
      "elevationUnit": "METERS",
      "longitude": 150.6453
    },
    {
      "elevation": 200,
      "mindate": "1750-03-15",
      "maxdate": "2025-02-15",
      "latitude": -27.6783,
      "name": "TRAIGHLI, AS",
      "datacoverage": 0.9999,
      "id": "GHCND:ASN00041509",
      "elevationUnit": "METERS",
      "longitude": 150.3483
    },
    {
      "elevation": 642,
      "mindate": "1750-03-09",
      "maxdate": "2025-01-31",
      "latitude": -27.4722,
      "name": "TAMBA, AS",
      "datacoverage": 1,
      "id": "GHCND:ASN00041510",
      "elevationUnit": "METERS",
      "longitude": 151.9481
    },
    {
      "elevation": 401,
      "mindate": "2005-03-01",
      "maxdate": "2009-12-31",
      "latitude": -27.4417,
      "name": "OAKEY STP, AS",
      "datacoverage": 0.8957,
      "id": "GHCND:ASN00041511",
      "elevationUnit": "METERS",
      "longitude": 151.7092
    },
    {
      "elevation": 497,
      "mindate": "1750-03-09",
      "maxdate": "2025-01-31",
      "latitude": -27.3825,
      "name": "COOBY CREEK DAM, AS",
      "datacoverage": 0.9999,
      "id": "GHCND:ASN00041512",
      "elevationUnit": "METERS",
      "longitude": 151.9244
    },
    {
      "mindate": "1990-08-01",
      "maxdate": "2002-05-31",
      "latitude": -27.1892,
      "name": "KITTANI, AS",
      "datacoverage": 0.9994,
      "id": "GHCND:ASN00041513",
      "longitude": 151.7186
    }
  ]
}
