{
  "metadata": {
    "resultset": {
      "offset": 148900,
      "count": 154115,
      "limit": 100
    }
  },
  "results": [
    {
      "elevation": 215,
      "mindate": "1998-01-01",
      "maxdate": "2025-03-06",
      "latitude": 41.3357,
      "name": "DEFIANCE AIRPORT, OH US",
      "datacoverage": 1,
      "id": "GHCND:USW00004851",
      "elevationUnit": "METERS",
      "longitude": -84.4285
    },
    {
      "elevation": 271.7,
      "mindate": "1998-02-01",
      "maxdate": "2025-03-06",
      "latitude": 40.47031,
      "name": "NEW PHILADELPHIA CLEVER FIELD, OH US",
      "datacoverage": 1,
      "id": "GHCND:USW00004852",
      "elevationUnit": "METERS",
      "longitude": -81.42176
    },
    {
      "elevation": 177.5,
      "mindate": "1998-02-01",
      "maxdate": "2025-03-06",
      "latitude": 41.52568,
      "name": "CLEVELAND BURKE LAKEFRONT AIRPORT, OH US",
      "datacoverage": 1,
      "id": "GHCND:USW00004853",
      "elevationUnit": "METERS",
      "longitude": -81.66908
    },
    {
      "elevation": 405.9,
      "mindate": "1998-03-01",
      "maxdate": "2025-03-06",
      "latitude": 45.01657,
      "name": "GAYLORD OTSEGO CO AIRPORT, MI US",
      "datacoverage": 1,
      "id": "GHCND:USW00004854",
      "elevationUnit": "METERS",
      "longitude": -84.68942
    },
    {
      "elevation": 300.3,
      "mindate": "1998-05-01",
      "maxdate": "2025-03-05",
      "latitude": 40.61576,
      "name": "MARION MUNICIPAL AIRPORT, OH US",
      "datacoverage": 1,
      "id": "GHCND:USW00004855",
      "elevationUnit": "METERS",
      "longitude": -83.06731
    },
    {
      "elevation": 178,
      "mindate": "1998-08-01",
      "maxdate": "2004-09-21",
      "latitude": 45.95,
      "name": "MANISTIQUE, MI US",
      "datacoverage": 0.9997,
      "id": "GHCND:USW00004856",
      "elevationUnit": "METERS",
      "longitude": -86.22972
    },
    {
      "elevation": 278.3,
      "mindate": "1998-12-01",
      "maxdate": "2025-03-06",
      "latitude": 41.7794,
      "name": "ASHTABULA CO AIRPORT, OH US",
      "datacoverage": 1,
      "id": "GHCND:USW00004857",
      "elevationUnit": "METERS",
      "longitude": -80.69683
    },
    {
      "elevation": 267.6,
      "mindate": "1999-02-01",
      "maxdate": "2025-02-25",
      "latitude": 40.02635,
      "name": "NEWARK HEATH AIRPORT, OH US",
      "datacoverage": 1,
      "id": "GHCND:USW00004858",
      "elevationUnit": "METERS",
      "longitude": -82.46346
    },
    {
      "elevation": 463.9,
      "mindate": "2011-01-01",
      "maxdate": "2025-03-06",
      "latitude": 45.15417,
      "name": "ANTIGO LANGLADE CO AIRPORT, WI US",
      "datacoverage": 0.9993,
      "id": "GHCND:USW00004864",
      "elevationUnit": "METERS",
      "longitude": -89.11056
    },
    {
      "elevation": 243.5,
      "mindate": "2017-01-01",
      "maxdate": "2025-03-05",
      "latitude": 46.25,
      "name": "CHIPPEWA INTERNATIONAL AIRPORT, MI US",
      "datacoverage": 1,
      "id": "GHCND:USW00004869",
      "elevationUnit": "METERS",
      "longitude": -84.46667
    },
    {
      "elevation": 401.4,
      "mindate": "2011-01-01",
      "maxdate": "2025-03-06",
      "latitude": 45.19917,
      "name": "MERRILL MUNICIPAL AIRPORT, WI US",
      "datacoverage": 0.9993,
      "id": "GHCND:USW00004891",
      "elevationUnit": "METERS",
      "longitude": -89.71139
    },
    {
      "elevation": 338.3,
      "mindate": "2011-01-01",
      "maxdate": "2025-03-06",
      "latitude": 44.55,
      "name": "STEVENS POINT MUNICIPAL AIRPORT, WI US",
      "datacoverage": 0.9993,
      "id": "GHCND:USW00004895",
      "elevationUnit": "METERS",
      "longitude": -89.53333
    },
    {
      "elevation": 548.3,
      "mindate": "2011-01-01",
      "maxdate": "2025-03-06",
      "latitude": 40.89306,
      "name": "AURORA MUNICIPAL AIRPORT, NE US",
      "datacoverage": 0.9993,
      "id": "GHCND:USW00004901",
      "elevationUnit": "METERS",
      "longitude": -97.99722
    },
    {
      "elevation": 375.8,
      "mindate": "2013-01-01",
      "maxdate": "2025-03-06",
      "latitude": 43.66472,
      "name": "AUSTIN MUNICIPAL AIRPORT, MN US",
      "datacoverage": 0.9994,
      "id": "GHCND:USW00004902",
      "elevationUnit": "METERS",
      "longitude": -92.93333
    },
    {
      "elevation": 352.7,
      "mindate": "2013-01-01",
      "maxdate": "2025-03-06",
      "latitude": 43.27528,
      "name": "DECORAH MUNICIPAL AIRPORT, IA US",
      "datacoverage": 0.9994,
      "id": "GHCND:USW00004916",
      "elevationUnit": "METERS",
      "longitude": -91.73917
    },
    {
      "elevation": 388.9,
      "mindate": "2013-01-01",
      "maxdate": "2025-03-06",
      "latitude": 43.67667,
      "name": "PRESTONE FILLMORE CO AIRPORT, MN US",
      "datacoverage": 0.9994,
      "id": "GHCND:USW00004927",
      "elevationUnit": "METERS",
      "longitude": -92.17972
    },
    {
      "elevation": 702.3,
      "mindate": "2011-01-01",
      "maxdate": "2025-03-06",
      "latitude": 40.45,
      "name": "HOLDREGE BREWSTER FIELD AIRPORT, NE US",
      "datacoverage": 0.9993,
      "id": "GHCND:USW00004935",
      "elevationUnit": "METERS",
      "longitude": -99.33917
    },
    {
      "elevation": 328,
      "mindate": "2013-01-01",
      "maxdate": "2025-03-06",
      "latitude": 42.68083,
      "name": "OELWEIN MUNICIPAL AIRPORT, IA US",
      "datacoverage": 0.9994,
      "id": "GHCND:USW00004955",
      "elevationUnit": "METERS",
      "longitude": -91.97444
    },
    {
      "elevation": 199.9,
      "mindate": "2013-01-01",
      "maxdate": "2025-03-06",
      "latitude": 44.07694,
      "name": "WINONA MUNICIPAL MAX CONRAD FIELD AIRPORT, MN US",
      "datacoverage": 0.9994,
      "id": "GHCND:USW00004956",
      "elevationUnit": "METERS",
      "longitude": -91.70806
    },
    {
      "elevation": 201.5,
      "mindate": "2013-01-01",
      "maxdate": "2025-03-06",
      "latitude": 43.01917,
      "name": "PRAIRIE DU CHIEN MUNICIPAL AIRPORT, WI US",
      "datacoverage": 0.9994,
      "id": "GHCND:USW00004963",
      "elevationUnit": "METERS",
      "longitude": -91.12361
    },
    {
      "elevation": 237.7,
      "mindate": "2011-01-01",
      "maxdate": "2017-07-12",
      "latitude": 44.58917,
      "name": "RED WING REGIONAL AIRPORT, WI US",
      "datacoverage": 0.9992,
      "id": "GHCND:USW00004967",
      "elevationUnit": "METERS",
      "longitude": -92.48472
    },
    {
      "elevation": 397.8,
      "mindate": "2020-01-01",
      "maxdate": "2025-03-06",
      "latitude": 44.01778,
      "name": "DODGE CENTER AIRPORT, MN US",
      "datacoverage": 0.9991,
      "id": "GHCND:USW00004978",
      "elevationUnit": "METERS",
      "longitude": -92.83139
    },
    {
      "elevation": 485.9,
      "mindate": "2002-09-01",
      "maxdate": "2025-03-06",
      "latitude": 43.7346,
      "name": "SIOUX FALLS 14 NNE, SD US",
      "datacoverage": 1,
      "id": "GHCND:USW00004990",
      "elevationUnit": "METERS",
      "longitude": -96.6222
    },
    {
      "elevation": 350.5,
      "mindate": "2003-08-01",
      "maxdate": "2025-03-06",
      "latitude": 48.3055,
      "name": "GOODRIDGE 12 NNW, MN US",
      "datacoverage": 1,
      "id": "GHCND:USW00004994",
      "elevationUnit": "METERS",
      "longitude": -95.8744
    },
    {
      "elevation": 449,
      "mindate": "2011-01-01",
      "maxdate": "2025-03-06",
      "latitude": 40.14917,
      "name": "HEBRON MUNICIPAL AIRPORT, NE US",
      "datacoverage": 0.9993,
      "id": "GHCND:USW00004998",
      "elevationUnit": "METERS",
      "longitude": -97.58667
    },
    {
      "elevation": 20.1,
      "mindate": "1969-01-01",
      "maxdate": "1970-12-30",
      "latitude": 27.65,
      "name": "AVON PARK GUNNERY RANGE, FL US",
      "datacoverage": 1,
      "id": "GHCND:USW00012804",
      "elevationUnit": "METERS",
      "longitude": -81.33333
    },
    {
      "elevation": 38.1,
      "mindate": "1955-07-01",
      "maxdate": "1960-10-31",
      "latitude": 27.95,
      "name": "BARTOW MUNICIPAL AIRPORT, FL US",
      "datacoverage": 0.9365,
      "id": "GHCND:USW00012809",
      "elevationUnit": "METERS",
      "longitude": -81.78333
    },
    {
      "elevation": 4.3,
      "mindate": "1949-01-01",
      "maxdate": "1970-12-31",
      "latitude": 27.85,
      "name": "MACDILL AFB, FL US",
      "datacoverage": 1,
      "id": "GHCND:USW00012810",
      "elevationUnit": "METERS",
      "longitude": -82.51667
    },
    {
      "elevation": 6.1,
      "mindate": "1996-10-01",
      "maxdate": "2025-03-06",
      "latitude": 26.91847,
      "name": "PUNTA GORDA CHARLOTTE CO AIRPORT, FL US",
      "datacoverage": 1,
      "id": "GHCND:USW00012812",
      "elevationUnit": "METERS",
      "longitude": -81.99391
    },
    {
      "elevation": 27.1,
      "mindate": "1952-01-01",
      "maxdate": "2025-03-07",
      "latitude": 28.41822,
      "name": "ORLANDO INTERNATIONAL AIRPORT, FL US",
      "datacoverage": 1,
      "id": "GHCND:USW00012815",
      "elevationUnit": "METERS",
      "longitude": -81.32413
    },
    {
      "elevation": 40.7,
      "mindate": "1960-05-01",
      "maxdate": "2025-03-07",
      "latitude": 29.6917,
      "name": "GAINESVILLE REGIONAL AIRPORT, FL US",
      "datacoverage": 1,
      "id": "GHCND:USW00012816",
      "elevationUnit": "METERS",
      "longitude": -82.27603
    },
    {
      "elevation": 19.7,
      "mindate": "1996-07-01",
      "maxdate": "2025-03-06",
      "latitude": 28.47388,
      "name": "BROOKSVILLE HERNANDO CO AIRPORT, FL US",
      "datacoverage": 1,
      "id": "GHCND:USW00012818",
      "elevationUnit": "METERS",
      "longitude": -82.45374
    },
    {
      "elevation": 20.8,
      "mindate": "1996-09-01",
      "maxdate": "2025-03-06",
      "latitude": 28.82143,
      "name": "LEESBURG MUNICIPAL AIRPORT, FL US",
      "datacoverage": 1,
      "id": "GHCND:USW00012819",
      "elevationUnit": "METERS",
      "longitude": -81.80963
    },
    {
      "elevation": 34.1,
      "mindate": "1949-01-01",
      "maxdate": "1949-10-30",
      "latitude": 28.55,
      "name": "ORLANDO ARMY AIR FIELD, FL US",
      "datacoverage": 1,
      "id": "GHCND:USW00012824",
      "elevationUnit": "METERS",
      "longitude": -81.33333
    },
    {
      "elevation": 1.5,
      "mindate": "1956-01-01",
      "maxdate": "1970-12-31",
      "latitude": 25.48333,
      "name": "HOMESTEAD AFB, FL US",
      "datacoverage": 1,
      "id": "GHCND:USW00012826",
      "elevationUnit": "METERS",
      "longitude": -80.38333
    },
    {
      "elevation": 5.5,
      "mindate": "1998-08-01",
      "maxdate": "2025-03-06",
      "latitude": 29.72681,
      "name": "APALACHICOLA AIRPORT, FL US",
      "datacoverage": 1,
      "id": "GHCND:USW00012832",
      "elevationUnit": "METERS",
      "longitude": -85.02481
    },
    {
      "elevation": 11.6,
      "mindate": "1949-01-01",
      "maxdate": "2024-07-23",
      "latitude": 29.63333,
      "name": "CROSS CITY AIRPORT, FL US",
      "datacoverage": 1,
      "id": "GHCND:USW00012833",
      "elevationUnit": "METERS",
      "longitude": -83.10528
    },
    {
      "elevation": 7.9,
      "mindate": "1937-01-01",
      "maxdate": "2025-03-07",
      "latitude": 29.17351,
      "name": "DAYTONA BEACH INTERNATIONAL AIRPORT, FL US",
      "datacoverage": 1,
      "id": "GHCND:USW00012834",
      "elevationUnit": "METERS",
      "longitude": -81.07185
    },
    {
      "elevation": 3.8,
      "mindate": "1892-01-01",
      "maxdate": "2025-03-06",
      "latitude": 26.58495,
      "name": "FORT MYERS PAGE FIELD AIRPORT, FL US",
      "datacoverage": 1,
      "id": "GHCND:USW00012835",
      "elevationUnit": "METERS",
      "longitude": -81.86146
    },
    {
      "elevation": 0.3,
      "mindate": "1948-01-01",
      "maxdate": "2025-03-07",
      "latitude": 24.55706,
      "name": "KEY WEST INTERNATIONAL AIRPORT, FL US",
      "datacoverage": 1,
      "id": "GHCND:USW00012836",
      "elevationUnit": "METERS",
      "longitude": -81.75539
    },
    {
      "elevation": 49.1,
      "mindate": "1948-01-01",
      "maxdate": "1962-10-31",
      "latitude": 28.08333,
      "name": "LAKELAND, FL US",
      "datacoverage": 0.9986,
      "id": "GHCND:USW00012837",
      "elevationUnit": "METERS",
      "longitude": -81.91667
    },
    {
      "elevation": 6.7,
      "mindate": "2000-07-01",
      "maxdate": "2025-03-06",
      "latitude": 28.09969,
      "name": "MELBOURNE INTERNATIONAL AIRPORT, FL US",
      "datacoverage": 1,
      "id": "GHCND:USW00012838",
      "elevationUnit": "METERS",
      "longitude": -80.6356
    },
    {
      "elevation": 1.4,
      "mindate": "1948-01-01",
      "maxdate": "2025-03-07",
      "latitude": 25.78805,
      "name": "MIAMI INTERNATIONAL AIRPORT, FL US",
      "datacoverage": 1,
      "id": "GHCND:USW00012839",
      "elevationUnit": "METERS",
      "longitude": -80.31694
    },
    {
      "elevation": 31.7,
      "mindate": "1892-01-01",
      "maxdate": "2025-03-06",
      "latitude": 28.54653,
      "name": "ORLANDO EXECUTIVE AIRPORT, FL US",
      "datacoverage": 1,
      "id": "GHCND:USW00012841",
      "elevationUnit": "METERS",
      "longitude": -81.33544
    },
    {
      "elevation": 1.8,
      "mindate": "1939-02-01",
      "maxdate": "2025-03-07",
      "latitude": 27.96331,
      "name": "TAMPA INTERNATIONAL AIRPORT, FL US",
      "datacoverage": 1,
      "id": "GHCND:USW00012842",
      "elevationUnit": "METERS",
      "longitude": -82.54
    },
    {
      "elevation": 5.7,
      "mindate": "1923-12-01",
      "maxdate": "2025-03-07",
      "latitude": 27.6553,
      "name": "VERO BEACH INTERNATIONAL AIRPORT, FL US",
      "datacoverage": 1,
      "id": "GHCND:USW00012843",
      "elevationUnit": "METERS",
      "longitude": -80.41425
    },
    {
      "elevation": 3.5,
      "mindate": "1938-07-01",
      "maxdate": "2025-03-07",
      "latitude": 26.6851,
      "name": "WEST PALM BEACH INTERNATIONAL AIRPORT, FL US",
      "datacoverage": 1,
      "id": "GHCND:USW00012844",
      "elevationUnit": "METERS",
      "longitude": -80.09918
    },
    {
      "elevation": 32,
      "mindate": "1945-03-01",
      "maxdate": "1945-12-31",
      "latitude": 29.08333,
      "name": "DELAND NAS, FL ",
      "datacoverage": 0.8952,
      "id": "GHCND:USW00012847",
      "elevationUnit": "METERS",
      "longitude": -81.41667
    },
    {
      "elevation": 1,
      "mindate": "1945-01-01",
      "maxdate": "2025-03-07",
      "latitude": 26.07875,
      "name": "FORT LAUDERDALE INTERNATIONAL AIRPORT, FL US",
      "datacoverage": 1,
      "id": "GHCND:USW00012849",
      "elevationUnit": "METERS",
      "longitude": -80.16223
    },
    {
      "elevation": 1.8,
      "mindate": "1945-01-01",
      "maxdate": "2025-03-06",
      "latitude": 24.58333,
      "name": "KEY WEST NAS, FL US",
      "datacoverage": 1,
      "id": "GHCND:USW00012850",
      "elevationUnit": "METERS",
      "longitude": -81.68333
    },
    {
      "elevation": 17.1,
      "mindate": "1945-04-01",
      "maxdate": "1945-12-31",
      "latitude": 28.1,
      "name": "MELBOURNE NAS, FL US",
      "datacoverage": 1,
      "id": "GHCND:USW00012851",
      "elevationUnit": "METERS",
      "longitude": -80.63333
    },
    {
      "elevation": 7.9,
      "mindate": "1945-01-01",
      "maxdate": "1958-07-31",
      "latitude": 25.91667,
      "name": "MIAMI MCAS, FL US",
      "datacoverage": 0.5711,
      "id": "GHCND:USW00012852",
      "elevationUnit": "METERS",
      "longitude": -80.28333
    },
    {
      "elevation": 9.1,
      "mindate": "1945-03-01",
      "maxdate": "1945-11-16",
      "latitude": 25.61667,
      "name": "RICHMOND NAS, FL US",
      "datacoverage": 0.9961,
      "id": "GHCND:USW00012853",
      "elevationUnit": "METERS",
      "longitude": -80.41667
    },
    {
      "elevation": 14.9,
      "mindate": "1945-01-01",
      "maxdate": "2025-03-06",
      "latitude": 28.77951,
      "name": "ORLANDO SANFORD AIRPORT, FL US",
      "datacoverage": 1,
      "id": "GHCND:USW00012854",
      "elevationUnit": "METERS",
      "longitude": -81.24356
    },
    {
      "elevation": 15.8,
      "mindate": "1945-01-01",
      "maxdate": "1946-03-31",
      "latitude": 27.65,
      "name": "VERO BEACH NAS, FL US",
      "datacoverage": 1,
      "id": "GHCND:USW00012855",
      "elevationUnit": "METERS",
      "longitude": -80.41667
    },
    {
      "elevation": 7.9,
      "mindate": "1948-07-01",
      "maxdate": "1974-02-28",
      "latitude": 24.55,
      "name": "KEY WEST WEATHER BUREAU CITY, FL US",
      "datacoverage": 0.9579,
      "id": "GHCND:USW00012858",
      "elevationUnit": "METERS",
      "longitude": -81.8
    },
    {
      "elevation": 4.6,
      "mindate": "1948-07-01",
      "maxdate": "2010-12-31",
      "latitude": 25.71667,
      "name": "MIAMI WEATHER SERVICE OFFICE CITY, FL US",
      "datacoverage": 1,
      "id": "GHCND:USW00012859",
      "elevationUnit": "METERS",
      "longitude": -80.28333
    },
    {
      "elevation": 26.5,
      "mindate": "2019-01-01",
      "maxdate": "2025-03-05",
      "latitude": 29.16667,
      "name": "OCALA JIM TAYLOR FIELD, FL US",
      "datacoverage": 1,
      "id": "GHCND:USW00012861",
      "elevationUnit": "METERS",
      "longitude": -82.23333
    },
    {
      "elevation": 4,
      "mindate": "1907-01-01",
      "maxdate": "1965-02-11",
      "latitude": 28.96667,
      "name": "BURRWOOD WEATHER BUREAU",
      "datacoverage": 0.9856,
      "id": "GHCND:USW00012863",
      "elevationUnit": "METERS",
      "longitude": -89.38333
    },
    {
      "elevation": 2.4,
      "mindate": "1950-01-01",
      "maxdate": "1970-12-31",
      "latitude": 28.23333,
      "name": "COCOA BEACH PATRICK AFB, FL US",
      "datacoverage": 1,
      "id": "GHCND:USW00012867",
      "elevationUnit": "METERS",
      "longitude": -80.6
    },
    {
      "elevation": 3,
      "mindate": "1950-01-01",
      "maxdate": "1970-12-31",
      "latitude": 28.48333,
      "name": "COCOA BEACH CAPE KENNEDY AFS, FL US",
      "datacoverage": 0.9836,
      "id": "GHCND:USW00012868",
      "elevationUnit": "METERS",
      "longitude": -80.56667
    },
    {
      "elevation": 5.3,
      "mindate": "1999-03-01",
      "maxdate": "2025-03-06",
      "latitude": 27.40146,
      "name": "SARASOTA BRADENTON AIRPORT, FL US",
      "datacoverage": 1,
      "id": "GHCND:USW00012871",
      "elevationUnit": "METERS",
      "longitude": -82.55863
    },
    {
      "elevation": 0.1,
      "mindate": "1998-09-01",
      "maxdate": "2025-03-06",
      "latitude": 27.91255,
      "name": "ST PETERSBURG CLEARWATER INTERNATIONAL AIRPORT, FL US",
      "datacoverage": 1,
      "id": "GHCND:USW00012873",
      "elevationUnit": "METERS",
      "longitude": -82.68555
    },
    {
      "elevation": 43.5,
      "mindate": "1996-07-01",
      "maxdate": "2025-03-06",
      "latitude": 28.06137,
      "name": "WINTER HAVEN GILBERT AIRPORT, FL US",
      "datacoverage": 1,
      "id": "GHCND:USW00012876",
      "elevationUnit": "METERS",
      "longitude": -81.75684
    },
    {
      "elevation": 1.3,
      "mindate": "1998-05-01",
      "maxdate": "2025-03-06",
      "latitude": 25.91017,
      "name": "MIAMI OPA LOCKA AIRPORT, FL US",
      "datacoverage": 1,
      "id": "GHCND:USW00012882",
      "elevationUnit": "METERS",
      "longitude": -80.28283
    },
    {
      "elevation": 45.1,
      "mindate": "1948-07-01",
      "maxdate": "2025-03-06",
      "latitude": 28,
      "name": "LAKELAND LINDER REGIONAL AIRPORT, FL US",
      "datacoverage": 1,
      "id": "GHCND:USW00012883",
      "elevationUnit": "METERS",
      "longitude": -82.05
    },
    {
      "elevation": 0.9,
      "mindate": "1965-01-01",
      "maxdate": "2019-12-02",
      "latitude": 29.333,
      "name": "BOOTHVILLE ASOS, LA US",
      "datacoverage": 1,
      "id": "GHCND:USW00012884",
      "elevationUnit": "METERS",
      "longitude": -89.4075
    },
    {
      "elevation": 3.5,
      "mindate": "1998-06-01",
      "maxdate": "2025-03-06",
      "latitude": 26.19905,
      "name": "FORT LAUDERDALE EXECUTIVE AIRPORT, FL US",
      "datacoverage": 1,
      "id": "GHCND:USW00012885",
      "elevationUnit": "METERS",
      "longitude": -80.17764
    },
    {
      "elevation": 1.8,
      "mindate": "1998-06-01",
      "maxdate": "2025-03-06",
      "latitude": 25.64226,
      "name": "MIAMI KENDALL TAMIAMI EXEC AIRPORT, FL US",
      "datacoverage": 1,
      "id": "GHCND:USW00012888",
      "elevationUnit": "METERS",
      "longitude": -80.43467
    },
    {
      "elevation": 28,
      "mindate": "1996-08-01",
      "maxdate": "1997-12-18",
      "latitude": 29.14306,
      "name": "PINECASTLE NF, FL US",
      "datacoverage": 0.9402,
      "id": "GHCND:USW00012889",
      "elevationUnit": "METERS",
      "longitude": -81.63278
    },
    {
      "elevation": 8.2,
      "mindate": "1998-05-01",
      "maxdate": "2025-03-06",
      "latitude": 26.53805,
      "name": "FORT MYERS SW FLORIDA REGIONAL AIRPORT, FL US",
      "datacoverage": 1,
      "id": "GHCND:USW00012894",
      "elevationUnit": "METERS",
      "longitude": -81.75674
    },
    {
      "elevation": 5.7,
      "mindate": "1999-07-01",
      "maxdate": "2025-03-06",
      "latitude": 27.49816,
      "name": "FORT PIERCE ST LUCIE CO INTERNATIONAL AIRPORT, FL US",
      "datacoverage": 1,
      "id": "GHCND:USW00012895",
      "elevationUnit": "METERS",
      "longitude": -80.37626
    },
    {
      "elevation": 0.9,
      "mindate": "1998-05-01",
      "maxdate": "2025-03-06",
      "latitude": 24.72624,
      "name": "MARATHON AIRPORT, FL US",
      "datacoverage": 1,
      "id": "GHCND:USW00012896",
      "elevationUnit": "METERS",
      "longitude": -81.0477
    },
    {
      "elevation": 2,
      "mindate": "2002-01-01",
      "maxdate": "2025-03-06",
      "latitude": 26.15498,
      "name": "NAPLES MUNICIPAL AIRPORT, FL US",
      "datacoverage": 1,
      "id": "GHCND:USW00012897",
      "elevationUnit": "METERS",
      "longitude": -81.77514
    },
    {
      "elevation": 280.1,
      "mindate": "1954-12-01",
      "maxdate": "1958-06-26",
      "latitude": 29.35,
      "name": "HONDO AFB, TX US",
      "datacoverage": 0.9774,
      "id": "GHCND:USW00012903",
      "elevationUnit": "METERS",
      "longitude": -99.16667
    },
    {
      "elevation": 9.5,
      "mindate": "1952-01-01",
      "maxdate": "2025-03-06",
      "latitude": 26.2303,
      "name": "HARLINGEN RIO GRANDE VALLEY INTERNATIONAL AIRPORT, TX US",
      "datacoverage": 1,
      "id": "GHCND:USW00012904",
      "elevationUnit": "METERS",
      "longitude": -97.65565
    },
    {
      "elevation": 9.8,
      "mindate": "1950-01-01",
      "maxdate": "1970-12-31",
      "latitude": 29.61667,
      "name": "HOUSTON ELLINGTON AFB, TX US",
      "datacoverage": 1,
      "id": "GHCND:USW00012906",
      "elevationUnit": "METERS",
      "longitude": -95.16667
    },
    {
      "elevation": 150.6,
      "mindate": "1965-01-01",
      "maxdate": "2025-03-06",
      "latitude": 27.53333,
      "name": "LAREDO INTERNATIONAL AIRPORT, TX US",
      "datacoverage": 0.344,
      "id": "GHCND:USW00012907",
      "elevationUnit": "METERS",
      "longitude": -99.46667
    },
    {
      "elevation": 207.9,
      "mindate": "1949-01-01",
      "maxdate": "2025-03-06",
      "latitude": 29.38333,
      "name": "SAN ANTONIO KELLY FIELD AFB, TX US",
      "datacoverage": 1,
      "id": "GHCND:USW00012909",
      "elevationUnit": "METERS",
      "longitude": -98.58333
    },
    {
      "elevation": 178,
      "mindate": "1951-01-01",
      "maxdate": "1956-08-15",
      "latitude": 29.88333,
      "name": "SAN MARCOS GARY AFB, TX US",
      "datacoverage": 0.9991,
      "id": "GHCND:USW00012910",
      "elevationUnit": "METERS",
      "longitude": -97.86667
    },
    {
      "elevation": 221.9,
      "mindate": "1948-06-01",
      "maxdate": "2025-03-06",
      "latitude": 29.5325,
      "name": "RANDOLPH AFB, TX US",
      "datacoverage": 0.9999,
      "id": "GHCND:USW00012911",
      "elevationUnit": "METERS",
      "longitude": -98.2623
    },
    {
      "elevation": 33.7,
      "mindate": "1941-11-04",
      "maxdate": "2025-03-07",
      "latitude": 28.86245,
      "name": "VICTORIA REGIONAL AIRPORT, TX US",
      "datacoverage": 1,
      "id": "GHCND:USW00012912",
      "elevationUnit": "METERS",
      "longitude": -96.9301
    },
    {
      "elevation": -1,
      "mindate": "1945-10-01",
      "maxdate": "2025-03-07",
      "latitude": 29.99755,
      "name": "NEW ORLEANS AIRPORT, LA US",
      "datacoverage": 1,
      "id": "GHCND:USW00012916",
      "elevationUnit": "METERS",
      "longitude": -90.27772
    },
    {
      "elevation": 3.8,
      "mindate": "1947-01-01",
      "maxdate": "2025-03-07",
      "latitude": 29.95205,
      "name": "PORT ARTHUR SE TX REGIONAL AIRPORT, TX US",
      "datacoverage": 1,
      "id": "GHCND:USW00012917",
      "elevationUnit": "METERS",
      "longitude": -94.02616
    },
    {
      "elevation": 13.2,
      "mindate": "1930-08-01",
      "maxdate": "2025-03-07",
      "latitude": 29.64586,
      "name": "HOUSTON WILLIAM P HOBBY AIRPORT, TX US",
      "datacoverage": 1,
      "id": "GHCND:USW00012918",
      "elevationUnit": "METERS",
      "longitude": -95.28212
    },
    {
      "elevation": 5.7,
      "mindate": "1898-12-01",
      "maxdate": "2025-03-07",
      "latitude": 25.91459,
      "name": "BROWNSVILLE S PADRE ISLAND INTERNATIONAL AIRPORT, TX US",
      "datacoverage": 1,
      "id": "GHCND:USW00012919",
      "elevationUnit": "METERS",
      "longitude": -97.42314
    },
    {
      "elevation": 151.2,
      "mindate": "1915-04-01",
      "maxdate": "1965-10-31",
      "latitude": 27.533333,
      "name": "LAREDO MUNICIPAL AIRPORT, TX US",
      "datacoverage": 0.9538,
      "id": "GHCND:USW00012920",
      "elevationUnit": "METERS",
      "longitude": -99.466667
    },
    {
      "elevation": 243.6,
      "mindate": "1946-01-01",
      "maxdate": "2025-03-07",
      "latitude": 29.54429,
      "name": "SAN ANTONIO INTERNATIONAL AIRPORT, TX US",
      "datacoverage": 1,
      "id": "GHCND:USW00012921",
      "elevationUnit": "METERS",
      "longitude": -98.48395
    },
    {
      "elevation": 35.1,
      "mindate": "1946-12-01",
      "maxdate": "1961-06-30",
      "latitude": 28.78333,
      "name": "VICTORIA, TX US",
      "datacoverage": 1,
      "id": "GHCND:USW00012922",
      "elevationUnit": "METERS",
      "longitude": -97.08333
    },
    {
      "elevation": 1.5,
      "mindate": "1946-08-01",
      "maxdate": "2025-03-07",
      "latitude": 29.27036,
      "name": "GALVESTON SCHOLES FIELD, TX US",
      "datacoverage": 1,
      "id": "GHCND:USW00012923",
      "elevationUnit": "METERS",
      "longitude": -94.86421
    },
    {
      "elevation": 12.5,
      "mindate": "1946-08-01",
      "maxdate": "2025-03-07",
      "latitude": 27.77335,
      "name": "CORPUS CHRISTI INTERNATIONAL AIRPORT, TX US",
      "datacoverage": 1,
      "id": "GHCND:USW00012924",
      "elevationUnit": "METERS",
      "longitude": -97.51302
    },
    {
      "elevation": 20.1,
      "mindate": "1945-01-01",
      "maxdate": "2010-12-31",
      "latitude": 28.36667,
      "name": "BEEVILLE CHASE NAAS, TX US",
      "datacoverage": 1,
      "id": "GHCND:USW00012925",
      "elevationUnit": "METERS",
      "longitude": -97.66667
    },
    {
      "elevation": 4.7,
      "mindate": "1945-01-01",
      "maxdate": "2025-02-03",
      "latitude": 27.68786,
      "name": "CORPUS CHRISTI NAS, TX US",
      "datacoverage": 1,
      "id": "GHCND:USW00012926",
      "elevationUnit": "METERS",
      "longitude": -97.29158
    },
    {
      "elevation": 4,
      "mindate": "1945-03-01",
      "maxdate": "1945-07-31",
      "latitude": 29.56639,
      "name": "HOUMA TERREBONNE AIRPORT, LA US",
      "datacoverage": 0.9947,
      "id": "GHCND:USW00012927",
      "elevationUnit": "METERS",
      "longitude": -90.66028
    },
    {
      "elevation": 13.4,
      "mindate": "1945-01-01",
      "maxdate": "2025-01-01",
      "latitude": 27.50898,
      "name": "KINGSVILLE NAAS, TX US",
      "datacoverage": 1,
      "id": "GHCND:USW00012928",
      "elevationUnit": "METERS",
      "longitude": -97.80408
    },
    {
      "elevation": 6.1,
      "mindate": "1893-01-01",
      "maxdate": "2025-01-31",
      "latitude": 29.9166,
      "name": "NEW ORLEANS AUDUBON, LA US",
      "datacoverage": 1,
      "id": "GHCND:USW00012930",
      "elevationUnit": "METERS",
      "longitude": -90.1302
    },
    {
      "elevation": 182,
      "mindate": "1949-01-01",
      "maxdate": "1960-06-22",
      "latitude": 29.35,
      "name": "SAN ANTONIO BROOKS AFB, TX US",
      "datacoverage": 1,
      "id": "GHCND:USW00012931",
      "elevationUnit": "METERS",
      "longitude": -98.45
    },
    {
      "elevation": 52,
      "mindate": "1948-01-01",
      "maxdate": "2025-03-06",
      "latitude": 27.74131,
      "name": "ALICE INTERNATIONAL AIRPORT, TX US",
      "datacoverage": 1,
      "id": "GHCND:USW00012932",
      "elevationUnit": "METERS",
      "longitude": -98.02507
    },
    {
      "elevation": 3.1,
      "mindate": "1943-01-01",
      "maxdate": "2025-03-06",
      "latitude": 28.7248,
      "name": "PALACIOS MUNICIPAL AIRPORT, TX US",
      "datacoverage": 1,
      "id": "GHCND:USW00012935",
      "elevationUnit": "METERS",
      "longitude": -96.25353
    },
    {
      "elevation": 3,
      "mindate": "1897-01-01",
      "maxdate": "2011-03-31",
      "latitude": 29.33333,
      "name": "GALVESTON, TX US",
      "datacoverage": 1,
      "id": "GHCND:USW00012944",
      "elevationUnit": "METERS",
      "longitude": -94.77167
    }
  ]
}
