{
  "metadata": {
    "resultset": {
      "offset": 3700,
      "count": 154115,
      "limit": 100
    }
  },
  "results": [
    {
      "elevation": 13.4,
      "mindate": "1956-04-01",
      "maxdate": "2015-11-01",
      "latitude": 30.1123,
      "name": "WEWAHITCHKA, FL US",
      "datacoverage": 0.9721,
      "id": "COOP:089566",
      "elevationUnit": "METERS",
      "longitude": -85.19588
    },
    {
      "elevation": 40.2,
      "mindate": "1999-04-01",
      "maxdate": "2015-11-01",
      "latitude": 30.4392,
      "name": "WHITE SPRINGS 7 N, FL US",
      "datacoverage": 0.9949,
      "id": "COOP:089640",
      "elevationUnit": "METERS",
      "longitude": -82.7847
    },
    {
      "elevation": 44.2,
      "mindate": "1941-02-01",
      "maxdate": "2008-03-01",
      "latitude": 28.0153,
      "name": "WINTER HAVEN, FL US",
      "datacoverage": 0.9616,
      "id": "COOP:089707",
      "elevationUnit": "METERS",
      "longitude": -81.7331
    },
    {
      "elevation": 32.6,
      "mindate": "1956-04-01",
      "maxdate": "2014-01-01",
      "latitude": 30.7219,
      "name": "WOODRUFF DAM, FL ",
      "datacoverage": 0.9428,
      "id": "COOP:089795",
      "elevationUnit": "METERS",
      "longitude": -84.8741
    },
    {
      "elevation": 74.1,
      "mindate": "2009-07-01",
      "maxdate": "2012-12-01",
      "latitude": 31.9938,
      "name": "ABBEVILLE RIVER, GA US",
      "datacoverage": 0.975,
      "id": "COOP:090006",
      "elevationUnit": "METERS",
      "longitude": -83.309
    },
    {
      "elevation": 73.2,
      "mindate": "1931-01-01",
      "maxdate": "2011-12-01",
      "latitude": 31.938,
      "name": "ABBEVILLE, GA US",
      "datacoverage": 0.9506,
      "id": "COOP:090010",
      "elevationUnit": "METERS",
      "longitude": -83.3077
    },
    {
      "elevation": 213.4,
      "mindate": "1937-09-01",
      "maxdate": "1986-10-01",
      "latitude": 34.36667,
      "name": "ADAIRSVILLE, GA US",
      "datacoverage": 0.9915,
      "id": "COOP:090041",
      "elevationUnit": "METERS",
      "longitude": -84.93333
    },
    {
      "elevation": 291.4,
      "mindate": "1986-01-01",
      "maxdate": "2015-11-01",
      "latitude": 34.3407,
      "name": "ADAIRSVILLE 5 SE, GA US",
      "datacoverage": 0.9778,
      "id": "COOP:090044",
      "elevationUnit": "METERS",
      "longitude": -84.8347
    },
    {
      "elevation": 70.1,
      "mindate": "2001-07-01",
      "maxdate": "2002-04-01",
      "latitude": 31.13972,
      "name": "ADEL, GA US",
      "datacoverage": 0.9011,
      "id": "COOP:090051",
      "elevationUnit": "METERS",
      "longitude": -83.42306
    },
    {
      "elevation": 73.2,
      "mindate": "1941-09-01",
      "maxdate": "1975-04-01",
      "latitude": 31.11667,
      "name": "ADEL, GA US",
      "datacoverage": 0.9853,
      "id": "COOP:090053",
      "elevationUnit": "METERS",
      "longitude": -83.41667
    },
    {
      "elevation": 71.6,
      "mindate": "1947-07-01",
      "maxdate": "1994-01-01",
      "latitude": 32.18333,
      "name": "AILEY, GA US",
      "datacoverage": 0.8836,
      "id": "COOP:090090",
      "elevationUnit": "METERS",
      "longitude": -82.56667
    },
    {
      "elevation": 88.1,
      "mindate": "1931-01-01",
      "maxdate": "1974-12-01",
      "latitude": 31.35,
      "name": "ALAPAHA EXPERIMENTAL STATION, GA US",
      "datacoverage": 0.9754,
      "id": "COOP:090131",
      "elevationUnit": "METERS",
      "longitude": -83.21667
    },
    {
      "elevation": 54.9,
      "mindate": "1931-01-01",
      "maxdate": "2015-11-01",
      "latitude": 31.5338,
      "name": "ALBANY 3 SE, GA US",
      "datacoverage": 0.9882,
      "id": "COOP:090140",
      "elevationUnit": "METERS",
      "longitude": -84.1488
    },
    {
      "elevation": 58.2,
      "mindate": "1948-01-01",
      "maxdate": "1954-07-01",
      "latitude": 31.53642,
      "name": "ALBANY SW GEORGIA REGIONAL AIRPORT, GA US",
      "datacoverage": 1,
      "id": "COOP:090145",
      "elevationUnit": "METERS",
      "longitude": -84.1958
    },
    {
      "elevation": 297.2,
      "mindate": "1946-10-01",
      "maxdate": "1952-04-01",
      "latitude": 34.165,
      "name": "ALLATOONA DAM 2, GA US",
      "datacoverage": 0.9852,
      "id": "COOP:090180",
      "elevationUnit": "METERS",
      "longitude": -84.73
    },
    {
      "elevation": 297.2,
      "mindate": "1952-04-01",
      "maxdate": "2015-11-01",
      "latitude": 34.165,
      "name": "ALLATOONA DAM 2, GA US",
      "datacoverage": 0.8545,
      "id": "COOP:090181",
      "elevationUnit": "METERS",
      "longitude": -84.73
    },
    {
      "elevation": 58.2,
      "mindate": "1938-06-01",
      "maxdate": "2015-11-01",
      "latitude": 31.54006,
      "name": "ALMA BACON CO AIRPORT, GA US",
      "datacoverage": 0.9946,
      "id": "COOP:090211",
      "elevationUnit": "METERS",
      "longitude": -82.50735
    },
    {
      "elevation": 346.9,
      "mindate": "1957-06-01",
      "maxdate": "2010-12-01",
      "latitude": 34.10139,
      "name": "ALPHARETTA 4 SSW, GA US",
      "datacoverage": 0.7713,
      "id": "COOP:090219",
      "elevationUnit": "METERS",
      "longitude": -84.35056
    },
    {
      "elevation": 335.9,
      "mindate": "1970-04-01",
      "maxdate": "1985-02-01",
      "latitude": 34.11667,
      "name": "ALPHARETTA 2 NNW, GA US",
      "datacoverage": 0.0594,
      "id": "COOP:090221",
      "elevationUnit": "METERS",
      "longitude": -84.3
    },
    {
      "elevation": 279.8,
      "mindate": "1999-12-01",
      "maxdate": "2015-11-01",
      "latitude": 34.4416,
      "name": "ALTO 4 SE, GA US",
      "datacoverage": 1,
      "id": "COOP:090236",
      "elevationUnit": "METERS",
      "longitude": -83.5161
    },
    {
      "elevation": 121,
      "mindate": "1931-01-01",
      "maxdate": "2014-12-01",
      "latitude": 32.0306,
      "name": "AMERICUS, GA US",
      "datacoverage": 0.9425,
      "id": "COOP:090253",
      "elevationUnit": "METERS",
      "longitude": -84.2461
    },
    {
      "elevation": 137.2,
      "mindate": "1948-01-01",
      "maxdate": "2004-06-01",
      "latitude": 32.1025,
      "name": "AMERICUS EXPERIMENT STATION NURSERY, GA US",
      "datacoverage": 1,
      "id": "COOP:090258",
      "elevationUnit": "METERS",
      "longitude": -84.26667
    },
    {
      "elevation": 601.1,
      "mindate": "1956-07-01",
      "maxdate": "1962-03-01",
      "latitude": 34.91667,
      "name": "ANTIOCH, GA US",
      "datacoverage": 1,
      "id": "COOP:090296",
      "elevationUnit": "METERS",
      "longitude": -84.01667
    },
    {
      "elevation": 73.2,
      "mindate": "1957-10-01",
      "maxdate": "1961-01-01",
      "latitude": 33.53333,
      "name": "APPLING, GA US",
      "datacoverage": 0.9988,
      "id": "COOP:090310",
      "elevationUnit": "METERS",
      "longitude": -82.31667
    },
    {
      "elevation": 120.7,
      "mindate": "1961-01-01",
      "maxdate": "2015-11-01",
      "latitude": 33.55731,
      "name": "APPLING 2 NW, GA US",
      "datacoverage": 0.994,
      "id": "COOP:090311",
      "elevationUnit": "METERS",
      "longitude": -82.33683
    },
    {
      "elevation": 115.8,
      "mindate": "1980-02-01",
      "maxdate": "1991-09-01",
      "latitude": 33.55,
      "name": "APPLING 2, GA US",
      "datacoverage": 0.0268,
      "id": "COOP:090314",
      "elevationUnit": "METERS",
      "longitude": -82.31667
    },
    {
      "elevation": 132.6,
      "mindate": "1957-01-01",
      "maxdate": "2012-12-01",
      "latitude": 31.70028,
      "name": "ASHBURN 3 ENE, GA US",
      "datacoverage": 0.9717,
      "id": "COOP:090406",
      "elevationUnit": "METERS",
      "longitude": -83.62306
    },
    {
      "mindate": "1931-01-01",
      "maxdate": "1971-02-01",
      "latitude": 33.96667,
      "name": "ATHENS, GA US",
      "datacoverage": 0.9918,
      "id": "COOP:090430",
      "longitude": -83.38333
    },
    {
      "elevation": 210,
      "mindate": "1935-10-01",
      "maxdate": "1971-06-01",
      "latitude": 33.91667,
      "name": "ATHENS COLLEGE OF AG, GA US",
      "datacoverage": 0.9837,
      "id": "COOP:090432",
      "elevationUnit": "METERS",
      "longitude": -83.35
    },
    {
      "elevation": 239,
      "mindate": "1948-01-01",
      "maxdate": "2015-11-01",
      "latitude": 33.94773,
      "name": "ATHENS BEN EPPS AIRPORT, GA US",
      "datacoverage": 0.9951,
      "id": "COOP:090435",
      "elevationUnit": "METERS",
      "longitude": -83.32736
    },
    {
      "elevation": 21.3,
      "mindate": "1956-03-01",
      "maxdate": "1992-07-01",
      "latitude": 31.23333,
      "name": "ATKINSON 2 W, GA US",
      "datacoverage": 0.9496,
      "id": "COOP:090441",
      "elevationUnit": "METERS",
      "longitude": -81.86667
    },
    {
      "elevation": 276.5,
      "mindate": "1956-03-01",
      "maxdate": "2014-12-01",
      "latitude": 33.8263,
      "name": "ATLANTA 9 NW, GA US",
      "datacoverage": 0.9588,
      "id": "COOP:090444",
      "elevationUnit": "METERS",
      "longitude": -84.4961
    },
    {
      "elevation": 305.1,
      "mindate": "1934-09-01",
      "maxdate": "1951-07-01",
      "latitude": 33.75,
      "name": "ATLANTA KIRKWOOD, GA US",
      "datacoverage": 1,
      "id": "COOP:090446",
      "elevationUnit": "METERS",
      "longitude": -84.31667
    },
    {
      "elevation": 308.2,
      "mindate": "1948-06-01",
      "maxdate": "2015-11-01",
      "latitude": 33.62972,
      "name": "ATLANTA HARTSFIELD JACKSON INTERNATIONAL AIRPORT, GA US",
      "datacoverage": 0.995,
      "id": "COOP:090451",
      "elevationUnit": "METERS",
      "longitude": -84.44224
    },
    {
      "elevation": 346.9,
      "mindate": "1948-01-01",
      "maxdate": "1954-06-18",
      "latitude": 33.75,
      "name": "ATLANTA WEATHER BUREAU CITY, GA US",
      "datacoverage": 1,
      "id": "COOP:090456",
      "elevationUnit": "METERS",
      "longitude": -84.38333
    },
    {
      "elevation": 40.9,
      "mindate": "1948-08-01",
      "maxdate": "2015-11-01",
      "latitude": 33.36517,
      "name": "AUGUSTA BUSH FIELD AIRPORT, GA US",
      "datacoverage": 0.995,
      "id": "COOP:090495",
      "elevationUnit": "METERS",
      "longitude": -81.96353
    },
    {
      "elevation": 39.9,
      "mindate": "1948-01-01",
      "maxdate": "1960-12-01",
      "latitude": 33.46667,
      "name": "AUGUSTA, GA US",
      "datacoverage": 0.8588,
      "id": "COOP:090500",
      "elevationUnit": "METERS",
      "longitude": -81.96667
    },
    {
      "elevation": 271,
      "mindate": "1961-07-01",
      "maxdate": "1969-09-24",
      "latitude": 34.51667,
      "name": "AVALON 1 W, GA US",
      "datacoverage": 0.0528,
      "id": "COOP:090526",
      "elevationUnit": "METERS",
      "longitude": -83.21667
    },
    {
      "elevation": 36.9,
      "mindate": "1931-01-01",
      "maxdate": "1977-11-01",
      "latitude": 30.91667,
      "name": "BAINBRIDGE, GA US",
      "datacoverage": 0.9786,
      "id": "COOP:090581",
      "elevationUnit": "METERS",
      "longitude": -84.58333
    },
    {
      "elevation": 57.9,
      "mindate": "1948-06-01",
      "maxdate": "2010-03-25",
      "latitude": 30.82278,
      "name": "BAINBRIDGE INTERNATIONAL PAPER, GA US",
      "datacoverage": 0.9436,
      "id": "COOP:090586",
      "elevationUnit": "METERS",
      "longitude": -84.6175
    },
    {
      "elevation": 387.1,
      "mindate": "1947-04-01",
      "maxdate": "2015-11-01",
      "latitude": 34.3328,
      "name": "BALL GROUND, GA US",
      "datacoverage": 0.9599,
      "id": "COOP:090603",
      "elevationUnit": "METERS",
      "longitude": -84.4703
    },
    {
      "elevation": 227.1,
      "mindate": "2001-06-01",
      "maxdate": "2002-11-01",
      "latitude": 32.98472,
      "name": "BARNESVILLE NUMBER 2, GA US",
      "datacoverage": 0.8331,
      "id": "COOP:090661",
      "elevationUnit": "METERS",
      "longitude": -84.08806
    },
    {
      "elevation": 64.9,
      "mindate": "2004-06-01",
      "maxdate": "2015-11-01",
      "latitude": 31.84139,
      "name": "BAXLEY 5 NNW, GA US",
      "datacoverage": 1,
      "id": "COOP:090670",
      "elevationUnit": "METERS",
      "longitude": -82.37556
    },
    {
      "elevation": 225.6,
      "mindate": "1940-07-01",
      "maxdate": "1999-09-01",
      "latitude": 34.91944,
      "name": "BEAVERDALE, GA US",
      "datacoverage": 0.9831,
      "id": "COOP:090746",
      "elevationUnit": "METERS",
      "longitude": -84.83222
    },
    {
      "elevation": 56.4,
      "mindate": "1948-01-01",
      "maxdate": "1980-03-01",
      "latitude": 32.15,
      "name": "BELLVILLE, GA US",
      "datacoverage": 1,
      "id": "COOP:090787",
      "elevationUnit": "METERS",
      "longitude": -81.96667
    },
    {
      "elevation": 3,
      "mindate": "1940-03-01",
      "maxdate": "1974-12-01",
      "latitude": 31.48333,
      "name": "BLACKBEARD ISLAND, GA US",
      "datacoverage": 0.7727,
      "id": "COOP:090946",
      "elevationUnit": "METERS",
      "longitude": -81.21667
    },
    {
      "elevation": 594.1,
      "mindate": "1931-09-01",
      "maxdate": "2015-11-01",
      "latitude": 34.8544,
      "name": "BLAIRSVILLE EXPERIMENTAL STATION, GA US",
      "datacoverage": 0.9733,
      "id": "COOP:090969",
      "elevationUnit": "METERS",
      "longitude": -83.9444
    },
    {
      "elevation": 81.7,
      "mindate": "1931-01-01",
      "maxdate": "2012-12-01",
      "latitude": 31.2239,
      "name": "BLAKELY, GA US",
      "datacoverage": 0.8059,
      "id": "COOP:090979",
      "elevationUnit": "METERS",
      "longitude": -84.5554
    },
    {
      "elevation": 560.8,
      "mindate": "1957-01-01",
      "maxdate": "1996-11-01",
      "latitude": 34.86667,
      "name": "BLUE RIDGE 3 SW, GA US",
      "datacoverage": 0.5992,
      "id": "COOP:091024",
      "elevationUnit": "METERS",
      "longitude": -84.31667
    },
    {
      "elevation": 476.1,
      "mindate": "1949-01-01",
      "maxdate": "1962-03-01",
      "latitude": 34.88333,
      "name": "BLUE RIDGE RESVR DAM, GA US",
      "datacoverage": 0.9752,
      "id": "COOP:091029",
      "elevationUnit": "METERS",
      "longitude": -84.28333
    },
    {
      "elevation": 239.3,
      "mindate": "1952-02-01",
      "maxdate": "1997-08-01",
      "latitude": 34.2,
      "name": "BOWMAN, GA US",
      "datacoverage": 0.9927,
      "id": "COOP:091132",
      "elevationUnit": "METERS",
      "longitude": -83.03333
    },
    {
      "elevation": 1457.9,
      "mindate": "1948-01-01",
      "maxdate": "1962-03-01",
      "latitude": 34.86667,
      "name": "BRASSTOWN BALD, GA US",
      "datacoverage": 0.93,
      "id": "COOP:091170",
      "elevationUnit": "METERS",
      "longitude": -83.81667
    },
    {
      "elevation": 54.9,
      "mindate": "1931-01-01",
      "maxdate": "2015-11-01",
      "latitude": 32.37663,
      "name": "BROOKLET 1 W, GA US",
      "datacoverage": 0.9902,
      "id": "COOP:091266",
      "elevationUnit": "METERS",
      "longitude": -81.67388
    },
    {
      "elevation": 4,
      "mindate": "1931-01-01",
      "maxdate": "2015-11-01",
      "latitude": 31.1681,
      "name": "BRUNSWICK, GA US",
      "datacoverage": 0.9824,
      "id": "COOP:091340",
      "elevationUnit": "METERS",
      "longitude": -81.5022
    },
    {
      "elevation": 4.3,
      "mindate": "1944-05-01",
      "maxdate": "2015-11-01",
      "latitude": 31.1527,
      "name": "BRUNSWICK MCKINNON AIRPORT, GA US",
      "datacoverage": 0.9953,
      "id": "COOP:091345",
      "elevationUnit": "METERS",
      "longitude": -81.39053
    },
    {
      "elevation": 196.9,
      "mindate": "1948-01-01",
      "maxdate": "2015-11-01",
      "latitude": 32.3179,
      "name": "BUENA VISTA, GA US",
      "datacoverage": 0.8074,
      "id": "COOP:091372",
      "elevationUnit": "METERS",
      "longitude": -84.5204
    },
    {
      "elevation": 540.1,
      "mindate": "1948-01-01",
      "maxdate": "1978-11-30",
      "latitude": 34.78333,
      "name": "BURTON DAM, GA US",
      "datacoverage": 0.9338,
      "id": "COOP:091413",
      "elevationUnit": "METERS",
      "longitude": -83.55
    },
    {
      "elevation": 135.9,
      "mindate": "1931-01-01",
      "maxdate": "2004-03-01",
      "latitude": 32.6524,
      "name": "BUTLER, GA US",
      "datacoverage": 0.8339,
      "id": "COOP:091425",
      "elevationUnit": "METERS",
      "longitude": -84.1858
    },
    {
      "elevation": 30.5,
      "mindate": "1939-07-01",
      "maxdate": "1965-06-01",
      "latitude": 33.3667,
      "name": "AUGUSTA 8 SSE, GA US",
      "datacoverage": 0.9711,
      "id": "COOP:091433",
      "elevationUnit": "METERS",
      "longitude": -81.95
    },
    {
      "elevation": 149.4,
      "mindate": "1977-11-01",
      "maxdate": "2000-08-01",
      "latitude": 32.66944,
      "name": "BYRON EXPERIMENT STATION, GA US",
      "datacoverage": 0.9379,
      "id": "COOP:091448",
      "elevationUnit": "METERS",
      "longitude": -83.74528
    },
    {
      "elevation": 61.3,
      "mindate": "1931-01-01",
      "maxdate": "2015-11-01",
      "latitude": 30.8696,
      "name": "CAIRO, GA US",
      "datacoverage": 0.7949,
      "id": "COOP:091463",
      "elevationUnit": "METERS",
      "longitude": -84.2174
    },
    {
      "elevation": 199.6,
      "mindate": "1953-03-01",
      "maxdate": "1997-05-01",
      "latitude": 34.48333,
      "name": "CALHOUN EXPERIMENTAL STATION, GA US",
      "datacoverage": 1,
      "id": "COOP:091474",
      "elevationUnit": "METERS",
      "longitude": -84.96667
    },
    {
      "elevation": 60,
      "mindate": "1938-01-01",
      "maxdate": "2015-11-01",
      "latitude": 31.20577,
      "name": "CAMILLA 3 SE, GA US",
      "datacoverage": 0.9829,
      "id": "COOP:091500",
      "elevationUnit": "METERS",
      "longitude": -84.17219
    },
    {
      "elevation": 28,
      "mindate": "1941-05-01",
      "maxdate": "1964-07-01",
      "latitude": 31.86945,
      "name": "FORT STEWART, GA US",
      "datacoverage": 0.9712,
      "id": "COOP:091544",
      "elevationUnit": "METERS",
      "longitude": -81.62358
    },
    {
      "elevation": 345.9,
      "mindate": "1931-01-01",
      "maxdate": "2011-12-01",
      "latitude": 34.2071,
      "name": "CANTON, GA US",
      "datacoverage": 0.9763,
      "id": "COOP:091585",
      "elevationUnit": "METERS",
      "longitude": -84.5039
    },
    {
      "elevation": 136.9,
      "mindate": "1931-01-01",
      "maxdate": "1962-04-01",
      "latitude": 34.06667,
      "name": "CARLTON BRIDGE, GA US",
      "datacoverage": 0.9789,
      "id": "COOP:091601",
      "elevationUnit": "METERS",
      "longitude": -82.98333
    },
    {
      "elevation": 204.2,
      "mindate": "1948-01-01",
      "maxdate": "2015-11-01",
      "latitude": 34.36555,
      "name": "CARNESVILLE, GA US",
      "datacoverage": 0.9693,
      "id": "COOP:091619",
      "elevationUnit": "METERS",
      "longitude": -83.23278
    },
    {
      "elevation": 303.3,
      "mindate": "1939-06-01",
      "maxdate": "2015-11-01",
      "latitude": 33.5972,
      "name": "CARROLLTON, GA US",
      "datacoverage": 0.9749,
      "id": "COOP:091640",
      "elevationUnit": "METERS",
      "longitude": -85.0805
    },
    {
      "elevation": 225.6,
      "mindate": "1947-03-01",
      "maxdate": "1998-08-01",
      "latitude": 34.60611,
      "name": "CARTERS 1 WSW, GA US",
      "datacoverage": 0.9983,
      "id": "COOP:091657",
      "elevationUnit": "METERS",
      "longitude": -84.71944
    },
    {
      "elevation": 240.5,
      "mindate": "1939-04-01",
      "maxdate": "2015-11-01",
      "latitude": 34.2043,
      "name": "CARTERSVILLE, GA US",
      "datacoverage": 0.9565,
      "id": "COOP:091665",
      "elevationUnit": "METERS",
      "longitude": -84.7925
    },
    {
      "elevation": 234.7,
      "mindate": "1937-06-01",
      "maxdate": "2015-11-01",
      "latitude": 34.1825,
      "name": "CARTERSVILLE NUMBER 2, GA US",
      "datacoverage": 0.9947,
      "id": "COOP:091670",
      "elevationUnit": "METERS",
      "longitude": -84.7958
    },
    {
      "elevation": 244.1,
      "mindate": "1949-02-01",
      "maxdate": "1980-04-01",
      "latitude": 34.05,
      "name": "CAVE SPRINGS 4 SSW, GA US",
      "datacoverage": 0.9082,
      "id": "COOP:091715",
      "elevationUnit": "METERS",
      "longitude": -85.35
    },
    {
      "elevation": 61,
      "mindate": "2003-03-01",
      "maxdate": "2003-08-01",
      "latitude": 31.04583,
      "name": "CECIL, GA US",
      "datacoverage": 0.8271,
      "id": "COOP:091727",
      "elevationUnit": "METERS",
      "longitude": -83.39167
    },
    {
      "elevation": 239.3,
      "mindate": "1936-08-01",
      "maxdate": "2015-11-01",
      "latitude": 34.0588,
      "name": "CEDARTOWN, GA US",
      "datacoverage": 0.9748,
      "id": "COOP:091732",
      "elevationUnit": "METERS",
      "longitude": -85.2338
    },
    {
      "elevation": 235,
      "mindate": "1979-11-01",
      "maxdate": "1984-08-01",
      "latitude": 34.01667,
      "name": "CEDARTOWN DARDC, GA US",
      "datacoverage": 0.0253,
      "id": "COOP:091736",
      "elevationUnit": "METERS",
      "longitude": -85.26667
    },
    {
      "elevation": 273.1,
      "mindate": "1984-07-01",
      "maxdate": "2013-02-01",
      "latitude": 33.9534,
      "name": "CEDARTOWN 8 SE, GA US",
      "datacoverage": 0.0284,
      "id": "COOP:091743",
      "elevationUnit": "METERS",
      "longitude": -85.1697
    },
    {
      "elevation": 25.9,
      "mindate": "1948-09-01",
      "maxdate": "1948-12-01",
      "latitude": 31.9578,
      "name": "CHARLOTTE, GA US",
      "datacoverage": 0.998,
      "id": "COOP:091844",
      "elevationUnit": "METERS",
      "longitude": -82.5171
    },
    {
      "elevation": 235,
      "mindate": "1937-08-01",
      "maxdate": "1979-03-01",
      "latitude": 34.76667,
      "name": "CHATSWORTH, GA US",
      "datacoverage": 0.9798,
      "id": "COOP:091856",
      "elevationUnit": "METERS",
      "longitude": -84.78333
    },
    {
      "elevation": 216.4,
      "mindate": "1979-03-01",
      "maxdate": "2015-11-01",
      "latitude": 34.7582,
      "name": "CHATSWORTH 2, GA US",
      "datacoverage": 0.9954,
      "id": "COOP:091863",
      "elevationUnit": "METERS",
      "longitude": -84.7642
    },
    {
      "elevation": 225.6,
      "mindate": "1949-01-01",
      "maxdate": "2007-07-01",
      "latitude": 34.9,
      "name": "CHICKAMAUGA PARK, GA US",
      "datacoverage": 0.9716,
      "id": "COOP:091906",
      "elevationUnit": "METERS",
      "longitude": -85.27167
    },
    {
      "elevation": 238.4,
      "mindate": "1979-11-01",
      "maxdate": "2015-11-01",
      "latitude": 34.9203,
      "name": "CHICKAMAUGA PARK LARC, GA US",
      "datacoverage": 0.9732,
      "id": "COOP:091908",
      "elevationUnit": "METERS",
      "longitude": -85.2711
    },
    {
      "elevation": 580,
      "mindate": "1949-01-01",
      "maxdate": "1962-03-01",
      "latitude": 34.8,
      "name": "CHOESTOE, GA US",
      "datacoverage": 0.95,
      "id": "COOP:091927",
      "elevationUnit": "METERS",
      "longitude": -83.9
    },
    {
      "elevation": 299,
      "mindate": "1965-03-01",
      "maxdate": "1982-04-01",
      "latitude": 34.96667,
      "name": "CISCO 7 ENE, GA US",
      "datacoverage": 0.051,
      "id": "COOP:091944",
      "elevationUnit": "METERS",
      "longitude": -84.65
    },
    {
      "elevation": 417.6,
      "mindate": "1990-11-01",
      "maxdate": "2015-11-01",
      "latitude": 34.6159,
      "name": "CLARKESVILLE, GA US",
      "datacoverage": 0.9502,
      "id": "COOP:091965",
      "elevationUnit": "METERS",
      "longitude": -83.5429
    },
    {
      "elevation": 57.3,
      "mindate": "1978-07-01",
      "maxdate": "2007-08-01",
      "latitude": 32.16778,
      "name": "CLAXTON, GA US",
      "datacoverage": 0.9543,
      "id": "COOP:091973",
      "elevationUnit": "METERS",
      "longitude": -81.90083
    },
    {
      "elevation": 598.9,
      "mindate": "1931-01-01",
      "maxdate": "2015-11-01",
      "latitude": 34.8879,
      "name": "CLAYTON 1 SSW, GA US",
      "datacoverage": 0.9755,
      "id": "COOP:091982",
      "elevationUnit": "METERS",
      "longitude": -83.3966
    },
    {
      "elevation": 390.4,
      "mindate": "1948-01-01",
      "maxdate": "2007-05-01",
      "latitude": 34.4503,
      "name": "CLERMONT 4 WSW, GA US",
      "datacoverage": 0.6748,
      "id": "COOP:091998",
      "elevationUnit": "METERS",
      "longitude": -83.855
    },
    {
      "elevation": 477.6,
      "mindate": "1943-04-01",
      "maxdate": "2015-11-01",
      "latitude": 34.5859,
      "name": "CLEVELAND, GA US",
      "datacoverage": 0.9897,
      "id": "COOP:092006",
      "elevationUnit": "METERS",
      "longitude": -83.7658
    },
    {
      "elevation": 28,
      "mindate": "1978-07-01",
      "maxdate": "2003-07-01",
      "latitude": 32.53333,
      "name": "CLYO, SC US",
      "datacoverage": 0.6279,
      "id": "COOP:092055",
      "elevationUnit": "METERS",
      "longitude": -81.26667
    },
    {
      "elevation": 114.9,
      "mindate": "2001-12-01",
      "maxdate": "2002-09-01",
      "latitude": 32.42,
      "name": "COCHRAN 3 NE, GA US",
      "datacoverage": 0.9011,
      "id": "COOP:092076",
      "elevationUnit": "METERS",
      "longitude": -83.30889
    },
    {
      "elevation": 46.6,
      "mindate": "1956-03-01",
      "maxdate": "2015-11-01",
      "latitude": 31.16806,
      "name": "COLQUITT 2 W, GA US",
      "datacoverage": 0.9275,
      "id": "COOP:092153",
      "elevationUnit": "METERS",
      "longitude": -84.76639
    },
    {
      "elevation": 132.6,
      "mindate": "1996-01-01",
      "maxdate": "2015-11-01",
      "latitude": 32.5181,
      "name": "COLUMBUS NUMBER 2, GA US",
      "datacoverage": 0.9708,
      "id": "COOP:092159",
      "elevationUnit": "METERS",
      "longitude": -84.9378
    },
    {
      "elevation": 56.4,
      "mindate": "1931-01-01",
      "maxdate": "1965-09-01",
      "latitude": 32.45,
      "name": "COLUMBUS DARDC, GA US",
      "datacoverage": 0.9881,
      "id": "COOP:092161",
      "elevationUnit": "METERS",
      "longitude": -84.98333
    },
    {
      "elevation": 120,
      "mindate": "1948-01-01",
      "maxdate": "2015-11-01",
      "latitude": 32.51625,
      "name": "COLUMBUS METROPOLITAN AIRPORT, GA US",
      "datacoverage": 0.9951,
      "id": "COOP:092166",
      "elevationUnit": "METERS",
      "longitude": -84.94218
    },
    {
      "elevation": 271.3,
      "mindate": "1957-07-01",
      "maxdate": "2015-11-01",
      "latitude": 34.26228,
      "name": "COMMERCE 4 NNW, GA US",
      "datacoverage": 0.9586,
      "id": "COOP:092180",
      "elevationUnit": "METERS",
      "longitude": -83.4897
    },
    {
      "elevation": 253,
      "mindate": "1931-01-01",
      "maxdate": "1975-04-01",
      "latitude": 33.1,
      "name": "CONCORD, GA US",
      "datacoverage": 0.9757,
      "id": "COOP:092198",
      "elevationUnit": "METERS",
      "longitude": -84.43333
    },
    {
      "elevation": 76.2,
      "mindate": "1948-01-01",
      "maxdate": "1991-02-01",
      "latitude": 31.01667,
      "name": "COOLIDGE, GA US",
      "datacoverage": 0.956,
      "id": "COOP:092238",
      "elevationUnit": "METERS",
      "longitude": -83.86667
    },
    {
      "elevation": 580,
      "mindate": "1948-01-01",
      "maxdate": "1970-06-01",
      "latitude": 34.63333,
      "name": "COOPER GAP, GA US",
      "datacoverage": 0.8004,
      "id": "COOP:092246",
      "elevationUnit": "METERS",
      "longitude": -84.05
    },
    {
      "elevation": 93.9,
      "mindate": "1934-07-01",
      "maxdate": "2015-11-01",
      "latitude": 31.985,
      "name": "CORDELE, GA US",
      "datacoverage": 0.9703,
      "id": "COOP:092266",
      "elevationUnit": "METERS",
      "longitude": -83.7747
    },
    {
      "elevation": 448.1,
      "mindate": "1931-01-01",
      "maxdate": "2015-11-01",
      "latitude": 34.5181,
      "name": "CORNELIA, GA US",
      "datacoverage": 0.9755,
      "id": "COOP:092283",
      "elevationUnit": "METERS",
      "longitude": -83.5286
    }
  ]
}
