{
  "metadata": {
    "resultset": {
      "offset": 118500,
      "count": 154115,
      "limit": 100
    }
  },
  "results": [
    {
      "elevation": 173.1,
      "mindate": "2008-05-01",
      "maxdate": "2013-07-21",
      "latitude": 27.68305,
      "name": "LAREDO 18.4 NE, TX US",
      "datacoverage": 0.9839,
      "id": "GHCND:US1TXWB0014",
      "elevationUnit": "METERS",
      "longitude": -99.23717
    },
    {
      "elevation": 139.9,
      "mindate": "2008-09-01",
      "maxdate": "2020-09-06",
      "latitude": 27.4591,
      "name": "LAREDO 5.2 S, TX US",
      "datacoverage": 0.5936,
      "id": "GHCND:US1TXWB0017",
      "elevationUnit": "METERS",
      "longitude": -99.4792
    },
    {
      "elevation": 135.3,
      "mindate": "2008-09-01",
      "maxdate": "2018-08-31",
      "latitude": 27.550971,
      "name": "LAREDO 1.2 N, TX US",
      "datacoverage": 0.6852,
      "id": "GHCND:US1TXWB0018",
      "elevationUnit": "METERS",
      "longitude": -99.490118
    },
    {
      "elevation": 128.9,
      "mindate": "2008-10-01",
      "maxdate": "2017-02-24",
      "latitude": 27.441564,
      "name": "LAREDO 6.4 S PRADA ELEMENTARY SCHOOL, TX US",
      "datacoverage": 0.6334,
      "id": "GHCND:US1TXWB0019",
      "elevationUnit": "METERS",
      "longitude": -99.481993
    },
    {
      "elevation": 171.3,
      "mindate": "2008-11-01",
      "maxdate": "2013-10-14",
      "latitude": 27.596023333,
      "name": "LAREDO 4.5 NNE, TX US",
      "datacoverage": 0.8835,
      "id": "GHCND:US1TXWB0021",
      "elevationUnit": "METERS",
      "longitude": -99.4643
    },
    {
      "elevation": 167.9,
      "mindate": "2009-02-01",
      "maxdate": "2017-10-04",
      "latitude": 27.6497,
      "name": "LAREDO 23.7 ENE, TX US",
      "datacoverage": 1,
      "id": "GHCND:US1TXWB0022",
      "elevationUnit": "METERS",
      "longitude": -99.1217
    },
    {
      "elevation": 159.1,
      "mindate": "2009-01-01",
      "maxdate": "2017-12-17",
      "latitude": 27.6765,
      "name": "FREER 29.5 WSW, TX US",
      "datacoverage": 1,
      "id": "GHCND:US1TXWB0023",
      "elevationUnit": "METERS",
      "longitude": -99.0423
    },
    {
      "elevation": 148.1,
      "mindate": "2009-02-01",
      "maxdate": "2012-07-08",
      "latitude": 27.5806,
      "name": "LAREDO 3.2 N, TX US",
      "datacoverage": 1,
      "id": "GHCND:US1TXWB0024",
      "elevationUnit": "METERS",
      "longitude": -99.4869
    },
    {
      "elevation": 150.9,
      "mindate": "2009-03-01",
      "maxdate": "2013-05-27",
      "latitude": 27.479322,
      "name": "LAREDO 4.3 SSE, TX US",
      "datacoverage": 0.9996,
      "id": "GHCND:US1TXWB0025",
      "elevationUnit": "METERS",
      "longitude": -99.455055
    },
    {
      "elevation": 125,
      "mindate": "2009-02-01",
      "maxdate": "2013-05-25",
      "latitude": 27.502113,
      "name": "LAREDO 2.5 SSW, TX US",
      "datacoverage": 0.9434,
      "id": "GHCND:US1TXWB0026",
      "elevationUnit": "METERS",
      "longitude": -99.504773
    },
    {
      "elevation": 145.1,
      "mindate": "2009-08-01",
      "maxdate": "2020-09-15",
      "latitude": 27.559,
      "name": "LAREDO 2.0 NNE, TX US",
      "datacoverage": 0.85,
      "id": "GHCND:US1TXWB0027",
      "elevationUnit": "METERS",
      "longitude": -99.47
    },
    {
      "elevation": 132,
      "mindate": "2009-08-01",
      "maxdate": "2013-10-17",
      "latitude": 27.5519,
      "name": "LAREDO 1.3 NNW, TX US",
      "datacoverage": 0.9996,
      "id": "GHCND:US1TXWB0028",
      "elevationUnit": "METERS",
      "longitude": -99.495
    },
    {
      "elevation": 125.9,
      "mindate": "2009-09-01",
      "maxdate": "2014-11-05",
      "latitude": 27.5131,
      "name": "LAREDO 2.1 SE, TX US",
      "datacoverage": 0.7145,
      "id": "GHCND:US1TXWB0029",
      "elevationUnit": "METERS",
      "longitude": -99.4627
    },
    {
      "elevation": 157.9,
      "mindate": "2009-10-01",
      "maxdate": "2011-05-19",
      "latitude": 27.584,
      "name": "LAREDO 3.9 NNE, TX US",
      "datacoverage": 1,
      "id": "GHCND:US1TXWB0031",
      "elevationUnit": "METERS",
      "longitude": -99.456
    },
    {
      "elevation": 150,
      "mindate": "2010-05-17",
      "maxdate": "2020-09-15",
      "latitude": 27.629232,
      "name": "LAREDO 7.2 NNW, TX US",
      "datacoverage": 0.0334,
      "id": "GHCND:US1TXWB0034",
      "elevationUnit": "METERS",
      "longitude": -99.533909
    },
    {
      "elevation": 141.7,
      "mindate": "2010-05-01",
      "maxdate": "2014-08-15",
      "latitude": 27.569377,
      "name": "LAREDO 2.4 N, TX US",
      "datacoverage": 0.6918,
      "id": "GHCND:US1TXWB0036",
      "elevationUnit": "METERS",
      "longitude": -99.491642
    },
    {
      "elevation": 132.3,
      "mindate": "2010-05-01",
      "maxdate": "2013-11-07",
      "latitude": 27.52066,
      "name": "LAREDO 1.8 ESE, TX US",
      "datacoverage": 0.8132,
      "id": "GHCND:US1TXWB0037",
      "elevationUnit": "METERS",
      "longitude": -99.46111
    },
    {
      "elevation": 164,
      "mindate": "2011-03-01",
      "maxdate": "2016-06-01",
      "latitude": 27.4523,
      "name": "LAREDO 5.8 SSE CENTENO ELEMENTARY SCHOOL, TX US",
      "datacoverage": 0.3276,
      "id": "GHCND:US1TXWB0038",
      "elevationUnit": "METERS",
      "longitude": -99.4669
    },
    {
      "elevation": 143.9,
      "mindate": "2011-01-01",
      "maxdate": "2013-10-14",
      "latitude": 27.516397,
      "name": "LAREDO 1.5 SE, TX US",
      "datacoverage": 0.998,
      "id": "GHCND:US1TXWB0039",
      "elevationUnit": "METERS",
      "longitude": -99.472857
    },
    {
      "elevation": 158.5,
      "mindate": "2011-04-01",
      "maxdate": "2015-09-12",
      "latitude": 27.581781,
      "name": "LAREDO 3.4 NNE, TX US",
      "datacoverage": 0.8331,
      "id": "GHCND:US1TXWB0040",
      "elevationUnit": "METERS",
      "longitude": -99.473962
    },
    {
      "elevation": 155.1,
      "mindate": "2011-11-01",
      "maxdate": "2025-02-22",
      "latitude": 27.645379,
      "name": "LAREDO 8.4 NNW, TX US",
      "datacoverage": 0.9246,
      "id": "GHCND:US1TXWB0041",
      "elevationUnit": "METERS",
      "longitude": -99.541884
    },
    {
      "elevation": 162.5,
      "mindate": "2011-12-10",
      "maxdate": "2024-10-06",
      "latitude": 27.603024,
      "name": "LAREDO 4.9 NNE, TX US",
      "datacoverage": 0.0337,
      "id": "GHCND:US1TXWB0042",
      "elevationUnit": "METERS",
      "longitude": -99.467353
    },
    {
      "elevation": 132,
      "mindate": "2013-05-01",
      "maxdate": "2023-04-24",
      "latitude": 27.5890407562256,
      "name": "LAREDO 4.5 NNW, TX US",
      "datacoverage": 0.5711,
      "id": "GHCND:US1TXWB0046",
      "elevationUnit": "METERS",
      "longitude": -99.5261459350586
    },
    {
      "elevation": 139.9,
      "mindate": "2013-07-01",
      "maxdate": "2025-02-22",
      "latitude": 27.5697364807129,
      "name": "LAREDO 2.5 N, TX US",
      "datacoverage": 0.9692,
      "id": "GHCND:US1TXWB0047",
      "elevationUnit": "METERS",
      "longitude": -99.4928359985352
    },
    {
      "elevation": 144.5,
      "mindate": "2010-06-01",
      "maxdate": "2025-02-15",
      "latitude": 27.4866409301758,
      "name": "LAREDO 3.7 SSE, TX US",
      "datacoverage": 0.4713,
      "id": "GHCND:US1TXWB0048",
      "elevationUnit": "METERS",
      "longitude": -99.458366394043
    },
    {
      "elevation": 164.6,
      "mindate": "2016-05-17",
      "maxdate": "2020-05-14",
      "latitude": 27.6022815704346,
      "name": "LAREDO 4.8 NNE, TX US",
      "datacoverage": 0.3215,
      "id": "GHCND:US1TXWB0053",
      "elevationUnit": "METERS",
      "longitude": -99.4673080444336
    },
    {
      "elevation": 122.5,
      "mindate": "2019-05-06",
      "maxdate": "2020-09-15",
      "latitude": 27.5065,
      "name": "LAREDO 2.0 SSW, TX US",
      "datacoverage": 0.5692,
      "id": "GHCND:US1TXWB0056",
      "elevationUnit": "METERS",
      "longitude": -99.49726
    },
    {
      "elevation": 258.8,
      "mindate": "2020-09-01",
      "maxdate": "2025-03-07",
      "latitude": 27.275265,
      "name": "HEBBRONVILLE 12.9 WSW WEID RANCH, TX US",
      "datacoverage": 0.9539,
      "id": "GHCND:US1TXWB0058",
      "elevationUnit": "METERS",
      "longitude": -98.886383
    },
    {
      "elevation": 135.3,
      "mindate": "2022-04-26",
      "maxdate": "2025-02-23",
      "latitude": 27.59281,
      "name": "LAREDO 4.9 NW, TX US",
      "datacoverage": 0.9999,
      "id": "GHCND:US1TXWB0060",
      "elevationUnit": "METERS",
      "longitude": -99.530868
    },
    {
      "elevation": 151.8,
      "mindate": "2023-05-05",
      "maxdate": "2024-11-27",
      "latitude": 27.527999,
      "name": "LAREDO 0.9 ESE, TX US",
      "datacoverage": 1,
      "id": "GHCND:US1TXWB0062",
      "elevationUnit": "METERS",
      "longitude": -99.472869
    },
    {
      "elevation": 151.2,
      "mindate": "2023-07-30",
      "maxdate": "2024-08-02",
      "latitude": 27.620781,
      "name": "LAREDO 6.8 NNW, TX US",
      "datacoverage": 0.998,
      "id": "GHCND:US1TXWB0064",
      "elevationUnit": "METERS",
      "longitude": -99.540017
    },
    {
      "elevation": 14,
      "mindate": "2007-04-01",
      "maxdate": "2012-10-25",
      "latitude": 26.402261,
      "name": "LYFORD 0.6 S, TX US",
      "datacoverage": 0.9992,
      "id": "GHCND:US1TXWC0001",
      "elevationUnit": "METERS",
      "longitude": -97.789051
    },
    {
      "elevation": 8.5,
      "mindate": "2011-03-01",
      "maxdate": "2014-09-30",
      "latitude": 26.358021,
      "name": "LYFORD 7.3 ESE, TX US",
      "datacoverage": 0.998,
      "id": "GHCND:US1TXWC0003",
      "elevationUnit": "METERS",
      "longitude": -97.687975
    },
    {
      "elevation": 6.7,
      "mindate": "2011-03-01",
      "maxdate": "2012-07-07",
      "latitude": 26.48282224,
      "name": "RAYMONDVILLE 5.8 E, TX US",
      "datacoverage": 0.9965,
      "id": "GHCND:US1TXWC0004",
      "elevationUnit": "METERS",
      "longitude": -97.68740774
    },
    {
      "elevation": 10.1,
      "mindate": "2013-04-01",
      "maxdate": "2025-02-09",
      "latitude": 26.452045,
      "name": "RAYMONDVILLE 2.0 SSW, TX US",
      "datacoverage": 0.6665,
      "id": "GHCND:US1TXWC0005",
      "elevationUnit": "METERS",
      "longitude": -97.792376
    },
    {
      "elevation": 2.7,
      "mindate": "2018-03-24",
      "maxdate": "2018-09-24",
      "latitude": 26.55077,
      "name": "PORT MANSFIELD 0.6 WSW, TX US",
      "datacoverage": 0.9947,
      "id": "GHCND:US1TXWC0007",
      "elevationUnit": "METERS",
      "longitude": -97.43409
    },
    {
      "elevation": 150.9,
      "mindate": "2009-05-01",
      "maxdate": "2025-03-07",
      "latitude": 32.947033,
      "name": "WINNSBORO 0.7 SSW, TX US",
      "datacoverage": 0.9997,
      "id": "GHCND:US1TXWD0002",
      "elevationUnit": "METERS",
      "longitude": -95.296006
    },
    {
      "elevation": 133.5,
      "mindate": "2013-09-01",
      "maxdate": "2025-03-07",
      "latitude": 32.894885,
      "name": "QUITMAN 6.9 N, TX US",
      "datacoverage": 1,
      "id": "GHCND:US1TXWD0004",
      "elevationUnit": "METERS",
      "longitude": -95.435434
    },
    {
      "elevation": 129.8,
      "mindate": "2013-08-01",
      "maxdate": "2021-01-25",
      "latitude": 32.662885,
      "name": "MINEOLA 1.6 E, TX US",
      "datacoverage": 1,
      "id": "GHCND:US1TXWD0005",
      "elevationUnit": "METERS",
      "longitude": -95.46191667
    },
    {
      "elevation": 137.2,
      "mindate": "2018-04-27",
      "maxdate": "2025-03-07",
      "latitude": 32.629034,
      "name": "HAWKINS 2.6 N, TX US",
      "datacoverage": 0.9769,
      "id": "GHCND:US1TXWD0008",
      "elevationUnit": "METERS",
      "longitude": -95.199085
    },
    {
      "elevation": 134.7,
      "mindate": "2021-04-24",
      "maxdate": "2023-03-22",
      "latitude": 32.698,
      "name": "MINEOLA 3.4 NE, TX US",
      "datacoverage": 0.7034,
      "id": "GHCND:US1TXWD0011",
      "elevationUnit": "METERS",
      "longitude": -95.444
    },
    {
      "elevation": 141.4,
      "mindate": "2023-06-01",
      "maxdate": "2024-02-11",
      "latitude": 32.72236,
      "name": "MINEOLA 4.1 NNW, TX US",
      "datacoverage": 0.998,
      "id": "GHCND:US1TXWD0014",
      "elevationUnit": "METERS",
      "longitude": -95.5102
    },
    {
      "elevation": 118.3,
      "mindate": "2024-04-01",
      "maxdate": "2025-03-07",
      "latitude": 32.69888,
      "name": "MINEOLA 4.1 WNW, TX US",
      "datacoverage": 1,
      "id": "GHCND:US1TXWD0015",
      "elevationUnit": "METERS",
      "longitude": -95.548295
    },
    {
      "elevation": 652.3,
      "mindate": "2015-06-19",
      "maxdate": "2025-03-03",
      "latitude": 35.2758,
      "name": "WHEELER 13.3 SSE, TX US",
      "datacoverage": 0.15,
      "id": "GHCND:US1TXWE0004",
      "elevationUnit": "METERS",
      "longitude": -100.1518
    },
    {
      "elevation": 358.4,
      "mindate": "2017-07-01",
      "maxdate": "2018-03-17",
      "latitude": 34.165514,
      "name": "ELLIOTT 1.2 NNE, TX US",
      "datacoverage": 0.814,
      "id": "GHCND:US1TXWG0002",
      "elevationUnit": "METERS",
      "longitude": -99.041965
    },
    {
      "elevation": 363,
      "mindate": "2018-04-30",
      "maxdate": "2021-04-09",
      "latitude": 34.151486,
      "name": "ELLIOTT 0.3 WNW, TX US",
      "datacoverage": 0.538,
      "id": "GHCND:US1TXWG0004",
      "elevationUnit": "METERS",
      "longitude": -99.05505
    },
    {
      "elevation": 29.9,
      "mindate": "2007-09-01",
      "maxdate": "2025-03-06",
      "latitude": 29.31613,
      "name": "WHARTON 0.3 E, TX US",
      "datacoverage": 1,
      "id": "GHCND:US1TXWH0001",
      "elevationUnit": "METERS",
      "longitude": -96.093434
    },
    {
      "elevation": 26.8,
      "mindate": "2008-02-01",
      "maxdate": "2025-03-04",
      "latitude": 29.12673,
      "name": "EL CAMPO 4.9 SSE, TX US",
      "datacoverage": 1,
      "id": "GHCND:US1TXWH0002",
      "elevationUnit": "METERS",
      "longitude": -96.26024
    },
    {
      "elevation": 30.2,
      "mindate": "2008-07-01",
      "maxdate": "2008-11-03",
      "latitude": 29.297685,
      "name": "WHARTON 2.8 ESE, TX US",
      "datacoverage": 0.9947,
      "id": "GHCND:US1TXWH0003",
      "elevationUnit": "METERS",
      "longitude": -96.057739
    },
    {
      "elevation": 32.3,
      "mindate": "2008-08-01",
      "maxdate": "2022-01-25",
      "latitude": 29.206125,
      "name": "EL CAMPO 1.0 NW, TX US",
      "datacoverage": 1,
      "id": "GHCND:US1TXWH0004",
      "elevationUnit": "METERS",
      "longitude": -96.289001
    },
    {
      "elevation": 34.1,
      "mindate": "2008-11-01",
      "maxdate": "2023-05-31",
      "latitude": 29.184529,
      "name": "EL CAMPO 2.5 WSW, TX US",
      "datacoverage": 0.6294,
      "id": "GHCND:US1TXWH0005",
      "elevationUnit": "METERS",
      "longitude": -96.315626
    },
    {
      "elevation": 35.4,
      "mindate": "2009-05-01",
      "maxdate": "2012-04-12",
      "latitude": 29.508,
      "name": "EAST BERNARD 1.5 SSE, TX US",
      "datacoverage": 0.9998,
      "id": "GHCND:US1TXWH0006",
      "elevationUnit": "METERS",
      "longitude": -96.054
    },
    {
      "elevation": 27.7,
      "mindate": "2010-06-01",
      "maxdate": "2025-02-20",
      "latitude": 29.35413,
      "name": "WHARTON 3.1 NE, TX US",
      "datacoverage": 0.9998,
      "id": "GHCND:US1TXWH0009",
      "elevationUnit": "METERS",
      "longitude": -96.06968
    },
    {
      "elevation": 32.3,
      "mindate": "2011-05-01",
      "maxdate": "2017-03-05",
      "latitude": 29.1981351,
      "name": "EL CAMPO 0.5 ENE, TX US",
      "datacoverage": 0.9993,
      "id": "GHCND:US1TXWH0010",
      "elevationUnit": "METERS",
      "longitude": -96.2676922
    },
    {
      "elevation": 34.4,
      "mindate": "2012-06-01",
      "maxdate": "2025-03-07",
      "latitude": 29.227813,
      "name": "EL CAMPO 2.7 NW, TX US",
      "datacoverage": 1,
      "id": "GHCND:US1TXWH0011",
      "elevationUnit": "METERS",
      "longitude": -96.302022
    },
    {
      "elevation": 33.5,
      "mindate": "2012-07-01",
      "maxdate": "2017-04-18",
      "latitude": 29.3533692508936,
      "name": "WHARTON 3.9 NW, TX US",
      "datacoverage": 0.9331,
      "id": "GHCND:US1TXWH0015",
      "elevationUnit": "METERS",
      "longitude": -96.1476746946573
    },
    {
      "elevation": 30.5,
      "mindate": "2012-07-01",
      "maxdate": "2025-01-06",
      "latitude": 29.309902,
      "name": "WHARTON 1.4 ESE, TX US",
      "datacoverage": 0.9998,
      "id": "GHCND:US1TXWH0016",
      "elevationUnit": "METERS",
      "longitude": -96.077375
    },
    {
      "elevation": 32.9,
      "mindate": "2016-03-07",
      "maxdate": "2019-06-29",
      "latitude": 29.417772,
      "name": "EAST BERNARD 7.6 S, TX US",
      "datacoverage": 1,
      "id": "GHCND:US1TXWH0018",
      "elevationUnit": "METERS",
      "longitude": -96.05768
    },
    {
      "elevation": 88.1,
      "mindate": "2009-04-01",
      "maxdate": "2016-11-07",
      "latitude": 30.769511,
      "name": "HUNTSVILLE 4.5 NNW, TX US",
      "datacoverage": 1,
      "id": "GHCND:US1TXWK0002",
      "elevationUnit": "METERS",
      "longitude": -95.58414
    },
    {
      "elevation": 102.4,
      "mindate": "2009-05-01",
      "maxdate": "2025-03-07",
      "latitude": 30.625567,
      "name": "HUNTSVILLE 11.5 WSW, TX US",
      "datacoverage": 0.9997,
      "id": "GHCND:US1TXWK0003",
      "elevationUnit": "METERS",
      "longitude": -95.71475
    },
    {
      "elevation": 72.8,
      "mindate": "2009-07-01",
      "maxdate": "2015-04-16",
      "latitude": 30.8194,
      "name": "HUNTSVILLE 12.3 NE, TX US",
      "datacoverage": 1,
      "id": "GHCND:US1TXWK0004",
      "elevationUnit": "METERS",
      "longitude": -95.3851
    },
    {
      "elevation": 118.6,
      "mindate": "2011-04-01",
      "maxdate": "2022-08-31",
      "latitude": 30.702,
      "name": "HUNTSVILLE 2.8 WSW, TX US",
      "datacoverage": 0.9996,
      "id": "GHCND:US1TXWK0005",
      "elevationUnit": "METERS",
      "longitude": -95.596
    },
    {
      "elevation": 86.3,
      "mindate": "2011-05-01",
      "maxdate": "2017-06-05",
      "latitude": 30.77926,
      "name": "HUNTSVILLE 8.7 WNW, TX US",
      "datacoverage": 0.9965,
      "id": "GHCND:US1TXWK0007",
      "elevationUnit": "METERS",
      "longitude": -95.67437
    },
    {
      "elevation": 50.9,
      "mindate": "2012-11-01",
      "maxdate": "2014-07-18",
      "latitude": 30.9424,
      "name": "TRINITY 4.0 W, TX US",
      "datacoverage": 1,
      "id": "GHCND:US1TXWK0009",
      "elevationUnit": "METERS",
      "longitude": -95.4404
    },
    {
      "elevation": 96,
      "mindate": "2013-01-01",
      "maxdate": "2015-06-23",
      "latitude": 30.68758333,
      "name": "HUNTSVILLE 11.3 W, TX US",
      "datacoverage": 1,
      "id": "GHCND:US1TXWK0010",
      "elevationUnit": "METERS",
      "longitude": -95.73744444
    },
    {
      "elevation": 102.1,
      "mindate": "2013-01-01",
      "maxdate": "2017-08-30",
      "latitude": 30.54033333,
      "name": "NEW WAVERLY 2.6 E, TX US",
      "datacoverage": 0.8617,
      "id": "GHCND:US1TXWK0011",
      "elevationUnit": "METERS",
      "longitude": -95.4385
    },
    {
      "elevation": 112.2,
      "mindate": "2013-02-01",
      "maxdate": "2018-08-26",
      "latitude": 30.7586630433798,
      "name": "HUNTSVILLE 3.6 NNW, TX US",
      "datacoverage": 1,
      "id": "GHCND:US1TXWK0012",
      "elevationUnit": "METERS",
      "longitude": -95.5759605020285
    },
    {
      "elevation": 89,
      "mindate": "2013-02-01",
      "maxdate": "2025-03-06",
      "latitude": 30.775136500597,
      "name": "HUNTSVILLE 4.8 NNW, TX US",
      "datacoverage": 1,
      "id": "GHCND:US1TXWK0013",
      "elevationUnit": "METERS",
      "longitude": -95.5834519118071
    },
    {
      "elevation": 66.8,
      "mindate": "2013-03-01",
      "maxdate": "2019-11-22",
      "latitude": 30.851542,
      "name": "HUNTSVILLE 10.4 NNE, TX US",
      "datacoverage": 0.9993,
      "id": "GHCND:US1TXWK0014",
      "elevationUnit": "METERS",
      "longitude": -95.48246
    },
    {
      "elevation": 113.4,
      "mindate": "2013-04-01",
      "maxdate": "2024-07-26",
      "latitude": 30.72284833,
      "name": "DODGE 1.6 S, TX US",
      "datacoverage": 0.9998,
      "id": "GHCND:US1TXWK0015",
      "elevationUnit": "METERS",
      "longitude": -95.40165167
    },
    {
      "elevation": 102.1,
      "mindate": "2013-08-01",
      "maxdate": "2015-01-05",
      "latitude": 30.68611111,
      "name": "HUNTSVILLE 13.9 W, TX US",
      "datacoverage": 0.7207,
      "id": "GHCND:US1TXWK0016",
      "elevationUnit": "METERS",
      "longitude": -95.78194444
    },
    {
      "elevation": 142.3,
      "mindate": "2013-07-01",
      "maxdate": "2025-02-15",
      "latitude": 30.695361,
      "name": "HUNTSVILLE 1.3 SSE, TX US",
      "datacoverage": 0.9995,
      "id": "GHCND:US1TXWK0018",
      "elevationUnit": "METERS",
      "longitude": -95.540406
    },
    {
      "elevation": 103.9,
      "mindate": "2013-08-01",
      "maxdate": "2015-06-03",
      "latitude": 30.748447,
      "name": "HUNTSVILLE 5.5 WNW, TX US",
      "datacoverage": 1,
      "id": "GHCND:US1TXWK0019",
      "elevationUnit": "METERS",
      "longitude": -95.632092
    },
    {
      "elevation": 148.7,
      "mindate": "2014-02-01",
      "maxdate": "2021-05-17",
      "latitude": 30.68222222,
      "name": "HUNTSVILLE 2.8 SE, TX US",
      "datacoverage": 1,
      "id": "GHCND:US1TXWK0020",
      "elevationUnit": "METERS",
      "longitude": -95.5175
    },
    {
      "elevation": 70.4,
      "mindate": "2014-07-01",
      "maxdate": "2019-01-23",
      "latitude": 30.856037,
      "name": "RIVERSIDE 2.0 WNW, TX US",
      "datacoverage": 0.9991,
      "id": "GHCND:US1TXWK0021",
      "elevationUnit": "METERS",
      "longitude": -95.43094
    },
    {
      "elevation": 128.9,
      "mindate": "2016-10-20",
      "maxdate": "2020-08-17",
      "latitude": 30.679,
      "name": "HUNTSVILLE 2.3 S, TX US",
      "datacoverage": 1,
      "id": "GHCND:US1TXWK0025",
      "elevationUnit": "METERS",
      "longitude": -95.555
    },
    {
      "elevation": 121.9,
      "mindate": "2017-04-23",
      "maxdate": "2024-02-11",
      "latitude": 30.683056,
      "name": "HUNTSVILLE 7.1 ESE, TX US",
      "datacoverage": 0.987,
      "id": "GHCND:US1TXWK0026",
      "elevationUnit": "METERS",
      "longitude": -95.435278
    },
    {
      "elevation": 54.9,
      "mindate": "2020-09-01",
      "maxdate": "2025-03-06",
      "latitude": 30.8239,
      "name": "HUNTSVILLE 8.7 NNE, TX US",
      "datacoverage": 0.7638,
      "id": "GHCND:US1TXWK0028",
      "elevationUnit": "METERS",
      "longitude": -95.48376
    },
    {
      "elevation": 112.2,
      "mindate": "1998-06-17",
      "maxdate": "2025-03-03",
      "latitude": 30.608048,
      "name": "HUNTSVILLE 7.2 S, TX US",
      "datacoverage": 0.6385,
      "id": "GHCND:US1TXWK0029",
      "elevationUnit": "METERS",
      "longitude": -95.5453
    },
    {
      "elevation": 117.7,
      "mindate": "2022-05-01",
      "maxdate": "2025-03-06",
      "latitude": 30.64367,
      "name": "HUNTSVILLE 4.7 S, TX US",
      "datacoverage": 0.9999,
      "id": "GHCND:US1TXWK0031",
      "elevationUnit": "METERS",
      "longitude": -95.54865
    },
    {
      "elevation": 115.5,
      "mindate": "2022-08-01",
      "maxdate": "2025-03-07",
      "latitude": 30.731108,
      "name": "HUNTSVILLE 1.9 NW, TX US",
      "datacoverage": 0.936,
      "id": "GHCND:US1TXWK0032",
      "elevationUnit": "METERS",
      "longitude": -95.573662
    },
    {
      "elevation": 98.5,
      "mindate": "2024-05-15",
      "maxdate": "2024-10-09",
      "latitude": 30.617497,
      "name": "HUNTSVILLE 6.7 SSE, TX US",
      "datacoverage": 0.9925,
      "id": "GHCND:US1TXWK0037",
      "elevationUnit": "METERS",
      "longitude": -95.522497
    },
    {
      "elevation": 53.9,
      "mindate": "2011-09-01",
      "maxdate": "2014-10-03",
      "latitude": 29.86875,
      "name": "BROOKSHIRE 6.3 NNW, TX US",
      "datacoverage": 0.8455,
      "id": "GHCND:US1TXWL0001",
      "elevationUnit": "METERS",
      "longitude": -95.98777
    },
    {
      "elevation": 71.6,
      "mindate": "2012-08-01",
      "maxdate": "2015-12-04",
      "latitude": 30.1382007598877,
      "name": "HEMPSTEAD 3.4 NNW, TX US",
      "datacoverage": 0.9999,
      "id": "GHCND:US1TXWL0004",
      "elevationUnit": "METERS",
      "longitude": -96.105094909668
    },
    {
      "elevation": 80.8,
      "mindate": "2012-07-01",
      "maxdate": "2013-10-30",
      "latitude": 30.1668329536915,
      "name": "HOCKLEY 9.6 N, TX US",
      "datacoverage": 1,
      "id": "GHCND:US1TXWL0007",
      "elevationUnit": "METERS",
      "longitude": -95.8466302603483
    },
    {
      "elevation": 46.9,
      "mindate": "1998-06-01",
      "maxdate": "2018-11-17",
      "latitude": 29.8728923499584,
      "name": "BROOKSHIRE 6.9 NNW, TX US",
      "datacoverage": 0.2584,
      "id": "GHCND:US1TXWL0009",
      "elevationUnit": "METERS",
      "longitude": -96.0029789060354
    },
    {
      "elevation": 243.8,
      "mindate": "2006-03-01",
      "maxdate": "2025-02-24",
      "latitude": 30.650374,
      "name": "GEORGETOWN 1.2 W, TX US",
      "datacoverage": 0.9997,
      "id": "GHCND:US1TXWM0001",
      "elevationUnit": "METERS",
      "longitude": -97.706937
    },
    {
      "elevation": 203,
      "mindate": "2006-05-01",
      "maxdate": "2007-01-24",
      "latitude": 30.525475,
      "name": "ROUND ROCK 3.5 E, TX US",
      "datacoverage": 0.9947,
      "id": "GHCND:US1TXWM0003",
      "elevationUnit": "METERS",
      "longitude": -97.614625
    },
    {
      "elevation": 235.9,
      "mindate": "2007-02-01",
      "maxdate": "2021-12-02",
      "latitude": 30.651553,
      "name": "GEORGETOWN 1.3 WNW, TX US",
      "datacoverage": 0.9912,
      "id": "GHCND:US1TXWM0004",
      "elevationUnit": "METERS",
      "longitude": -97.706978
    },
    {
      "elevation": 260.9,
      "mindate": "2007-04-01",
      "maxdate": "2008-12-28",
      "latitude": 30.45375,
      "name": "JOLLYVILLE 0.3 NNW, TX US",
      "datacoverage": 0.9972,
      "id": "GHCND:US1TXWM0007",
      "elevationUnit": "METERS",
      "longitude": -97.752095
    },
    {
      "elevation": 216.1,
      "mindate": "2007-05-01",
      "maxdate": "2018-06-04",
      "latitude": 30.5486,
      "name": "ROUND ROCK 3.6 ENE, TX US",
      "datacoverage": 0.9992,
      "id": "GHCND:US1TXWM0009",
      "elevationUnit": "METERS",
      "longitude": -97.6261
    },
    {
      "elevation": 247.5,
      "mindate": "2007-07-01",
      "maxdate": "2018-10-17",
      "latitude": 30.724344,
      "name": "GEORGETOWN 5.5 NNW, TX US",
      "datacoverage": 0.9901,
      "id": "GHCND:US1TXWM0010",
      "elevationUnit": "METERS",
      "longitude": -97.709996
    },
    {
      "elevation": 234.1,
      "mindate": "2007-07-01",
      "maxdate": "2017-06-02",
      "latitude": 30.654638,
      "name": "GEORGETOWN 0.5 N, TX US",
      "datacoverage": 0.3152,
      "id": "GHCND:US1TXWM0011",
      "elevationUnit": "METERS",
      "longitude": -97.686728
    },
    {
      "elevation": 228.9,
      "mindate": "2007-07-01",
      "maxdate": "2014-02-08",
      "latitude": 30.5047,
      "name": "PFLUGERVILLE 4.7 NNE, TX US",
      "datacoverage": 1,
      "id": "GHCND:US1TXWM0012",
      "elevationUnit": "METERS",
      "longitude": -97.5937
    },
    {
      "elevation": 315.8,
      "mindate": "2007-08-01",
      "maxdate": "2025-03-06",
      "latitude": 30.580972,
      "name": "LEANDER 1.6 NW, TX US",
      "datacoverage": 0.9987,
      "id": "GHCND:US1TXWM0013",
      "elevationUnit": "METERS",
      "longitude": -97.876524
    },
    {
      "elevation": 274,
      "mindate": "2007-08-01",
      "maxdate": "2017-12-07",
      "latitude": 30.4933,
      "name": "BRUSHY CREEK 2.3 SW, TX US",
      "datacoverage": 0.8133,
      "id": "GHCND:US1TXWM0014",
      "elevationUnit": "METERS",
      "longitude": -97.76998
    },
    {
      "elevation": 303.9,
      "mindate": "2007-08-01",
      "maxdate": "2019-10-12",
      "latitude": 30.4779,
      "name": "CEDAR PARK 2.7 SSW, TX US",
      "datacoverage": 0.9998,
      "id": "GHCND:US1TXWM0016",
      "elevationUnit": "METERS",
      "longitude": -97.8474
    },
    {
      "elevation": 155.4,
      "mindate": "2007-08-01",
      "maxdate": "2024-11-05",
      "latitude": 30.497442,
      "name": "TAYLOR 8.5 SE, TX US",
      "datacoverage": 0.6441,
      "id": "GHCND:US1TXWM0017",
      "elevationUnit": "METERS",
      "longitude": -97.296904
    },
    {
      "elevation": 262.1,
      "mindate": "2007-10-01",
      "maxdate": "2009-10-27",
      "latitude": 30.545708,
      "name": "BRUSHY CREEK 2.2 N, TX US",
      "datacoverage": 0.719,
      "id": "GHCND:US1TXWM0018",
      "elevationUnit": "METERS",
      "longitude": -97.743037
    },
    {
      "elevation": 274.3,
      "mindate": "2007-10-01",
      "maxdate": "2014-05-27",
      "latitude": 30.820059,
      "name": "JARRELL 0.3 S, TX US",
      "datacoverage": 0.725,
      "id": "GHCND:US1TXWM0021",
      "elevationUnit": "METERS",
      "longitude": -97.605882
    }
  ]
}
