{
  "metadata": {
    "resultset": {
      "offset": 75900,
      "count": 154115,
      "limit": 100
    }
  },
  "results": [
    {
      "elevation": 1079.9,
      "mindate": "2006-07-01",
      "maxdate": "2025-02-26",
      "latitude": 42.8153,
      "name": "GORDON 5.3 E, NE US",
      "datacoverage": 0.9998,
      "id": "GHCND:US10sher001",
      "elevationUnit": "METERS",
      "longitude": -102.1032
    },
    {
      "elevation": 1179,
      "mindate": "2007-03-01",
      "maxdate": "2014-09-26",
      "latitude": 42.6869,
      "name": "HAY SPRINGS 3.4 W, NE US",
      "datacoverage": 0.6481,
      "id": "GHCND:US10sher002",
      "elevationUnit": "METERS",
      "longitude": -102.7552
    },
    {
      "elevation": 1104.9,
      "mindate": "2006-07-01",
      "maxdate": "2014-12-28",
      "latitude": 42.535,
      "name": "RUSHVILLE 12.7 S, NE US",
      "datacoverage": 0.8722,
      "id": "GHCND:US10sher003",
      "elevationUnit": "METERS",
      "longitude": -102.4789
    },
    {
      "elevation": 1140,
      "mindate": "2006-10-01",
      "maxdate": "2008-05-06",
      "latitude": 42.7134,
      "name": "RUSHVILLE 0.3 S, NE US",
      "datacoverage": 1,
      "id": "GHCND:US10sher004",
      "elevationUnit": "METERS",
      "longitude": -102.4657
    },
    {
      "elevation": 1154.9,
      "mindate": "2006-10-01",
      "maxdate": "2025-03-06",
      "latitude": 42.6149,
      "name": "RUSHVILLE 7.3 SSW, NE US",
      "datacoverage": 1,
      "id": "GHCND:US10sher005",
      "elevationUnit": "METERS",
      "longitude": -102.4964
    },
    {
      "elevation": 1057,
      "mindate": "2006-11-01",
      "maxdate": "2009-10-12",
      "latitude": 42.6474,
      "name": "GORDON 10.9 S, NE US",
      "datacoverage": 0.8887,
      "id": "GHCND:US10sher006",
      "elevationUnit": "METERS",
      "longitude": -102.1995
    },
    {
      "elevation": 1156.1,
      "mindate": "2006-11-01",
      "maxdate": "2017-05-10",
      "latitude": 42.6001,
      "name": "HAY SPRINGS 9.0 ESE, NE US",
      "datacoverage": 0.9819,
      "id": "GHCND:US10sher007",
      "elevationUnit": "METERS",
      "longitude": -102.5571
    },
    {
      "elevation": 1200,
      "mindate": "2006-12-01",
      "maxdate": "2021-09-12",
      "latitude": 42.3789,
      "name": "LAKESIDE 22.5 NNE, NE US",
      "datacoverage": 0.3288,
      "id": "GHCND:US10sher010",
      "elevationUnit": "METERS",
      "longitude": -102.3589
    },
    {
      "elevation": 1124.1,
      "mindate": "2007-01-01",
      "maxdate": "2015-02-17",
      "latitude": 42.9809,
      "name": "GORDON 13.6 NNW, NE US",
      "datacoverage": 0.9802,
      "id": "GHCND:US10sher011",
      "elevationUnit": "METERS",
      "longitude": -102.3209
    },
    {
      "elevation": 1195.1,
      "mindate": "2007-02-01",
      "maxdate": "2011-07-07",
      "latitude": 42.3371,
      "name": "ALLIANCE 25.1 ENE, NE US",
      "datacoverage": 1,
      "id": "GHCND:US10sher012",
      "elevationUnit": "METERS",
      "longitude": -102.5072
    },
    {
      "elevation": 1175,
      "mindate": "2007-03-01",
      "maxdate": "2009-01-11",
      "latitude": 42.4377,
      "name": "HAY SPRINGS 18.9 SSE, NE US",
      "datacoverage": 0.9525,
      "id": "GHCND:US10sher013",
      "elevationUnit": "METERS",
      "longitude": -102.5322
    },
    {
      "elevation": 1227.1,
      "mindate": "2007-05-01",
      "maxdate": "2012-05-25",
      "latitude": 42.7966,
      "name": "HAY SPRINGS 7.8 N, NE US",
      "datacoverage": 0.6225,
      "id": "GHCND:US10sher014",
      "elevationUnit": "METERS",
      "longitude": -102.6972
    },
    {
      "elevation": 1157,
      "mindate": "2007-06-01",
      "maxdate": "2010-10-11",
      "latitude": 42.4489,
      "name": "HAY SPRINGS 16.2 S, NE US",
      "datacoverage": 0.6823,
      "id": "GHCND:US10sher015",
      "elevationUnit": "METERS",
      "longitude": -102.6948
    },
    {
      "elevation": 1057,
      "mindate": "2007-09-01",
      "maxdate": "2016-12-24",
      "latitude": 42.9929,
      "name": "RUSHVILLE 18.9 N, NE US",
      "datacoverage": 1,
      "id": "GHCND:US10sher017",
      "elevationUnit": "METERS",
      "longitude": -102.4713
    },
    {
      "elevation": 1143,
      "mindate": "2007-12-01",
      "maxdate": "2017-05-09",
      "latitude": 42.4565,
      "name": "HAY SPRINGS 15.9 S, NE US",
      "datacoverage": 0.9995,
      "id": "GHCND:US10sher018",
      "elevationUnit": "METERS",
      "longitude": -102.6458
    },
    {
      "elevation": 1161.9,
      "mindate": "2008-02-01",
      "maxdate": "2019-12-31",
      "latitude": 42.6743,
      "name": "RUSHVILLE 5.3 ESE, NE US",
      "datacoverage": 1,
      "id": "GHCND:US10sher019",
      "elevationUnit": "METERS",
      "longitude": -102.3829
    },
    {
      "mindate": "2009-06-01",
      "maxdate": "2025-03-07",
      "latitude": 42.5046,
      "name": "HAY SPRINGS 13.9 SE, NE US",
      "datacoverage": 0.9999,
      "id": "GHCND:US10sher021",
      "longitude": -102.5666
    },
    {
      "mindate": "2011-07-01",
      "maxdate": "2014-10-27",
      "latitude": 42.2297,
      "name": "ALLIANCE 19.2 ENE, NE US",
      "datacoverage": 0.9738,
      "id": "GHCND:US10sher022",
      "longitude": -102.547
    },
    {
      "mindate": "2011-08-01",
      "maxdate": "2021-09-27",
      "latitude": 42.873972,
      "name": "RUSHVILLE 11.6 NNW, NE US",
      "datacoverage": 0.9604,
      "id": "GHCND:US10sher023",
      "longitude": -102.547083
    },
    {
      "mindate": "2011-09-01",
      "maxdate": "2025-03-07",
      "latitude": 42.7891927551467,
      "name": "GORDON 4.9 W, NE US",
      "datacoverage": 1,
      "id": "GHCND:US10sher026",
      "longitude": -102.295417785645
    },
    {
      "mindate": "2012-04-01",
      "maxdate": "2015-06-18",
      "latitude": 42.595997,
      "name": "HAY SPRINGS 6.2 SSW, NE US",
      "datacoverage": 0.9239,
      "id": "GHCND:US10sher027",
      "longitude": -102.713048
    },
    {
      "mindate": "2012-06-01",
      "maxdate": "2024-12-16",
      "latitude": 42.759836,
      "name": "CLINTON 0.0 ESE, NE US",
      "datacoverage": 1,
      "id": "GHCND:US10sher028",
      "longitude": -102.349134
    },
    {
      "mindate": "2012-07-01",
      "maxdate": "2024-11-09",
      "latitude": 42.49776,
      "name": "HAY SPRINGS 13.1 SSW, NE US",
      "datacoverage": 0.5999,
      "id": "GHCND:US10sher029",
      "longitude": -102.741332
    },
    {
      "mindate": "2013-09-01",
      "maxdate": "2024-08-20",
      "latitude": 42.508248,
      "name": "HAY SPRINGS 12.3 SSW, NE US",
      "datacoverage": 1,
      "id": "GHCND:US10sher030",
      "longitude": -102.734115
    },
    {
      "mindate": "2013-09-01",
      "maxdate": "2025-03-07",
      "latitude": 42.73136,
      "name": "GORDON 8.0 ESE, NE US",
      "datacoverage": 1,
      "id": "GHCND:US10sher031",
      "longitude": -102.0857
    },
    {
      "mindate": "2013-09-01",
      "maxdate": "2025-03-07",
      "latitude": 42.711976,
      "name": "RUSHVILLE 0.4 S, NE US",
      "datacoverage": 1,
      "id": "GHCND:US10sher032",
      "longitude": -102.463741
    },
    {
      "mindate": "2014-01-01",
      "maxdate": "2024-10-26",
      "latitude": 42.356102,
      "name": "LAKESIDE 21.7 NNE, NE US",
      "datacoverage": 1,
      "id": "GHCND:US10sher033",
      "longitude": -102.301276
    },
    {
      "mindate": "2014-06-11",
      "maxdate": "2024-11-10",
      "latitude": 42.684076,
      "name": "HAY SPRINGS 3.4 E, NE US",
      "datacoverage": 0.998,
      "id": "GHCND:US10sher034",
      "longitude": -102.625651
    },
    {
      "mindate": "2014-09-30",
      "maxdate": "2024-11-11",
      "latitude": 42.700068,
      "name": "GORDON 7.2 S, NE US",
      "datacoverage": 0.5476,
      "id": "GHCND:US10sher035",
      "longitude": -102.203257
    },
    {
      "mindate": "2014-07-01",
      "maxdate": "2025-03-04",
      "latitude": 42.959068,
      "name": "GORDON 12.6 NW, NE US",
      "datacoverage": 0.9995,
      "id": "GHCND:US10sher036",
      "longitude": -102.3345807
    },
    {
      "elevation": 1253.9,
      "mindate": "2004-07-01",
      "maxdate": "2017-11-08",
      "latitude": 42.0008,
      "name": "MITCHELL 4.7 NNW, NE US",
      "datacoverage": 0.9993,
      "id": "GHCND:US10siou001",
      "elevationUnit": "METERS",
      "longitude": -103.848
    },
    {
      "elevation": 1439.9,
      "mindate": "2007-06-01",
      "maxdate": "2025-03-04",
      "latitude": 42.5945,
      "name": "HARRISON 6.4 S, NE US",
      "datacoverage": 0.9341,
      "id": "GHCND:US10siou002",
      "elevationUnit": "METERS",
      "longitude": -103.8679
    },
    {
      "elevation": 1125,
      "mindate": "2008-06-01",
      "maxdate": "2015-11-05",
      "latitude": 42.9256,
      "name": "HARRISON 17.3 NNE, NE US",
      "datacoverage": 0.5779,
      "id": "GHCND:US10siou004",
      "elevationUnit": "METERS",
      "longitude": -103.7785
    },
    {
      "mindate": "2012-07-01",
      "maxdate": "2016-03-22",
      "latitude": 42.35791,
      "name": "HARRISON 23.7 SSE, NE US",
      "datacoverage": 0.9998,
      "id": "GHCND:US10siou005",
      "longitude": -103.754711
    },
    {
      "mindate": "2012-07-01",
      "maxdate": "2016-05-09",
      "latitude": 42.556368,
      "name": "CRAWFORD 11.5 SW, NE US",
      "datacoverage": 0.8746,
      "id": "GHCND:US10siou006",
      "longitude": -103.555927
    },
    {
      "elevation": 483.1,
      "mindate": "2006-06-01",
      "maxdate": "2023-06-11",
      "latitude": 41.8329,
      "name": "MADISON 5.5 E, NE US",
      "datacoverage": 0.8898,
      "id": "GHCND:US10stan002",
      "elevationUnit": "METERS",
      "longitude": -97.3505
    },
    {
      "elevation": 445.9,
      "mindate": "2006-06-01",
      "maxdate": "2010-09-23",
      "latitude": 41.9435,
      "name": "STANTON 0.5 S, NE US",
      "datacoverage": 0.9998,
      "id": "GHCND:US10stan003",
      "elevationUnit": "METERS",
      "longitude": -97.2253
    },
    {
      "elevation": 427.9,
      "mindate": "2006-06-01",
      "maxdate": "2014-07-01",
      "latitude": 42.0102,
      "name": "PILGER 0.1 NNE, NE US",
      "datacoverage": 0.9898,
      "id": "GHCND:US10stan006",
      "elevationUnit": "METERS",
      "longitude": -97.0536
    },
    {
      "elevation": 481.9,
      "mindate": "2006-06-01",
      "maxdate": "2011-04-25",
      "latitude": 41.7436,
      "name": "LEIGH 7.2 WNW, NE US",
      "datacoverage": 0.5257,
      "id": "GHCND:US10stan007",
      "elevationUnit": "METERS",
      "longitude": -97.3677
    },
    {
      "elevation": 477.9,
      "mindate": "2006-08-01",
      "maxdate": "2024-11-19",
      "latitude": 41.9903,
      "name": "STANTON 2.9 NNW, NE US",
      "datacoverage": 0.558,
      "id": "GHCND:US10stan008",
      "elevationUnit": "METERS",
      "longitude": -97.2415
    },
    {
      "elevation": 497.1,
      "mindate": "2006-07-01",
      "maxdate": "2017-05-11",
      "latitude": 42.0404,
      "name": "STANTON 6.4 NNE, NE US",
      "datacoverage": 0.9995,
      "id": "GHCND:US10stan009",
      "elevationUnit": "METERS",
      "longitude": -97.1974
    },
    {
      "elevation": 480.1,
      "mindate": "2006-08-01",
      "maxdate": "2007-03-28",
      "latitude": 41.8815,
      "name": "STANTON 4.9 SSE, NE US",
      "datacoverage": 1,
      "id": "GHCND:US10stan010",
      "elevationUnit": "METERS",
      "longitude": -97.1996
    },
    {
      "elevation": 459.9,
      "mindate": "2006-08-01",
      "maxdate": "2017-10-07",
      "latitude": 41.9157,
      "name": "STANTON 5.6 WSW, NE US",
      "datacoverage": 0.9986,
      "id": "GHCND:US10stan011",
      "elevationUnit": "METERS",
      "longitude": -97.3219
    },
    {
      "elevation": 491.9,
      "mindate": "2006-10-01",
      "maxdate": "2020-09-11",
      "latitude": 41.9034,
      "name": "PILGER 7.4 SSE, NE US",
      "datacoverage": 0.776,
      "id": "GHCND:US10stan012",
      "elevationUnit": "METERS",
      "longitude": -97.0334
    },
    {
      "mindate": "2013-09-01",
      "maxdate": "2024-08-30",
      "latitude": 41.9513,
      "name": "STANTON 2.1 W, NE US",
      "datacoverage": 0.6303,
      "id": "GHCND:US10stan013",
      "longitude": -97.2643
    },
    {
      "mindate": "2013-09-01",
      "maxdate": "2014-04-14",
      "latitude": 41.9599,
      "name": "NORFOLK 5.5 SE, NE US",
      "datacoverage": 1,
      "id": "GHCND:US10stan014",
      "longitude": -97.36441667
    },
    {
      "elevation": 508.1,
      "mindate": "2004-04-01",
      "maxdate": "2017-10-06",
      "latitude": 40.3128,
      "name": "DAVENPORT 0.1 W, NE US",
      "datacoverage": 1,
      "id": "GHCND:US10thay001",
      "elevationUnit": "METERS",
      "longitude": -97.8135
    },
    {
      "mindate": "2004-01-01",
      "maxdate": "2006-05-05",
      "latitude": 40.0717,
      "name": "HEBRON 6.6 S, NE US",
      "datacoverage": 0.9554,
      "id": "GHCND:US10thay002",
      "longitude": -97.5924
    },
    {
      "elevation": 479.1,
      "mindate": "2004-05-01",
      "maxdate": "2017-01-19",
      "latitude": 40.3056,
      "name": "CARLETON 2.2 E, NE US",
      "datacoverage": 0.9929,
      "id": "GHCND:US10thay003",
      "elevationUnit": "METERS",
      "longitude": -97.637
    },
    {
      "elevation": 448.1,
      "mindate": "2004-05-01",
      "maxdate": "2011-07-26",
      "latitude": 40.1578,
      "name": "HEBRON 0.8 SW, NE US",
      "datacoverage": 1,
      "id": "GHCND:US10thay004",
      "elevationUnit": "METERS",
      "longitude": -97.595
    },
    {
      "elevation": 484.9,
      "mindate": "2004-05-01",
      "maxdate": "2008-11-09",
      "latitude": 40.3144,
      "name": "BRUNING 2.0 SW, NE US",
      "datacoverage": 0.5451,
      "id": "GHCND:US10thay005",
      "elevationUnit": "METERS",
      "longitude": -97.5925
    },
    {
      "elevation": 481.9,
      "mindate": "2004-05-01",
      "maxdate": "2024-12-31",
      "latitude": 40.0776,
      "name": "DESHLER 4.7 SSW, NE US",
      "datacoverage": 0.8461,
      "id": "GHCND:US10thay006",
      "elevationUnit": "METERS",
      "longitude": -97.7571
    },
    {
      "elevation": 491,
      "mindate": "2004-05-01",
      "maxdate": "2025-02-20",
      "latitude": 40.2377,
      "name": "DAVENPORT 6.0 SE, NE US",
      "datacoverage": 0.9992,
      "id": "GHCND:US10thay007",
      "elevationUnit": "METERS",
      "longitude": -97.7531
    },
    {
      "elevation": 502.9,
      "mindate": "2004-05-01",
      "maxdate": "2022-08-16",
      "latitude": 40.3135,
      "name": "DAVENPORT 0.5 E, NE US",
      "datacoverage": 0.8213,
      "id": "GHCND:US10thay008",
      "elevationUnit": "METERS",
      "longitude": -97.8026
    },
    {
      "elevation": 434.9,
      "mindate": "2004-05-01",
      "maxdate": "2008-04-05",
      "latitude": 40.2462,
      "name": "ALEXANDRIA 0.1 WNW, NE US",
      "datacoverage": 1,
      "id": "GHCND:US10thay009",
      "elevationUnit": "METERS",
      "longitude": -97.3917
    },
    {
      "elevation": 456,
      "mindate": "2004-05-01",
      "maxdate": "2024-11-05",
      "latitude": 40.3503,
      "name": "TOBIAS 5.0 SSW, NE US",
      "datacoverage": 0.6159,
      "id": "GHCND:US10thay010",
      "elevationUnit": "METERS",
      "longitude": -97.3685
    },
    {
      "elevation": 488.9,
      "mindate": "2004-05-01",
      "maxdate": "2025-02-18",
      "latitude": 40.0469,
      "name": "CHESTER 3.4 NE, NE US",
      "datacoverage": 0.9999,
      "id": "GHCND:US10thay011",
      "elevationUnit": "METERS",
      "longitude": -97.5767
    },
    {
      "elevation": 459,
      "mindate": "2004-05-01",
      "maxdate": "2017-05-18",
      "latitude": 40.1493,
      "name": "GILEAD 0.6 WNW, NE US",
      "datacoverage": 0.8111,
      "id": "GHCND:US10thay012",
      "elevationUnit": "METERS",
      "longitude": -97.4241
    },
    {
      "elevation": 477,
      "mindate": "2004-05-01",
      "maxdate": "2016-05-09",
      "latitude": 40.0167,
      "name": "REYNOLDS 4.0 SW, NE US",
      "datacoverage": 0.8308,
      "id": "GHCND:US10thay013",
      "elevationUnit": "METERS",
      "longitude": -97.3871
    },
    {
      "elevation": 469.1,
      "mindate": "2004-05-01",
      "maxdate": "2016-07-07",
      "latitude": 40.1034,
      "name": "HEBRON 6.6 ESE, NE US",
      "datacoverage": 0.9704,
      "id": "GHCND:US10thay014",
      "elevationUnit": "METERS",
      "longitude": -97.4907
    },
    {
      "elevation": 495.9,
      "mindate": "2004-07-01",
      "maxdate": "2010-03-10",
      "latitude": 40.1325,
      "name": "DESHLER 3.8WSW, NE US",
      "datacoverage": 0.6377,
      "id": "GHCND:US10thay015",
      "elevationUnit": "METERS",
      "longitude": -97.7842
    },
    {
      "elevation": 477.9,
      "mindate": "2005-08-01",
      "maxdate": "2012-07-09",
      "latitude": 40.1763,
      "name": "HEBRON 1.3 ENE, NE US",
      "datacoverage": 0.7856,
      "id": "GHCND:US10thay017",
      "elevationUnit": "METERS",
      "longitude": -97.5646
    },
    {
      "elevation": 473,
      "mindate": "2006-05-01",
      "maxdate": "2025-03-05",
      "latitude": 40.171,
      "name": "HEBRON 0.6 ENE, NE US",
      "datacoverage": 0.9997,
      "id": "GHCND:US10thay018",
      "elevationUnit": "METERS",
      "longitude": -97.5764
    },
    {
      "elevation": 456.9,
      "mindate": "2006-06-01",
      "maxdate": "2016-07-07",
      "latitude": 40.2629,
      "name": "ALEXANDRIA 4.1 WNW, NE US",
      "datacoverage": 0.9291,
      "id": "GHCND:US10thay019",
      "elevationUnit": "METERS",
      "longitude": -97.4639
    },
    {
      "elevation": 513,
      "mindate": "2007-01-01",
      "maxdate": "2017-05-21",
      "latitude": 40.0027,
      "name": "BYRON 0.2 ESE, NE US",
      "datacoverage": 1,
      "id": "GHCND:US10thay020",
      "elevationUnit": "METERS",
      "longitude": -97.7648
    },
    {
      "mindate": "2010-04-01",
      "maxdate": "2010-10-31",
      "latitude": 40.1441,
      "name": "ALEXANDRIA 10.8 ESE, NE US",
      "datacoverage": 0.9956,
      "id": "GHCND:US10thay021",
      "longitude": -97.2312
    },
    {
      "mindate": "2014-07-01",
      "maxdate": "2024-06-16",
      "latitude": 40.175426,
      "name": "HEBRON 3.9 W, NE US",
      "datacoverage": 0.0473,
      "id": "GHCND:US10thay023",
      "longitude": -97.659777
    },
    {
      "mindate": "2017-05-02",
      "maxdate": "2025-03-05",
      "latitude": 40.13638,
      "name": "DESHLER 0.5 SW, NE US",
      "datacoverage": 0.7958,
      "id": "GHCND:US10thay026",
      "longitude": -97.72982
    },
    {
      "elevation": 872,
      "mindate": "2004-04-01",
      "maxdate": "2025-03-07",
      "latitude": 41.9785,
      "name": "THEDFORD 0.3 E, NE US",
      "datacoverage": 0.9712,
      "id": "GHCND:US10thom002",
      "elevationUnit": "METERS",
      "longitude": -100.5703
    },
    {
      "elevation": 894,
      "mindate": "2004-05-01",
      "maxdate": "2010-06-07",
      "latitude": 41.9841,
      "name": "THEDFORD 1.2 WNW, NE US",
      "datacoverage": 0.3109,
      "id": "GHCND:US10thom003",
      "elevationUnit": "METERS",
      "longitude": -100.5975
    },
    {
      "elevation": 933.9,
      "mindate": "2004-07-01",
      "maxdate": "2023-07-20",
      "latitude": 41.9007,
      "name": "THEDFORD 11.4 WSW, NE US",
      "datacoverage": 0.9631,
      "id": "GHCND:US10thom004",
      "elevationUnit": "METERS",
      "longitude": -100.7699
    },
    {
      "elevation": 885.1,
      "mindate": "2004-07-01",
      "maxdate": "2021-05-24",
      "latitude": 41.9887,
      "name": "THEDFORD 6.8 W, NE US",
      "datacoverage": 0.3676,
      "id": "GHCND:US10thom005",
      "elevationUnit": "METERS",
      "longitude": -100.707
    },
    {
      "elevation": 826,
      "mindate": "2004-07-01",
      "maxdate": "2006-08-25",
      "latitude": 41.9023,
      "name": "HALSEY 1.7 W, NE US",
      "datacoverage": 0.2306,
      "id": "GHCND:US10thom006",
      "elevationUnit": "METERS",
      "longitude": -100.3028
    },
    {
      "elevation": 971.1,
      "mindate": "2004-08-01",
      "maxdate": "2007-11-30",
      "latitude": 41.7833,
      "name": "STAPLETON 26.4 NW, NE US",
      "datacoverage": 0.1751,
      "id": "GHCND:US10thom007",
      "elevationUnit": "METERS",
      "longitude": -100.8221
    },
    {
      "elevation": 869,
      "mindate": "2006-07-01",
      "maxdate": "2007-01-25",
      "latitude": 42.1314,
      "name": "THEDFORD 12.3 NE, NE US",
      "datacoverage": 1,
      "id": "GHCND:US10thom008",
      "elevationUnit": "METERS",
      "longitude": -100.4572
    },
    {
      "elevation": 875.1,
      "mindate": "2004-07-01",
      "maxdate": "2004-12-21",
      "latitude": 41.9775,
      "name": "THEDFORD 0.2 WSW, NE US",
      "datacoverage": 0.998,
      "id": "GHCND:US10thom009",
      "elevationUnit": "METERS",
      "longitude": -100.5794
    },
    {
      "elevation": 879,
      "mindate": "2006-10-01",
      "maxdate": "2025-03-04",
      "latitude": 41.976,
      "name": "THEDFORD 6.3 E, NE US",
      "datacoverage": 0.8596,
      "id": "GHCND:US10thom010",
      "elevationUnit": "METERS",
      "longitude": -100.4567
    },
    {
      "mindate": "2009-06-01",
      "maxdate": "2012-05-07",
      "latitude": 42.0428,
      "name": "SENECA 0.1 WSW, NE US",
      "datacoverage": 0.361,
      "id": "GHCND:US10thom012",
      "longitude": -100.8355
    },
    {
      "mindate": "2015-05-14",
      "maxdate": "2019-08-21",
      "latitude": 41.972304,
      "name": "THEDFORD 0.4 SSE, NE US",
      "datacoverage": 0.8271,
      "id": "GHCND:US10thom014",
      "longitude": -100.574181
    },
    {
      "elevation": 431.9,
      "mindate": "2006-06-01",
      "maxdate": "2012-12-15",
      "latitude": 42.2032,
      "name": "WAKEFIELD 4.25 ESE, NE US",
      "datacoverage": 0.9991,
      "id": "GHCND:US10thur002",
      "elevationUnit": "METERS",
      "longitude": -96.8233
    },
    {
      "elevation": 627.9,
      "mindate": "2004-06-01",
      "maxdate": "2016-05-11",
      "latitude": 41.619,
      "name": "ORD 1.4 NW, NE US",
      "datacoverage": 0.5114,
      "id": "GHCND:US10vall001",
      "elevationUnit": "METERS",
      "longitude": -98.9433
    },
    {
      "elevation": 624.8,
      "mindate": "2004-05-01",
      "maxdate": "2025-03-06",
      "latitude": 41.5105,
      "name": "ORD 6.8 SSE, NE US",
      "datacoverage": 0.9999,
      "id": "GHCND:US10vall002",
      "elevationUnit": "METERS",
      "longitude": -98.883
    },
    {
      "elevation": 663.9,
      "mindate": "2004-06-01",
      "maxdate": "2025-03-07",
      "latitude": 41.6335,
      "name": "ELYRIA 4.8 SW, NE US",
      "datacoverage": 0.9995,
      "id": "GHCND:US10vall003",
      "elevationUnit": "METERS",
      "longitude": -99.0738
    },
    {
      "elevation": 655.9,
      "mindate": "2004-05-01",
      "maxdate": "2025-03-07",
      "latitude": 41.7187,
      "name": "ORD 9.0 NW, NE US",
      "datacoverage": 0.9999,
      "id": "GHCND:US10vall004",
      "elevationUnit": "METERS",
      "longitude": -99.0065
    },
    {
      "elevation": 688.8,
      "mindate": "2004-05-01",
      "maxdate": "2010-08-31",
      "latitude": 41.6614,
      "name": "BURWELL 8.3 S, NE US",
      "datacoverage": 0.8813,
      "id": "GHCND:US10vall005",
      "elevationUnit": "METERS",
      "longitude": -99.1449
    },
    {
      "elevation": 684.9,
      "mindate": "2004-05-01",
      "maxdate": "2012-07-13",
      "latitude": 41.6219,
      "name": "COMSTOCK 7.8 ENE, NE US",
      "datacoverage": 0.7069,
      "id": "GHCND:US10vall006",
      "elevationUnit": "METERS",
      "longitude": -99.1247
    },
    {
      "elevation": 675.1,
      "mindate": "2004-06-01",
      "maxdate": "2024-10-31",
      "latitude": 41.4236,
      "name": "ARCADIA 4.4 E, NE US",
      "datacoverage": 0.6595,
      "id": "GHCND:US10vall007",
      "elevationUnit": "METERS",
      "longitude": -99.042
    },
    {
      "elevation": 637.9,
      "mindate": "2004-06-01",
      "maxdate": "2013-09-05",
      "latitude": 41.4757,
      "name": "ORD 9.1 SSE, NE US",
      "datacoverage": 0.4643,
      "id": "GHCND:US10vall008",
      "elevationUnit": "METERS",
      "longitude": -98.8823
    },
    {
      "elevation": 666,
      "mindate": "2004-09-01",
      "maxdate": "2025-03-07",
      "latitude": 41.4239,
      "name": "ARCADIA 1.7 W, NE US",
      "datacoverage": 1,
      "id": "GHCND:US10vall009",
      "elevationUnit": "METERS",
      "longitude": -99.1593
    },
    {
      "elevation": 713.8,
      "mindate": "2005-05-01",
      "maxdate": "2011-10-20",
      "latitude": 41.5616,
      "name": "COMSTOCK 3.5 E, NE US",
      "datacoverage": 0.2962,
      "id": "GHCND:US10vall010",
      "elevationUnit": "METERS",
      "longitude": -99.1836
    },
    {
      "elevation": 613,
      "mindate": "2005-06-01",
      "maxdate": "2011-05-31",
      "latitude": 41.5914,
      "name": "NORTH LOUP 6.6 N, NE US",
      "datacoverage": 0.4862,
      "id": "GHCND:US10vall011",
      "elevationUnit": "METERS",
      "longitude": -98.7698
    },
    {
      "elevation": 654.1,
      "mindate": "2005-06-01",
      "maxdate": "2015-05-06",
      "latitude": 41.5679,
      "name": "ORD 4.6 WSW, NE US",
      "datacoverage": 0.35,
      "id": "GHCND:US10vall012",
      "elevationUnit": "METERS",
      "longitude": -99.0024
    },
    {
      "elevation": 718.1,
      "mindate": "2005-07-01",
      "maxdate": "2021-07-07",
      "latitude": 41.6059,
      "name": "COMSTOCK 4.9 ENE, NE US",
      "datacoverage": 0.6612,
      "id": "GHCND:US10vall013",
      "elevationUnit": "METERS",
      "longitude": -99.1773
    },
    {
      "elevation": 684,
      "mindate": "2006-02-01",
      "maxdate": "2007-02-12",
      "latitude": 41.5527,
      "name": "ORD 19.6 SSW, NE US",
      "datacoverage": 0.9294,
      "id": "GHCND:US10vall014",
      "elevationUnit": "METERS",
      "longitude": -99.0612
    },
    {
      "elevation": 630,
      "mindate": "2006-07-01",
      "maxdate": "2025-03-07",
      "latitude": 41.5983,
      "name": "ORD 0.4 SSE, NE US",
      "datacoverage": 0.916,
      "id": "GHCND:US10vall015",
      "elevationUnit": "METERS",
      "longitude": -98.9241
    },
    {
      "elevation": 668.1,
      "mindate": "2007-06-01",
      "maxdate": "2007-12-27",
      "latitude": 41.71,
      "name": "ORD 10.8 NE, NE US",
      "datacoverage": 1,
      "id": "GHCND:US10vall017",
      "elevationUnit": "METERS",
      "longitude": -98.7756
    },
    {
      "mindate": "2010-11-01",
      "maxdate": "2025-03-07",
      "latitude": 41.669264,
      "name": "ELYRIA 6.3 W, NE US",
      "datacoverage": 1,
      "id": "GHCND:US10vall018",
      "longitude": -99.126749
    },
    {
      "mindate": "2017-05-03",
      "maxdate": "2018-08-19",
      "latitude": 41.608468,
      "name": "ORD 0.8 WNW, NE US",
      "datacoverage": 0.5232,
      "id": "GHCND:US10vall020",
      "longitude": -98.940668
    },
    {
      "elevation": 398.1,
      "mindate": "2006-06-01",
      "maxdate": "2025-01-02",
      "latitude": 41.4139,
      "name": "FORT CALHOUN 2.9 SSW, NE US",
      "datacoverage": 0.9999,
      "id": "GHCND:US10wash001",
      "elevationUnit": "METERS",
      "longitude": -96.035
    },
    {
      "elevation": 378.9,
      "mindate": "2006-08-01",
      "maxdate": "2025-03-07",
      "latitude": 41.4692,
      "name": "BLAIR 5.2 S, NE US",
      "datacoverage": 0.8448,
      "id": "GHCND:US10wash003",
      "elevationUnit": "METERS",
      "longitude": -96.1369
    }
  ]
}
