{
  "metadata": {
    "resultset": {
      "offset": 48600,
      "count": 154115,
      "limit": 100
    }
  },
  "results": [
    {
      "elevation": 821,
      "mindate": "1989-06-01",
      "maxdate": "2011-09-01",
      "latitude": 54.55,
      "name": "FREEMAN RIVER, CA",
      "datacoverage": 0.4664,
      "id": "GHCND:CA00306BGCQ",
      "elevationUnit": "METERS",
      "longitude": -115.3
    },
    {
      "elevation": 671,
      "mindate": "1981-06-01",
      "maxdate": "1988-06-30",
      "latitude": 53.9167,
      "name": "HOPE LAKE, CA",
      "datacoverage": 0.9648,
      "id": "GHCND:CA00306C344",
      "elevationUnit": "METERS",
      "longitude": -114.8
    },
    {
      "elevation": 1158,
      "mindate": "1983-06-01",
      "maxdate": "1993-08-31",
      "latitude": 53.4833,
      "name": "HINTON BLUE LAKE CENTRE, CA",
      "datacoverage": 0.4795,
      "id": "GHCND:CA00306CC41",
      "elevationUnit": "METERS",
      "longitude": -117.8
    },
    {
      "elevation": 606,
      "mindate": "1992-12-01",
      "maxdate": "2000-11-02",
      "latitude": 54.7833,
      "name": "PRIMROSE LAKE 2, CA",
      "datacoverage": 0.7813,
      "id": "GHCND:CA00306E304",
      "elevationUnit": "METERS",
      "longitude": -110.0667
    },
    {
      "elevation": 1402,
      "mindate": "1993-11-01",
      "maxdate": "2024-04-28",
      "latitude": 53.3833,
      "name": "WILLOW CREEK 1, CA",
      "datacoverage": 0.8848,
      "id": "GHCND:CA00306GE70",
      "elevationUnit": "METERS",
      "longitude": -118.35
    },
    {
      "elevation": 927,
      "mindate": "1989-06-01",
      "maxdate": "2011-09-01",
      "latitude": 53.2,
      "name": "ETA LAKE, CA",
      "datacoverage": 0.4552,
      "id": "GHCND:CA00306KD60",
      "elevationUnit": "METERS",
      "longitude": -115.8833
    },
    {
      "elevation": 671,
      "mindate": "1969-08-01",
      "maxdate": "1997-11-30",
      "latitude": 54.3667,
      "name": "FORT ASSINIBOINE, CA",
      "datacoverage": 0.9853,
      "id": "GHCND:CA00306KFE3",
      "elevationUnit": "METERS",
      "longitude": -114.9167
    },
    {
      "elevation": 366,
      "mindate": "1968-05-01",
      "maxdate": "2011-08-23",
      "latitude": 59.1667,
      "name": "ADAIR LO, CA",
      "datacoverage": 0.3731,
      "id": "GHCND:CA003070043",
      "elevationUnit": "METERS",
      "longitude": -118.3333
    },
    {
      "elevation": 579,
      "mindate": "1967-05-01",
      "maxdate": "2011-08-15",
      "latitude": 59.1833,
      "name": "AMBER LO, CA",
      "datacoverage": 0.3684,
      "id": "GHCND:CA003070230",
      "elevationUnit": "METERS",
      "longitude": -119.45
    },
    {
      "elevation": 305,
      "mindate": "1961-08-01",
      "maxdate": "1970-03-31",
      "latitude": 58.7,
      "name": "ASSUMPTION, CA",
      "datacoverage": 1,
      "id": "GHCND:CA003070310",
      "elevationUnit": "METERS",
      "longitude": -118.6833
    },
    {
      "elevation": 335,
      "mindate": "1973-09-01",
      "maxdate": "1975-07-31",
      "latitude": 58.7,
      "name": "ASSUMPTION, CA",
      "datacoverage": 0.9144,
      "id": "GHCND:CA003070311",
      "elevationUnit": "METERS",
      "longitude": -118.7167
    },
    {
      "elevation": 939,
      "mindate": "1954-06-01",
      "maxdate": "2011-09-27",
      "latitude": 54.8167,
      "name": "BALD MOUNTAIN LO, CA",
      "datacoverage": 0.4869,
      "id": "GHCND:CA003070480",
      "elevationUnit": "METERS",
      "longitude": -118.9167
    },
    {
      "elevation": 564,
      "mindate": "1990-10-01",
      "maxdate": "2014-10-02",
      "latitude": 55.5833,
      "name": "BALLATER, CA",
      "datacoverage": 0.993,
      "id": "GHCND:CA003070493",
      "elevationUnit": "METERS",
      "longitude": -117.2167
    },
    {
      "elevation": 732,
      "mindate": "1955-05-01",
      "maxdate": "2011-09-23",
      "latitude": 57.4833,
      "name": "BATTLE RIVER LO, CA",
      "datacoverage": 0.5111,
      "id": "GHCND:CA003070540",
      "elevationUnit": "METERS",
      "longitude": -117.65
    },
    {
      "elevation": 745,
      "mindate": "1913-04-01",
      "maxdate": "2007-06-30",
      "latitude": 55.2,
      "name": "BEAVERLODGE CDA, CA",
      "datacoverage": 0.9656,
      "id": "GHCND:CA003070560",
      "elevationUnit": "METERS",
      "longitude": -119.4
    },
    {
      "elevation": 427,
      "mindate": "1912-01-01",
      "maxdate": "1930-06-30",
      "latitude": 55.3333,
      "name": "BEAVERLODGE REDLOW, CA",
      "datacoverage": 0.4956,
      "id": "GHCND:CA003070565",
      "elevationUnit": "METERS",
      "longitude": -119.4
    },
    {
      "elevation": 745,
      "mindate": "1996-08-01",
      "maxdate": "2002-01-17",
      "latitude": 55.2,
      "name": "BEAVERLODGE CDA, CA",
      "datacoverage": 0.9994,
      "id": "GHCND:CA0030705E9",
      "elevationUnit": "METERS",
      "longitude": -119.4
    },
    {
      "elevation": 755,
      "mindate": "1966-05-01",
      "maxdate": "2011-08-22",
      "latitude": 58.2,
      "name": "BASSET LO, CA",
      "datacoverage": 0.3676,
      "id": "GHCND:CA0030705LQ",
      "elevationUnit": "METERS",
      "longitude": -118.2167
    },
    {
      "elevation": 745,
      "mindate": "2001-01-01",
      "maxdate": "2024-04-28",
      "latitude": 55.2,
      "name": "BEAVERLODGE RCS, CA",
      "datacoverage": 1,
      "id": "GHCND:CA003070600",
      "elevationUnit": "METERS",
      "longitude": -119.4
    },
    {
      "elevation": 655,
      "mindate": "1921-01-01",
      "maxdate": "1958-11-30",
      "latitude": 56.15,
      "name": "BERWYN, CA",
      "datacoverage": 0.644,
      "id": "GHCND:CA003070640",
      "elevationUnit": "METERS",
      "longitude": -117.75
    },
    {
      "elevation": 626,
      "mindate": "1975-10-01",
      "maxdate": "1993-03-31",
      "latitude": 56.15,
      "name": "BERWYN CDA, CA",
      "datacoverage": 0.9223,
      "id": "GHCND:CA003070642",
      "elevationUnit": "METERS",
      "longitude": -117.6833
    },
    {
      "elevation": 731,
      "mindate": "1976-06-01",
      "maxdate": "1990-08-09",
      "latitude": 58.1,
      "name": "BIRCH MOUNTAIN TOWER, CA",
      "datacoverage": 0.2222,
      "id": "GHCND:CA003070701",
      "elevationUnit": "METERS",
      "longitude": -112.15
    },
    {
      "elevation": 732,
      "mindate": "1963-04-01",
      "maxdate": "2011-08-24",
      "latitude": 57.1167,
      "name": "BISON LO, CA",
      "datacoverage": 0.4027,
      "id": "GHCND:CA003070703",
      "elevationUnit": "METERS",
      "longitude": -116.5
    },
    {
      "elevation": 622,
      "mindate": "1993-05-01",
      "maxdate": "1996-05-31",
      "latitude": 55.9167,
      "name": "BLUEBERRY CREEK, CA",
      "datacoverage": 0.9183,
      "id": "GHCND:CA003070718",
      "elevationUnit": "METERS",
      "longitude": -119.05
    },
    {
      "elevation": 732,
      "mindate": "1955-03-01",
      "maxdate": "1972-12-31",
      "latitude": 55.9333,
      "name": "BLUEBERRY MOUNTAIN CDA EPF, CA",
      "datacoverage": 0.981,
      "id": "GHCND:CA003070720",
      "elevationUnit": "METERS",
      "longitude": -119.1333
    },
    {
      "elevation": 748,
      "mindate": "2008-06-01",
      "maxdate": "2024-04-28",
      "latitude": 56.1167,
      "name": "BROWNVALE AGCM, CA",
      "datacoverage": 1,
      "id": "GHCND:CA003070800",
      "elevationUnit": "METERS",
      "longitude": -117.8833
    },
    {
      "elevation": 335,
      "mindate": "1932-11-01",
      "maxdate": "1959-09-30",
      "latitude": 58.05,
      "name": "BUFFALO HEAD PRAIRIE, CA",
      "datacoverage": 0.997,
      "id": "GHCND:CA003070960",
      "elevationUnit": "METERS",
      "longitude": -116.2667
    },
    {
      "elevation": 793,
      "mindate": "1958-05-01",
      "maxdate": "2011-09-29",
      "latitude": 57.95,
      "name": "BUFFALO LO, CA",
      "datacoverage": 0.4961,
      "id": "GHCND:CA003070970",
      "elevationUnit": "METERS",
      "longitude": -116.2167
    },
    {
      "elevation": 732,
      "mindate": "1967-05-01",
      "maxdate": "2011-09-23",
      "latitude": 56.3,
      "name": "CADOTTE LO, CA",
      "datacoverage": 0.4484,
      "id": "GHCND:CA003070995",
      "elevationUnit": "METERS",
      "longitude": -116.4333
    },
    {
      "elevation": 760,
      "mindate": "1989-07-01",
      "maxdate": "2011-09-01",
      "latitude": 57.3667,
      "name": "BASNETT, CA",
      "datacoverage": 0.4644,
      "id": "GHCND:CA003070NLN",
      "elevationUnit": "METERS",
      "longitude": -119.8167
    },
    {
      "elevation": 327,
      "mindate": "1987-05-01",
      "maxdate": "2011-08-03",
      "latitude": 59.25,
      "name": "CAMBRIA LO, CA",
      "datacoverage": 0.339,
      "id": "GHCND:CA003071150",
      "elevationUnit": "METERS",
      "longitude": -110.8
    },
    {
      "elevation": 914,
      "mindate": "1976-05-01",
      "maxdate": "1990-06-17",
      "latitude": 59.5167,
      "name": "CARIBOU MOUNTAIN LO, CA",
      "datacoverage": 0.3294,
      "id": "GHCND:CA003071330",
      "elevationUnit": "METERS",
      "longitude": -114.5667
    },
    {
      "elevation": 244,
      "mindate": "1975-05-01",
      "maxdate": "1990-08-15",
      "latitude": 58.9667,
      "name": "CARLSON S LANDING LO, CA",
      "datacoverage": 0.3477,
      "id": "GHCND:CA003071331",
      "elevationUnit": "METERS",
      "longitude": -111.8
    },
    {
      "elevation": 213,
      "mindate": "1968-06-01",
      "maxdate": "1974-06-30",
      "latitude": 58.9167,
      "name": "CARLSON TOWER, CA",
      "datacoverage": 0.2467,
      "id": "GHCND:CA003071332",
      "elevationUnit": "METERS",
      "longitude": -111.8
    },
    {
      "elevation": 305,
      "mindate": "1968-06-01",
      "maxdate": "1981-08-16",
      "latitude": 59.3833,
      "name": "CHERRY MOUNTAIN TOWER, CA",
      "datacoverage": 0.283,
      "id": "GHCND:CA003071521",
      "elevationUnit": "METERS",
      "longitude": -112.3833
    },
    {
      "elevation": 762,
      "mindate": "1958-05-01",
      "maxdate": "2011-09-16",
      "latitude": 57.1167,
      "name": "CHINCHAGA LO, CA",
      "datacoverage": 0.4727,
      "id": "GHCND:CA003071550",
      "elevationUnit": "METERS",
      "longitude": -118.3333
    },
    {
      "elevation": 564,
      "mindate": "1967-06-01",
      "maxdate": "2011-08-30",
      "latitude": 57,
      "name": "CHIPEWYAN LAKES LO, CA",
      "datacoverage": 0.3917,
      "id": "GHCND:CA003071555",
      "elevationUnit": "METERS",
      "longitude": -113.4167
    },
    {
      "elevation": 933,
      "mindate": "1954-06-01",
      "maxdate": "2011-09-30",
      "latitude": 56.6,
      "name": "CLEAR HILLS LO, CA",
      "datacoverage": 0.5189,
      "id": "GHCND:CA003071660",
      "elevationUnit": "METERS",
      "longitude": -119.4167
    },
    {
      "elevation": 793,
      "mindate": "1960-05-01",
      "maxdate": "1992-06-12",
      "latitude": 55.6667,
      "name": "CODESA LO, CA",
      "datacoverage": 0.4456,
      "id": "GHCND:CA003071677",
      "elevationUnit": "METERS",
      "longitude": -118.0833
    },
    {
      "elevation": 1856,
      "mindate": "1960-07-01",
      "maxdate": "2011-09-06",
      "latitude": 54.1833,
      "name": "COPTON LO, CA",
      "datacoverage": 0.3431,
      "id": "GHCND:CA003071860",
      "elevationUnit": "METERS",
      "longitude": -119.4
    },
    {
      "elevation": 518,
      "mindate": "1961-02-01",
      "maxdate": "1965-02-28",
      "latitude": 56.7333,
      "name": "DEADWOOD, CA",
      "datacoverage": 1,
      "id": "GHCND:CA003071955",
      "elevationUnit": "METERS",
      "longitude": -117.4667
    },
    {
      "elevation": 518,
      "mindate": "1953-06-01",
      "maxdate": "1955-12-31",
      "latitude": 56.7333,
      "name": "DEADWOOD EXPERIMENTAL ST, CA",
      "datacoverage": 1,
      "id": "GHCND:CA003071960",
      "elevationUnit": "METERS",
      "longitude": -117.45
    },
    {
      "elevation": 610,
      "mindate": "1960-09-01",
      "maxdate": "2011-09-16",
      "latitude": 56.6333,
      "name": "DEADWOOD LO, CA",
      "datacoverage": 0.5057,
      "id": "GHCND:CA003071965",
      "elevationUnit": "METERS",
      "longitude": -117.35
    },
    {
      "elevation": 503,
      "mindate": "1973-02-01",
      "maxdate": "1976-07-31",
      "latitude": 56.5833,
      "name": "DEADWOOD REINWOOD, CA",
      "datacoverage": 0.572,
      "id": "GHCND:CA003071966",
      "elevationUnit": "METERS",
      "longitude": -117.3
    },
    {
      "elevation": 639,
      "mindate": "2001-09-01",
      "maxdate": "2013-05-21",
      "latitude": 55.2667,
      "name": "DEBOLT GOODWIN, CA",
      "datacoverage": 1,
      "id": "GHCND:CA003072001",
      "elevationUnit": "METERS",
      "longitude": -118.1833
    },
    {
      "elevation": 610,
      "mindate": "1962-05-01",
      "maxdate": "1984-10-31",
      "latitude": 54.9333,
      "name": "DEBOLT RANGER STATION, CA",
      "datacoverage": 0.7495,
      "id": "GHCND:CA003072002",
      "elevationUnit": "METERS",
      "longitude": -118.0667
    },
    {
      "elevation": 793,
      "mindate": "1969-01-01",
      "maxdate": "1978-12-31",
      "latitude": 55.45,
      "name": "DEMMITT CDA EPF, CA",
      "datacoverage": 1,
      "id": "GHCND:CA003072063",
      "elevationUnit": "METERS",
      "longitude": -119.9333
    },
    {
      "elevation": 1219,
      "mindate": "1959-05-01",
      "maxdate": "2011-08-25",
      "latitude": 56.9667,
      "name": "DOIG LO, CA",
      "datacoverage": 0.3965,
      "id": "GHCND:CA003072093",
      "elevationUnit": "METERS",
      "longitude": -119.55
    },
    {
      "elevation": 602,
      "mindate": "1982-08-01",
      "maxdate": "2008-11-22",
      "latitude": 55.7333,
      "name": "DONNELLY, CA",
      "datacoverage": 0.6487,
      "id": "GHCND:CA003072096",
      "elevationUnit": "METERS",
      "longitude": -117.1
    },
    {
      "elevation": 610,
      "mindate": "1956-05-01",
      "maxdate": "1997-08-19",
      "latitude": 55.8167,
      "name": "DOUCETTE LO, CA",
      "datacoverage": 0.5181,
      "id": "GHCND:CA003072100",
      "elevationUnit": "METERS",
      "longitude": -114.3
    },
    {
      "elevation": 398,
      "mindate": "1880-01-01",
      "maxdate": "1943-03-31",
      "latitude": 55.9333,
      "name": "DUNVEGAN, CA",
      "datacoverage": 0.5864,
      "id": "GHCND:CA003072145",
      "elevationUnit": "METERS",
      "longitude": -118.5833
    },
    {
      "elevation": 563,
      "mindate": "2008-06-01",
      "maxdate": "2024-04-28",
      "latitude": 55.8,
      "name": "EAGLESHAM AGCM, CA",
      "datacoverage": 1,
      "id": "GHCND:CA003072151",
      "elevationUnit": "METERS",
      "longitude": -117.8833
    },
    {
      "elevation": 800,
      "mindate": "1953-08-01",
      "maxdate": "2011-09-21",
      "latitude": 54.7833,
      "name": "ECONOMY LO, CA",
      "datacoverage": 0.4885,
      "id": "GHCND:CA003072160",
      "elevationUnit": "METERS",
      "longitude": -118.2333
    },
    {
      "elevation": 610,
      "mindate": "1966-06-01",
      "maxdate": "2011-08-24",
      "latitude": 57.85,
      "name": "EDRA LO, CA",
      "datacoverage": 0.3665,
      "id": "GHCND:CA003072235",
      "elevationUnit": "METERS",
      "longitude": -113.25
    },
    {
      "elevation": 215,
      "mindate": "2001-07-01",
      "maxdate": "2023-12-19",
      "latitude": 58.9833,
      "name": "EGG ISLAND, CA",
      "datacoverage": 0.8248,
      "id": "GHCND:CA003072246",
      "elevationUnit": "METERS",
      "longitude": -110.4333
    },
    {
      "elevation": 747,
      "mindate": "1926-08-01",
      "maxdate": "1953-04-30",
      "latitude": 55.0667,
      "name": "ELMWORTH, CA",
      "datacoverage": 0.9751,
      "id": "GHCND:CA003072320",
      "elevationUnit": "METERS",
      "longitude": -119.6667
    },
    {
      "elevation": 701,
      "mindate": "1967-10-01",
      "maxdate": "1972-06-30",
      "latitude": 55.05,
      "name": "ELMWORTH CDA EPF, CA",
      "datacoverage": 1,
      "id": "GHCND:CA003072321",
      "elevationUnit": "METERS",
      "longitude": -119.5667
    },
    {
      "elevation": 754,
      "mindate": "1975-02-01",
      "maxdate": "2008-06-04",
      "latitude": 55.1,
      "name": "ELMWORTH CDA EPF, CA",
      "datacoverage": 0.9477,
      "id": "GHCND:CA003072322",
      "elevationUnit": "METERS",
      "longitude": -119.75
    },
    {
      "elevation": 665,
      "mindate": "1962-03-01",
      "maxdate": "2008-04-30",
      "latitude": 56.4833,
      "name": "EUREKA RIVER, CA",
      "datacoverage": 0.9964,
      "id": "GHCND:CA003072475",
      "elevationUnit": "METERS",
      "longitude": -118.7333
    },
    {
      "elevation": 670,
      "mindate": "1931-10-01",
      "maxdate": "1991-12-31",
      "latitude": 56.0667,
      "name": "FAIRVIEW, CA",
      "datacoverage": 0.9917,
      "id": "GHCND:CA003072520",
      "elevationUnit": "METERS",
      "longitude": -118.3833
    },
    {
      "elevation": 610,
      "mindate": "1957-01-01",
      "maxdate": "1960-08-31",
      "latitude": 55.9667,
      "name": "FAIRVIEW 2, CA",
      "datacoverage": 1,
      "id": "GHCND:CA003072521",
      "elevationUnit": "METERS",
      "longitude": -118.5
    },
    {
      "elevation": 655,
      "mindate": "2002-02-01",
      "maxdate": "2024-04-28",
      "latitude": 56.0833,
      "name": "FAIRVIEW AGDM, CA",
      "datacoverage": 0.9944,
      "id": "GHCND:CA003072525",
      "elevationUnit": "METERS",
      "longitude": -118.4333
    },
    {
      "elevation": 646,
      "mindate": "1956-09-01",
      "maxdate": "1980-09-30",
      "latitude": 56.0667,
      "name": "FAIRVIEW FSA, CA",
      "datacoverage": 0.5087,
      "id": "GHCND:CA003072536",
      "elevationUnit": "METERS",
      "longitude": -118.3833
    },
    {
      "elevation": 604,
      "mindate": "1993-06-01",
      "maxdate": "1999-12-07",
      "latitude": 56.0833,
      "name": "FAIRVIEW THREE FOX FARM, CA",
      "datacoverage": 0.9619,
      "id": "GHCND:CA003072539",
      "elevationUnit": "METERS",
      "longitude": -118.5333
    },
    {
      "elevation": 582,
      "mindate": "1948-12-01",
      "maxdate": "1979-09-30",
      "latitude": 55.7333,
      "name": "FALHER, CA",
      "datacoverage": 0.8217,
      "id": "GHCND:CA003072600",
      "elevationUnit": "METERS",
      "longitude": -117.2
    },
    {
      "elevation": 587,
      "mindate": "1970-03-01",
      "maxdate": "1974-12-31",
      "latitude": 55.4667,
      "name": "FISH CREEK, CA",
      "datacoverage": 0.9991,
      "id": "GHCND:CA003072618",
      "elevationUnit": "METERS",
      "longitude": -117.4
    },
    {
      "elevation": 884,
      "mindate": "1967-05-01",
      "maxdate": "2011-09-01",
      "latitude": 58.6833,
      "name": "FOGGY LO, CA",
      "datacoverage": 0.4653,
      "id": "GHCND:CA003072635",
      "elevationUnit": "METERS",
      "longitude": -114.9833
    },
    {
      "elevation": 1036,
      "mindate": "1965-04-01",
      "maxdate": "2011-08-30",
      "latitude": 57.7833,
      "name": "FONTAS LO, CA",
      "datacoverage": 0.377,
      "id": "GHCND:CA003072637",
      "elevationUnit": "METERS",
      "longitude": -119.5
    },
    {
      "elevation": 320,
      "mindate": "1967-05-01",
      "maxdate": "1969-09-30",
      "latitude": 58.6167,
      "name": "FOOTNER LAKE HQ, CA",
      "datacoverage": 1,
      "id": "GHCND:CA003072638",
      "elevationUnit": "METERS",
      "longitude": -117.15
    },
    {
      "elevation": 238,
      "mindate": "2011-06-01",
      "maxdate": "2024-04-28",
      "latitude": 58.7667,
      "name": "FORT CHIPEWYAN, CA",
      "datacoverage": 0.9996,
      "id": "GHCND:CA003072655",
      "elevationUnit": "METERS",
      "longitude": -111.1167
    },
    {
      "elevation": 238,
      "mindate": "1883-10-01",
      "maxdate": "1967-10-31",
      "latitude": 58.7167,
      "name": "FORT CHIPEWYAN, CA",
      "datacoverage": 0.6829,
      "id": "GHCND:CA003072657",
      "elevationUnit": "METERS",
      "longitude": -111.15
    },
    {
      "elevation": 232,
      "mindate": "1967-11-01",
      "maxdate": "2007-08-31",
      "latitude": 58.7667,
      "name": "FORT CHIPEWYAN A, CA",
      "datacoverage": 0.9916,
      "id": "GHCND:CA003072658",
      "elevationUnit": "METERS",
      "longitude": -111.1167
    },
    {
      "elevation": 238,
      "mindate": "2012-10-01",
      "maxdate": "2024-04-28",
      "latitude": 58.7667,
      "name": "FORT CHIPEWYAN RCS, CA",
      "datacoverage": 1,
      "id": "GHCND:CA003072659",
      "elevationUnit": "METERS",
      "longitude": -111.1167
    },
    {
      "elevation": 238,
      "mindate": "2006-01-01",
      "maxdate": "2011-06-29",
      "latitude": 58.7667,
      "name": "FORT CHIPEWYAN AWOS A, CA",
      "datacoverage": 1,
      "id": "GHCND:CA003072662",
      "elevationUnit": "METERS",
      "longitude": -111.1167
    },
    {
      "elevation": 238,
      "mindate": "1888-11-01",
      "maxdate": "1917-11-30",
      "latitude": 58.45,
      "name": "FORT VERMILION, CA",
      "datacoverage": 0.7495,
      "id": "GHCND:CA003072719",
      "elevationUnit": "METERS",
      "longitude": -116.05
    },
    {
      "elevation": 279,
      "mindate": "1908-07-01",
      "maxdate": "1985-09-30",
      "latitude": 58.3833,
      "name": "FORT VERMILION CDA, CA",
      "datacoverage": 1,
      "id": "GHCND:CA003072720",
      "elevationUnit": "METERS",
      "longitude": -116.0333
    },
    {
      "elevation": 289,
      "mindate": "2000-09-01",
      "maxdate": "2024-04-28",
      "latitude": 58.3833,
      "name": "FORT VERMILION, CA",
      "datacoverage": 0.9894,
      "id": "GHCND:CA003072723",
      "elevationUnit": "METERS",
      "longitude": -116.0333
    },
    {
      "elevation": 283,
      "mindate": "1963-03-01",
      "maxdate": "1963-12-31",
      "latitude": 58.3833,
      "name": "FORT VERMILION, CA",
      "datacoverage": 0.9947,
      "id": "GHCND:CA003072730",
      "elevationUnit": "METERS",
      "longitude": -116.05
    },
    {
      "elevation": 247,
      "mindate": "1962-05-01",
      "maxdate": "1989-08-31",
      "latitude": 58.4,
      "name": "FORT VERMILION RANGER STATION, CA",
      "datacoverage": 0.4024,
      "id": "GHCND:CA003072732",
      "elevationUnit": "METERS",
      "longitude": -116.0333
    },
    {
      "elevation": 841,
      "mindate": "1966-05-01",
      "maxdate": "1999-10-31",
      "latitude": 54.4,
      "name": "FOX CREEK RANGER STATION, CA",
      "datacoverage": 0.1667,
      "id": "GHCND:CA003072735",
      "elevationUnit": "METERS",
      "longitude": -116.9333
    },
    {
      "elevation": 244,
      "mindate": "1973-08-01",
      "maxdate": "1974-03-31",
      "latitude": 58.7167,
      "name": "GARDEN RIVER, CA",
      "datacoverage": 0.8724,
      "id": "GHCND:CA003072768",
      "elevationUnit": "METERS",
      "longitude": -113.9
    },
    {
      "elevation": 678,
      "mindate": "1989-05-01",
      "maxdate": "2011-09-29",
      "latitude": 55.9,
      "name": "GIFT LAKE LO, CA",
      "datacoverage": 0.4647,
      "id": "GHCND:CA003072783",
      "elevationUnit": "METERS",
      "longitude": -115.75
    },
    {
      "elevation": 762,
      "mindate": "1929-04-01",
      "maxdate": "1978-11-30",
      "latitude": 55.2667,
      "name": "GOODFARE CDA EPF, CA",
      "datacoverage": 0.6292,
      "id": "GHCND:CA003072840",
      "elevationUnit": "METERS",
      "longitude": -119.7667
    },
    {
      "elevation": 1255,
      "mindate": "1985-08-01",
      "maxdate": "2005-04-30",
      "latitude": 53.9167,
      "name": "GRANDE CACHE, CA",
      "datacoverage": 0.7258,
      "id": "GHCND:CA00307288R",
      "elevationUnit": "METERS",
      "longitude": -118.8667
    },
    {
      "elevation": 1200,
      "mindate": "2005-06-01",
      "maxdate": "2008-01-28",
      "latitude": 53.8667,
      "name": "GRANDE CACHE S.T.P., CA",
      "datacoverage": 1,
      "id": "GHCND:CA003072895",
      "elevationUnit": "METERS",
      "longitude": -119.15
    },
    {
      "elevation": 1067,
      "mindate": "1976-12-01",
      "maxdate": "1981-10-31",
      "latitude": 54,
      "name": "GRANDE CACHE MILNER, CA",
      "datacoverage": 0.2712,
      "id": "GHCND:CA0030728QR",
      "elevationUnit": "METERS",
      "longitude": -119.1
    },
    {
      "elevation": 1250,
      "mindate": "1972-04-01",
      "maxdate": "1994-09-30",
      "latitude": 53.9,
      "name": "GRANDE CACHE RANGER STATION, CA",
      "datacoverage": 0.9556,
      "id": "GHCND:CA003072900",
      "elevationUnit": "METERS",
      "longitude": -119.1
    },
    {
      "elevation": 652,
      "mindate": "1922-08-01",
      "maxdate": "1936-10-31",
      "latitude": 55.1667,
      "name": "GRANDE PRAIRIE, CA",
      "datacoverage": 0.5087,
      "id": "GHCND:CA003072910",
      "elevationUnit": "METERS",
      "longitude": -118.8
    },
    {
      "elevation": 669,
      "mindate": "1996-03-01",
      "maxdate": "2004-05-31",
      "latitude": 55.1833,
      "name": "GRANDE PRAIRIE CR21X, CA",
      "datacoverage": 0.9993,
      "id": "GHCND:CA003072915",
      "elevationUnit": "METERS",
      "longitude": -118.8833
    },
    {
      "elevation": 669,
      "mindate": "1942-04-01",
      "maxdate": "2013-09-11",
      "latitude": 55.1833,
      "name": "GRANDE PRAIRIE A, CA",
      "datacoverage": 1,
      "id": "GHCND:CA003072920",
      "elevationUnit": "METERS",
      "longitude": -118.8833
    },
    {
      "elevation": 701,
      "mindate": "1978-05-01",
      "maxdate": "2009-01-31",
      "latitude": 55.0167,
      "name": "GROVEDALE RANGER STATION, CA",
      "datacoverage": 0.867,
      "id": "GHCND:CA003072970",
      "elevationUnit": "METERS",
      "longitude": -118.8
    },
    {
      "elevation": 610,
      "mindate": "1962-05-01",
      "maxdate": "2011-09-16",
      "latitude": 57.65,
      "name": "HAWK HILLS LO, CA",
      "datacoverage": 0.4958,
      "id": "GHCND:CA003073070",
      "elevationUnit": "METERS",
      "longitude": -117.4167
    },
    {
      "elevation": 455,
      "mindate": "2008-06-01",
      "maxdate": "2024-04-28",
      "latitude": 57.2667,
      "name": "HAWK HILLS AGCM, CA",
      "datacoverage": 1,
      "id": "GHCND:CA003073071",
      "elevationUnit": "METERS",
      "longitude": -117.3
    },
    {
      "elevation": 244,
      "mindate": "1968-06-01",
      "maxdate": "1990-08-15",
      "latitude": 59.8833,
      "name": "HAY CAMP TOWER, CA",
      "datacoverage": 0.2809,
      "id": "GHCND:CA003073072",
      "elevationUnit": "METERS",
      "longitude": -111.4833
    },
    {
      "elevation": 317,
      "mindate": "1967-05-01",
      "maxdate": "1970-01-31",
      "latitude": 58.7333,
      "name": "HAY LAKES RANGER STATION, CA",
      "datacoverage": 0.7254,
      "id": "GHCND:CA003073073",
      "elevationUnit": "METERS",
      "longitude": -118.6833
    },
    {
      "elevation": 338,
      "mindate": "1977-07-01",
      "maxdate": "2025-03-06",
      "latitude": 58.6167,
      "name": "HIGH LEVEL, CA",
      "datacoverage": 1,
      "id": "GHCND:CA003073140",
      "elevationUnit": "METERS",
      "longitude": -117.1667
    },
    {
      "elevation": 327,
      "mindate": "1967-06-01",
      "maxdate": "1970-10-21",
      "latitude": 58.5167,
      "name": "HIGH LEVEL A, CA",
      "datacoverage": 1,
      "id": "GHCND:CA003073145",
      "elevationUnit": "METERS",
      "longitude": -117.1
    },
    {
      "elevation": 338,
      "mindate": "1970-10-01",
      "maxdate": "2023-01-23",
      "latitude": 58.6167,
      "name": "HIGH LEVEL A, CA",
      "datacoverage": 1,
      "id": "GHCND:CA003073146",
      "elevationUnit": "METERS",
      "longitude": -117.1667
    },
    {
      "elevation": 324,
      "mindate": "1962-05-01",
      "maxdate": "1979-10-31",
      "latitude": 58.5167,
      "name": "HIGH LEVEL RANGER STATION, CA",
      "datacoverage": 0.2761,
      "id": "GHCND:CA003073150",
      "elevationUnit": "METERS",
      "longitude": -117.1
    },
    {
      "elevation": 594,
      "mindate": "1970-06-01",
      "maxdate": "1982-07-31",
      "latitude": 55.3667,
      "name": "HIGH PRAIRIE WEST, CA",
      "datacoverage": 1,
      "id": "GHCND:CA003073190",
      "elevationUnit": "METERS",
      "longitude": -116.8667
    }
  ]
}
