{
  "metadata": {
    "resultset": {
      "offset": 20200,
      "count": 154115,
      "limit": 100
    }
  },
  "results": [
    {
      "elevation": 150.9,
      "mindate": "1965-12-01",
      "maxdate": "1997-12-01",
      "latitude": 64.35472,
      "name": "CLEAR 4 N, AK US",
      "datacoverage": 0.7402,
      "id": "COOP:502005",
      "elevationUnit": "METERS",
      "longitude": -149.04361
    },
    {
      "elevation": 196.9,
      "mindate": "2009-11-01",
      "maxdate": "2015-11-01",
      "latitude": 64.2452,
      "name": "CLEAR SKY, AK US",
      "datacoverage": 1,
      "id": "COOP:502015",
      "elevationUnit": "METERS",
      "longitude": -149.1828
    },
    {
      "elevation": 335.3,
      "mindate": "1964-10-01",
      "maxdate": "1994-08-01",
      "latitude": 64.05,
      "name": "CLEARWATER, AK US",
      "datacoverage": 0.9666,
      "id": "COOP:502019",
      "elevationUnit": "METERS",
      "longitude": -145.51667
    },
    {
      "elevation": 3,
      "mindate": "1970-12-01",
      "maxdate": "1976-10-01",
      "latitude": 56,
      "name": "COFFMAN COVE, AK US",
      "datacoverage": 0.9433,
      "id": "COOP:502084",
      "elevationUnit": "METERS",
      "longitude": -132.83333
    },
    {
      "elevation": 394.7,
      "mindate": "2008-05-01",
      "maxdate": "2010-08-01",
      "latitude": 64.31722,
      "name": "O BRIEN CREEK, AK US",
      "datacoverage": 0.9634,
      "id": "COOP:502101",
      "elevationUnit": "METERS",
      "longitude": -141.41833
    },
    {
      "elevation": 22,
      "mindate": "1950-03-01",
      "maxdate": "2015-11-01",
      "latitude": 55.22068,
      "name": "COLD BAY AIRPORT, AK US",
      "datacoverage": 0.9923,
      "id": "COOP:502102",
      "elevationUnit": "METERS",
      "longitude": -162.7323
    },
    {
      "elevation": 335.9,
      "mindate": "1970-10-01",
      "maxdate": "1977-05-01",
      "latitude": 67.26667,
      "name": "COLDFOOT CAMP, AK US",
      "datacoverage": 0.9625,
      "id": "COOP:502103",
      "elevationUnit": "METERS",
      "longitude": -150.23333
    },
    {
      "elevation": 320,
      "mindate": "1993-09-01",
      "maxdate": "2000-04-01",
      "latitude": 67.2539,
      "name": "COLDFOOT, AK US",
      "datacoverage": 0.5127,
      "id": "COOP:502104",
      "elevationUnit": "METERS",
      "longitude": -150.1875
    },
    {
      "elevation": 274,
      "mindate": "1962-08-01",
      "maxdate": "1968-08-01",
      "latitude": 67.73333,
      "name": "COLLEEN RIVER, AK US",
      "datacoverage": 0.6983,
      "id": "COOP:502105",
      "elevationUnit": "METERS",
      "longitude": -142.46667
    },
    {
      "elevation": 182,
      "mindate": "1948-06-01",
      "maxdate": "2015-11-01",
      "latitude": 64.8603,
      "name": "COLLEGE OBSERVATORY, AK US",
      "datacoverage": 0.9852,
      "id": "COOP:502107",
      "elevationUnit": "METERS",
      "longitude": -147.8484
    },
    {
      "elevation": 256.9,
      "mindate": "2005-01-01",
      "maxdate": "2009-02-01",
      "latitude": 64.89222,
      "name": "COLLEGE 3 NNW, AK US",
      "datacoverage": 0.3805,
      "id": "COOP:502110",
      "elevationUnit": "METERS",
      "longitude": -147.84528
    },
    {
      "elevation": 298.1,
      "mindate": "1976-08-01",
      "maxdate": "2014-12-01",
      "latitude": 64.925,
      "name": "COLLEGE 5 NW, AK US",
      "datacoverage": 0.9956,
      "id": "COOP:502112",
      "elevationUnit": "METERS",
      "longitude": -147.88028
    },
    {
      "elevation": 273.4,
      "mindate": "2007-09-01",
      "maxdate": "2010-03-01",
      "latitude": 64.8264,
      "name": "COLLEGE 4 WSW, AK US",
      "datacoverage": 0.8001,
      "id": "COOP:502114",
      "elevationUnit": "METERS",
      "longitude": -147.9589
    },
    {
      "elevation": 1.5,
      "mindate": "1996-12-01",
      "maxdate": "2015-11-01",
      "latitude": 70.4322,
      "name": "COLVILLE VILLAGE, US",
      "datacoverage": 1,
      "id": "COOP:502126",
      "elevationUnit": "METERS",
      "longitude": -150.4094
    },
    {
      "elevation": 153.9,
      "mindate": "1958-11-01",
      "maxdate": "2004-03-01",
      "latitude": 60.3925,
      "name": "COOPER LAKE PROJECT, AK US",
      "datacoverage": 0.9725,
      "id": "COOP:502144",
      "elevationUnit": "METERS",
      "longitude": -149.66611
    },
    {
      "elevation": 127.7,
      "mindate": "1941-10-01",
      "maxdate": "1956-02-01",
      "latitude": 60.49222,
      "name": "COOPER LANDING KENAI R, AK US",
      "datacoverage": 0.5434,
      "id": "COOP:502147",
      "elevationUnit": "METERS",
      "longitude": -149.80889
    },
    {
      "elevation": 114.3,
      "mindate": "1975-01-01",
      "maxdate": "2015-11-01",
      "latitude": 60.4875,
      "name": "COOPER LANDING 5 W, AK US",
      "datacoverage": 0.9471,
      "id": "COOP:502149",
      "elevationUnit": "METERS",
      "longitude": -149.9681
    },
    {
      "elevation": 304.8,
      "mindate": "1961-08-01",
      "maxdate": "1982-10-01",
      "latitude": 61.96667,
      "name": "COPPER CENTER, AK US",
      "datacoverage": 0.4902,
      "id": "COOP:502156",
      "elevationUnit": "METERS",
      "longitude": -145.31667
    },
    {
      "elevation": 313.9,
      "mindate": "1962-11-01",
      "maxdate": "1969-04-01",
      "latitude": 62.08333,
      "name": "COPPER VALLEY SCHOOL, AK US",
      "datacoverage": 0.8337,
      "id": "COOP:502161",
      "elevationUnit": "METERS",
      "longitude": -145.3
    },
    {
      "elevation": 7.6,
      "mindate": "1955-06-01",
      "maxdate": "2015-11-01",
      "latitude": 60.5561,
      "name": "CORDOVA NORTH, AK US",
      "datacoverage": 0.6143,
      "id": "COOP:502173",
      "elevationUnit": "METERS",
      "longitude": -145.753
    },
    {
      "elevation": 14.7,
      "mindate": "1949-09-01",
      "maxdate": "2015-11-01",
      "latitude": 60.48604,
      "name": "CORDOVA AIRPORT, AK US",
      "datacoverage": 0.9887,
      "id": "COOP:502177",
      "elevationUnit": "METERS",
      "longitude": -145.4445
    },
    {
      "elevation": 3,
      "mindate": "2004-05-01",
      "maxdate": "2010-07-01",
      "latitude": 60.5358,
      "name": "CORDOVA WWTP, AK US",
      "datacoverage": 0.4,
      "id": "COOP:502179",
      "elevationUnit": "METERS",
      "longitude": -145.778
    },
    {
      "elevation": 29,
      "mindate": "1937-08-01",
      "maxdate": "1942-09-01",
      "latitude": 64.88333,
      "name": "COUNCIL, AK US",
      "datacoverage": 1,
      "id": "COOP:502217",
      "elevationUnit": "METERS",
      "longitude": -163.68333
    },
    {
      "elevation": 21,
      "mindate": "1975-01-01",
      "maxdate": "1979-04-01",
      "latitude": 60.06667,
      "name": "CRAB BAY, AK US",
      "datacoverage": 1,
      "id": "COOP:502222",
      "elevationUnit": "METERS",
      "longitude": -147.98333
    },
    {
      "elevation": 13.1,
      "mindate": "1936-10-01",
      "maxdate": "2015-11-01",
      "latitude": 55.4772,
      "name": "CRAIG, AK US",
      "datacoverage": 0.4327,
      "id": "COOP:502227",
      "elevationUnit": "METERS",
      "longitude": -133.1408
    },
    {
      "elevation": 78.9,
      "mindate": "1962-11-01",
      "maxdate": "1968-05-01",
      "latitude": 61.21667,
      "name": "CREEKSIDE PARK SCHOOL, AK US",
      "datacoverage": 0.5374,
      "id": "COOP:502235",
      "elevationUnit": "METERS",
      "longitude": -149.73333
    },
    {
      "elevation": 341.4,
      "mindate": "1996-08-01",
      "maxdate": "2000-12-01",
      "latitude": 64.92389,
      "name": "CRESTLINE, AK US",
      "datacoverage": 0.4526,
      "id": "COOP:502241",
      "elevationUnit": "METERS",
      "longitude": -147.665
    },
    {
      "elevation": 61,
      "mindate": "1939-04-01",
      "maxdate": "1979-01-01",
      "latitude": 61.86667,
      "name": "CROOKED CREEK, AK US",
      "datacoverage": 0.5841,
      "id": "COOP:502247",
      "elevationUnit": "METERS",
      "longitude": -158.1
    },
    {
      "elevation": 641,
      "mindate": "1971-11-01",
      "maxdate": "1973-02-01",
      "latitude": 62.95,
      "name": "CROOKED TEAPOT, AK US",
      "datacoverage": 0.9383,
      "id": "COOP:502252",
      "elevationUnit": "METERS",
      "longitude": -143.3
    },
    {
      "elevation": 157,
      "mindate": "1942-03-01",
      "maxdate": "1947-08-01",
      "latitude": 62.61667,
      "name": "CURRY, AK US",
      "datacoverage": 0.9994,
      "id": "COOP:502266",
      "elevationUnit": "METERS",
      "longitude": -150.03333
    },
    {
      "elevation": 14.9,
      "mindate": "1978-07-01",
      "maxdate": "1979-09-01",
      "latitude": 58.13333,
      "name": "DANGER BAY, AK US",
      "datacoverage": 0.4662,
      "id": "COOP:502300",
      "elevationUnit": "METERS",
      "longitude": -152.55
    },
    {
      "elevation": 17.7,
      "mindate": "1999-07-01",
      "maxdate": "2015-11-01",
      "latitude": 70.19146,
      "name": "DEADHORSE, AK US",
      "datacoverage": 0.9999,
      "id": "COOP:502316",
      "elevationUnit": "METERS",
      "longitude": -148.48005
    },
    {
      "elevation": 322.8,
      "mindate": "1996-08-01",
      "maxdate": "2015-11-01",
      "latitude": 64.1172,
      "name": "DELTA 6 N, AK US",
      "datacoverage": 0.9785,
      "id": "COOP:502339",
      "elevationUnit": "METERS",
      "longitude": -145.7511
    },
    {
      "elevation": 371.9,
      "mindate": "1996-12-01",
      "maxdate": "1997-03-01",
      "latitude": 63.93333,
      "name": "DELTA FORESTRY EXPERIMENT STATION, AK US",
      "datacoverage": 1,
      "id": "COOP:502341",
      "elevationUnit": "METERS",
      "longitude": -145.34194
    },
    {
      "elevation": 363,
      "mindate": "1966-10-01",
      "maxdate": "1969-04-01",
      "latitude": 64.01667,
      "name": "DELTA JUNCTION, AK US",
      "datacoverage": 1,
      "id": "COOP:502347",
      "elevationUnit": "METERS",
      "longitude": -145.7
    },
    {
      "elevation": 373.4,
      "mindate": "1984-11-01",
      "maxdate": "1985-01-01",
      "latitude": 64.01667,
      "name": "DELTA JUNCTION 4 SE, AK US",
      "datacoverage": 0.9925,
      "id": "COOP:502349",
      "elevationUnit": "METERS",
      "longitude": -145.61667
    },
    {
      "elevation": 323.1,
      "mindate": "1994-08-01",
      "maxdate": "2015-11-01",
      "latitude": 64.0839,
      "name": "DELTA 5 NE, AK US",
      "datacoverage": 0.8945,
      "id": "COOP:502350",
      "elevationUnit": "METERS",
      "longitude": -145.6136
    },
    {
      "elevation": 342.9,
      "mindate": "1980-11-01",
      "maxdate": "2015-11-01",
      "latitude": 63.9647,
      "name": "DELTA JUNCTION 20 SE, AK US",
      "datacoverage": 0.5677,
      "id": "COOP:502352",
      "elevationUnit": "METERS",
      "longitude": -145.105
    },
    {
      "elevation": 110,
      "mindate": "1958-12-01",
      "maxdate": "1962-06-01",
      "latitude": 60.96667,
      "name": "DEVILS CLUB, AK US",
      "datacoverage": 1,
      "id": "COOP:502393",
      "elevationUnit": "METERS",
      "longitude": -149.18333
    },
    {
      "mindate": "1970-10-01",
      "maxdate": "1972-04-01",
      "latitude": 67.68333,
      "name": "DIETRICH, AK US",
      "datacoverage": 0.9479,
      "id": "COOP:502425",
      "longitude": -149.73333
    },
    {
      "elevation": 26.2,
      "mindate": "1922-01-01",
      "maxdate": "2005-05-01",
      "latitude": 59.05,
      "name": "DILLINGHAM AIRPORT, AK US",
      "datacoverage": 0.7473,
      "id": "COOP:502457",
      "elevationUnit": "METERS",
      "longitude": -158.5167
    },
    {
      "elevation": 11.6,
      "mindate": "1981-01-01",
      "maxdate": "1983-05-01",
      "latitude": 59.18333,
      "name": "DILLINGHAM 17 NW, AK US",
      "datacoverage": 1,
      "id": "COOP:502465",
      "elevationUnit": "METERS",
      "longitude": -158.83333
    },
    {
      "elevation": 420.6,
      "mindate": "1964-10-01",
      "maxdate": "1975-04-01",
      "latitude": 63.65389,
      "name": "DOT LAKE, AK US",
      "datacoverage": 0.8114,
      "id": "COOP:502522",
      "elevationUnit": "METERS",
      "longitude": -144.06556
    },
    {
      "elevation": 413,
      "mindate": "1996-08-01",
      "maxdate": "2015-11-01",
      "latitude": 63.67459,
      "name": "DRY CREEK, AK US",
      "datacoverage": 0.9871,
      "id": "COOP:502568",
      "elevationUnit": "METERS",
      "longitude": -144.60409
    },
    {
      "elevation": 3,
      "mindate": "1922-01-01",
      "maxdate": "2015-11-01",
      "latitude": 53.895,
      "name": "DUTCH HARBOR, AK US",
      "datacoverage": 0.6486,
      "id": "COOP:502587",
      "elevationUnit": "METERS",
      "longitude": -166.5433
    },
    {
      "elevation": 259.1,
      "mindate": "1922-01-01",
      "maxdate": "2015-11-01",
      "latitude": 64.7856,
      "name": "EAGLE, AK US",
      "datacoverage": 0.8164,
      "id": "COOP:502607",
      "elevationUnit": "METERS",
      "longitude": -141.2036
    },
    {
      "elevation": 228.9,
      "mindate": "1970-11-01",
      "maxdate": "1972-01-01",
      "latitude": 61.31667,
      "name": "EAGLE RIVER, AK US",
      "datacoverage": 0.999,
      "id": "COOP:502638",
      "elevationUnit": "METERS",
      "longitude": -149.5
    },
    {
      "elevation": 158.5,
      "mindate": "1976-01-01",
      "maxdate": "2015-11-01",
      "latitude": 61.23446,
      "name": "EAGLE RIVER NATURE CENTER, AK US",
      "datacoverage": 0.3801,
      "id": "COOP:502642",
      "elevationUnit": "METERS",
      "longitude": -149.27091
    },
    {
      "elevation": 172.8,
      "mindate": "2003-01-01",
      "maxdate": "2015-11-01",
      "latitude": 61.3193,
      "name": "EAGLE RIVER GAKONA CIRCLE, AK US",
      "datacoverage": 0.9679,
      "id": "COOP:502645",
      "elevationUnit": "METERS",
      "longitude": -149.5435
    },
    {
      "elevation": 652.3,
      "mindate": "1976-01-01",
      "maxdate": "1984-04-01",
      "latitude": 61.2225,
      "name": "EAGLE RIVER SOUTH FORK, AK US",
      "datacoverage": 1,
      "id": "COOP:502648",
      "elevationUnit": "METERS",
      "longitude": -149.43861
    },
    {
      "elevation": 151.8,
      "mindate": "1989-10-01",
      "maxdate": "2015-11-01",
      "latitude": 61.2968,
      "name": "EAGLE RIVER 5 SE, AK US",
      "datacoverage": 0.9555,
      "id": "COOP:502656",
      "elevationUnit": "METERS",
      "longitude": -149.4399
    },
    {
      "elevation": 232,
      "mindate": "1971-10-01",
      "maxdate": "1981-02-01",
      "latitude": 62.53333,
      "name": "EDGEMIRE LAKES, AK US",
      "datacoverage": 0.947,
      "id": "COOP:502665",
      "elevationUnit": "METERS",
      "longitude": -150.28333
    },
    {
      "elevation": 14.9,
      "mindate": "1971-09-01",
      "maxdate": "1973-04-01",
      "latitude": 58.21667,
      "name": "EGEGIK",
      "datacoverage": 1,
      "id": "COOP:502692",
      "elevationUnit": "METERS",
      "longitude": -157.38333
    },
    {
      "elevation": 166.7,
      "mindate": "1944-12-01",
      "maxdate": "2010-12-01",
      "latitude": 64.66667,
      "name": "EIELSON FIELD, AK US",
      "datacoverage": 0.918,
      "id": "COOP:502707",
      "elevationUnit": "METERS",
      "longitude": -147.1
    },
    {
      "elevation": 1146.4,
      "mindate": "1971-06-01",
      "maxdate": "2004-09-01",
      "latitude": 63.42583,
      "name": "EIELSON VISITOR CENTER, AK US",
      "datacoverage": 0.035,
      "id": "COOP:502711",
      "elevationUnit": "METERS",
      "longitude": -150.31167
    },
    {
      "elevation": 7.9,
      "mindate": "1941-05-01",
      "maxdate": "1955-02-01",
      "latitude": 61.45,
      "name": "EKLUTNA, AK US",
      "datacoverage": 0.9579,
      "id": "COOP:502717",
      "elevationUnit": "METERS",
      "longitude": -149.33333
    },
    {
      "elevation": 267.9,
      "mindate": "1946-06-01",
      "maxdate": "1976-08-01",
      "latitude": 61.4,
      "name": "EKLUTNA LAKE, AK US",
      "datacoverage": 0.9173,
      "id": "COOP:502725",
      "elevationUnit": "METERS",
      "longitude": -149.15
    },
    {
      "elevation": 11.6,
      "mindate": "1952-01-01",
      "maxdate": "1998-01-01",
      "latitude": 61.46667,
      "name": "EKLUTNA PROJECT, AK US",
      "datacoverage": 0.9638,
      "id": "COOP:502730",
      "elevationUnit": "METERS",
      "longitude": -149.16667
    },
    {
      "elevation": 195.1,
      "mindate": "2001-03-01",
      "maxdate": "2015-11-01",
      "latitude": 61.4495,
      "name": "EKLUTNA WTP, AK US",
      "datacoverage": 0.9491,
      "id": "COOP:502737",
      "elevationUnit": "METERS",
      "longitude": -149.323
    },
    {
      "elevation": 15.8,
      "mindate": "1941-04-01",
      "maxdate": "1973-07-01",
      "latitude": 58.97096,
      "name": "ELDRED ROCK",
      "datacoverage": 0.9098,
      "id": "COOP:502770",
      "elevationUnit": "METERS",
      "longitude": -135.22026
    },
    {
      "elevation": 6.1,
      "mindate": "1975-01-01",
      "maxdate": "2015-11-01",
      "latitude": 58.1916,
      "name": "ELFIN COVE, US",
      "datacoverage": 0.9675,
      "id": "COOP:502785",
      "elevationUnit": "METERS",
      "longitude": -136.3435
    },
    {
      "elevation": 64.6,
      "mindate": "1941-04-01",
      "maxdate": "1997-09-01",
      "latitude": 61.25306,
      "name": "ANCHORAGE ELMENDORF AFB, AK US",
      "datacoverage": 0.9159,
      "id": "COOP:502820",
      "elevationUnit": "METERS",
      "longitude": -149.79361
    },
    {
      "elevation": 4.3,
      "mindate": "1977-09-01",
      "maxdate": "1994-01-01",
      "latitude": 62.78528,
      "name": "EMMONAK, AK US",
      "datacoverage": 0.873,
      "id": "COOP:502825",
      "elevationUnit": "METERS",
      "longitude": -164.49111
    },
    {
      "elevation": 580,
      "mindate": "1965-07-01",
      "maxdate": "1977-01-01",
      "latitude": 61.45,
      "name": "ERNESTINE, AK US",
      "datacoverage": 0.5249,
      "id": "COOP:502835",
      "elevationUnit": "METERS",
      "longitude": -145.11667
    },
    {
      "elevation": 663.5,
      "mindate": "1999-08-01",
      "maxdate": "2010-10-01",
      "latitude": 64.8769,
      "name": "ESTER DOME, AK US",
      "datacoverage": 0.8887,
      "id": "COOP:502868",
      "elevationUnit": "METERS",
      "longitude": -148.0392
    },
    {
      "elevation": 199.6,
      "mindate": "2003-05-01",
      "maxdate": "2015-11-01",
      "latitude": 64.8464,
      "name": "ESTER, AK US",
      "datacoverage": 0.9866,
      "id": "COOP:502870",
      "elevationUnit": "METERS",
      "longitude": -148.0256
    },
    {
      "elevation": 192,
      "mindate": "1997-12-01",
      "maxdate": "2015-11-01",
      "latitude": 64.911,
      "name": "ESTER 5 NE, AK US",
      "datacoverage": 0.9908,
      "id": "COOP:502871",
      "elevationUnit": "METERS",
      "longitude": -147.9242
    },
    {
      "elevation": 352,
      "mindate": "2000-05-01",
      "maxdate": "2002-04-01",
      "latitude": 64.79194,
      "name": "ESTER 4 S, AK US",
      "datacoverage": 0.959,
      "id": "COOP:502872",
      "elevationUnit": "METERS",
      "longitude": -148.03667
    },
    {
      "elevation": 195.1,
      "mindate": "1999-04-01",
      "maxdate": "2002-04-01",
      "latitude": 64.91333,
      "name": "ESTER 6 NE, AK US",
      "datacoverage": 0.838,
      "id": "COOP:502873",
      "elevationUnit": "METERS",
      "longitude": -147.91389
    },
    {
      "elevation": 241.1,
      "mindate": "2004-11-01",
      "maxdate": "2005-05-01",
      "latitude": 64.76944,
      "name": "ESTER 2 SSW, AK US",
      "datacoverage": 1,
      "id": "COOP:502876",
      "elevationUnit": "METERS",
      "longitude": -148.04639
    },
    {
      "elevation": 1018.9,
      "mindate": "1953-08-01",
      "maxdate": "1968-12-01",
      "latitude": 61.95,
      "name": "EUREKA, AK US",
      "datacoverage": 0.8269,
      "id": "COOP:502952",
      "elevationUnit": "METERS",
      "longitude": -147.16667
    },
    {
      "elevation": 161.5,
      "mindate": "1976-01-01",
      "maxdate": "1979-01-01",
      "latitude": 64.88667,
      "name": "FAIRBANKS 9 ENE, AK US",
      "datacoverage": 0.0027,
      "id": "COOP:502962",
      "elevationUnit": "METERS",
      "longitude": -147.24944
    },
    {
      "elevation": 225.6,
      "mindate": "1976-01-01",
      "maxdate": "1979-01-01",
      "latitude": 64.89944,
      "name": "FAIRBANKS 39 ENE, AK US",
      "datacoverage": 0.0027,
      "id": "COOP:502963",
      "elevationUnit": "METERS",
      "longitude": -146.40889
    },
    {
      "elevation": 298.7,
      "mindate": "2000-05-01",
      "maxdate": "2001-03-01",
      "latitude": 65.11778,
      "name": "FAIRBANKS 19 N, AK US",
      "datacoverage": 0.9994,
      "id": "COOP:502964",
      "elevationUnit": "METERS",
      "longitude": -147.68556
    },
    {
      "elevation": 130.1,
      "mindate": "1999-12-01",
      "maxdate": "2015-11-01",
      "latitude": 64.8172,
      "name": "FAIRBANKS AIRPORT NUMBER 2, AK US",
      "datacoverage": 0.9896,
      "id": "COOP:502965",
      "elevationUnit": "METERS",
      "longitude": -147.8739
    },
    {
      "elevation": 131.1,
      "mindate": "1949-09-01",
      "maxdate": "2015-11-01",
      "latitude": 64.80309,
      "name": "FAIRBANKS INTERNATIONAL AIRPORT, AK US",
      "datacoverage": 0.9925,
      "id": "COOP:502968",
      "elevationUnit": "METERS",
      "longitude": -147.87606
    },
    {
      "elevation": 134.1,
      "mindate": "1996-12-01",
      "maxdate": "2012-12-01",
      "latitude": 64.83417,
      "name": "FAIRBANKS MIDTOWN, AK US",
      "datacoverage": 0.9533,
      "id": "COOP:502970",
      "elevationUnit": "METERS",
      "longitude": -147.79111
    },
    {
      "elevation": 458.1,
      "mindate": "1942-01-01",
      "maxdate": "1976-01-01",
      "latitude": 62.51667,
      "name": "FAREWELL FAA AIRPORT, AK US",
      "datacoverage": 0.5819,
      "id": "COOP:502988",
      "elevationUnit": "METERS",
      "longitude": -153.88333
    },
    {
      "elevation": 323.1,
      "mindate": "1985-04-01",
      "maxdate": "2009-02-01",
      "latitude": 62.54222,
      "name": "FAREWELL LAKE, AK US",
      "datacoverage": 0.7701,
      "id": "COOP:503009",
      "elevationUnit": "METERS",
      "longitude": -153.62056
    },
    {
      "elevation": 9.1,
      "mindate": "1941-05-01",
      "maxdate": "1984-07-01",
      "latitude": 57.2704,
      "name": "FIVE FINGER LIGHT ST",
      "datacoverage": 0.9248,
      "id": "COOP:503072",
      "elevationUnit": "METERS",
      "longitude": -133.6315
    },
    {
      "elevation": 153,
      "mindate": "1970-09-01",
      "maxdate": "1980-08-01",
      "latitude": 65.93333,
      "name": "FIVE MILE, AK US",
      "datacoverage": 0.6582,
      "id": "COOP:503082",
      "elevationUnit": "METERS",
      "longitude": -149.83333
    },
    {
      "elevation": 348.1,
      "mindate": "1996-08-01",
      "maxdate": "1997-12-01",
      "latitude": 64.40778,
      "name": "FLAG HILL, AK US",
      "datacoverage": 0.7639,
      "id": "COOP:503083",
      "elevationUnit": "METERS",
      "longitude": -146.94861
    },
    {
      "elevation": 99.1,
      "mindate": "1932-08-01",
      "maxdate": "1961-05-01",
      "latitude": 62.45,
      "name": "FLAT, AK US",
      "datacoverage": 0.8729,
      "id": "COOP:503085",
      "elevationUnit": "METERS",
      "longitude": -158
    },
    {
      "elevation": 39.9,
      "mindate": "1922-01-01",
      "maxdate": "1927-05-01",
      "latitude": 55.6,
      "name": "FORTMANN HATCHERY, AK US",
      "datacoverage": 1,
      "id": "COOP:503125",
      "elevationUnit": "METERS",
      "longitude": -131.41667
    },
    {
      "elevation": 494.1,
      "mindate": "1997-12-01",
      "maxdate": "2015-11-01",
      "latitude": 65.0033,
      "name": "FORT KNOX MINE, AK US",
      "datacoverage": 0.9584,
      "id": "COOP:503160",
      "elevationUnit": "METERS",
      "longitude": -147.3408
    },
    {
      "elevation": 143.3,
      "mindate": "1990-05-01",
      "maxdate": "2015-11-01",
      "latitude": 61.2272,
      "name": "FORT RICHARDSON WATER TREATMENT PLANT, AK US",
      "datacoverage": 0.9543,
      "id": "COOP:503163",
      "elevationUnit": "METERS",
      "longitude": -149.6504
    },
    {
      "elevation": 133.5,
      "mindate": "2011-01-01",
      "maxdate": "2013-12-01",
      "latitude": 66.56639,
      "name": "FORT YUKON NUMBER 2, AK US",
      "datacoverage": 0.9998,
      "id": "COOP:503165",
      "elevationUnit": "METERS",
      "longitude": -145.26556
    },
    {
      "elevation": 132,
      "mindate": "1922-01-01",
      "maxdate": "2000-04-01",
      "latitude": 66.57056,
      "name": "FORT YUKON, AK US",
      "datacoverage": 0.5862,
      "id": "COOP:503175",
      "elevationUnit": "METERS",
      "longitude": -145.23417
    },
    {
      "elevation": 236.2,
      "mindate": "1996-12-01",
      "maxdate": "2015-11-01",
      "latitude": 64.9591,
      "name": "FOX 2 SE, AK US",
      "datacoverage": 0.6229,
      "id": "COOP:503181",
      "elevationUnit": "METERS",
      "longitude": -147.6261
    },
    {
      "elevation": 335.3,
      "mindate": "1999-01-01",
      "maxdate": "2001-02-01",
      "latitude": 64.93278,
      "name": "FOX 3 SE, AK US",
      "datacoverage": 0.2697,
      "id": "COOP:503183",
      "elevationUnit": "METERS",
      "longitude": -147.55833
    },
    {
      "mindate": "1975-01-01",
      "maxdate": "1977-08-01",
      "latitude": 69.71667,
      "name": "FRANKLIN BLUFF, AK US",
      "datacoverage": 0.7188,
      "id": "COOP:503184",
      "longitude": -148.68333
    },
    {
      "elevation": 563.9,
      "mindate": "1999-01-01",
      "maxdate": "1999-01-01",
      "latitude": 62.93528,
      "name": "FRONTIER, AK US",
      "datacoverage": 0.9819,
      "id": "COOP:503195",
      "elevationUnit": "METERS",
      "longitude": -141.57722
    },
    {
      "elevation": 83.8,
      "mindate": "2003-08-01",
      "maxdate": "2010-10-01",
      "latitude": 60.48222,
      "name": "FUNNY RIVER, AK US",
      "datacoverage": 0.9652,
      "id": "COOP:503196",
      "elevationUnit": "METERS",
      "longitude": -150.80556
    },
    {
      "elevation": 9.1,
      "mindate": "1980-02-01",
      "maxdate": "1996-06-01",
      "latitude": 58.25,
      "name": "FUNTER BAY",
      "datacoverage": 0.9342,
      "id": "COOP:503198",
      "elevationUnit": "METERS",
      "longitude": -134.9
    },
    {
      "elevation": 445,
      "mindate": "1971-11-01",
      "maxdate": "1989-04-01",
      "latitude": 62.3,
      "name": "GAKONA 1 N, AK US",
      "datacoverage": 0.8192,
      "id": "COOP:503205",
      "elevationUnit": "METERS",
      "longitude": -145.3
    },
    {
      "elevation": 563.9,
      "mindate": "2007-10-01",
      "maxdate": "2009-10-01",
      "latitude": 62.39139,
      "name": "GAKONA 10 NE, AK US",
      "datacoverage": 0.2397,
      "id": "COOP:503208",
      "elevationUnit": "METERS",
      "longitude": -145.1325
    },
    {
      "elevation": 812.6,
      "mindate": "1970-10-01",
      "maxdate": "1980-08-01",
      "latitude": 68.47889,
      "name": "GALBRAITH LAKE AIRPORT, AK US",
      "datacoverage": 0.6553,
      "id": "COOP:503210",
      "elevationUnit": "METERS",
      "longitude": -149.49
    },
    {
      "elevation": 46.3,
      "mindate": "1996-12-01",
      "maxdate": "2015-11-01",
      "latitude": 64.7408,
      "name": "GALENA, AK US",
      "datacoverage": 0.9782,
      "id": "COOP:503212",
      "elevationUnit": "METERS",
      "longitude": -156.8755
    },
    {
      "elevation": 46.6,
      "mindate": "1949-09-01",
      "maxdate": "1993-09-01",
      "latitude": 64.73667,
      "name": "GALENA AIRPORT, AK US",
      "datacoverage": 0.9055,
      "id": "COOP:503215",
      "elevationUnit": "METERS",
      "longitude": -156.93444
    },
    {
      "elevation": 8.5,
      "mindate": "1949-09-01",
      "maxdate": "1997-08-01",
      "latitude": 63.76667,
      "name": "GAMBELL AIRPORT, AK US",
      "datacoverage": 0.2153,
      "id": "COOP:503226",
      "elevationUnit": "METERS",
      "longitude": -171.73278
    }
  ]
}
