{
  "metadata": {
    "resultset": {
      "offset": 62800,
      "count": 154115,
      "limit": 100
    }
  },
  "results": [
    {
      "elevation": 1208,
      "mindate": "1956-09-01",
      "maxdate": "2025-03-06",
      "latitude": 48.8,
      "name": "BULGAN, MG",
      "datacoverage": 0.9944,
      "id": "GHCND:MG000044239",
      "elevationUnit": "METERS",
      "longitude": 103.55
    },
    {
      "elevation": 747,
      "mindate": "1956-09-01",
      "maxdate": "2025-03-06",
      "latitude": 48.083,
      "name": "CHOIBALSAN, MG",
      "datacoverage": 1,
      "id": "GHCND:MG000044259",
      "elevationUnit": "METERS",
      "longitude": 114.55
    },
    {
      "elevation": 1759,
      "mindate": "1956-10-01",
      "maxdate": "2025-03-06",
      "latitude": 47.75,
      "name": "ULIASTAI, MG",
      "datacoverage": 0.9776,
      "id": "GHCND:MG000044272",
      "elevationUnit": "METERS",
      "longitude": 96.85
    },
    {
      "elevation": 1813,
      "mindate": "1957-03-01",
      "maxdate": "2025-03-06",
      "latitude": 46.267,
      "name": "ARVAIHEER, MG",
      "datacoverage": 0.9609,
      "id": "GHCND:MG000044288",
      "elevationUnit": "METERS",
      "longitude": 102.783
    },
    {
      "elevation": 1076,
      "mindate": "1973-01-01",
      "maxdate": "2025-03-06",
      "latitude": 45.9,
      "name": "ERDENETSAGAAN, MG",
      "datacoverage": 0.9082,
      "id": "GHCND:MG000044317",
      "elevationUnit": "METERS",
      "longitude": 115.367
    },
    {
      "elevation": 1393,
      "mindate": "1956-10-01",
      "maxdate": "2025-03-06",
      "latitude": 45.767,
      "name": "MANDALGOBI, MG",
      "datacoverage": 0.9944,
      "id": "GHCND:MG000044341",
      "elevationUnit": "METERS",
      "longitude": 106.283
    },
    {
      "elevation": 1465,
      "mindate": "1956-12-01",
      "maxdate": "2025-03-06",
      "latitude": 43.583,
      "name": "DALANZADGAD, MG",
      "datacoverage": 0.9986,
      "id": "GHCND:MG000044373",
      "elevationUnit": "METERS",
      "longitude": 104.417
    },
    {
      "elevation": 1583,
      "mindate": "1983-10-01",
      "maxdate": "2025-03-06",
      "latitude": 51.117,
      "name": "RINCHINLHUMBE, MG",
      "datacoverage": 1,
      "id": "GHCND:MGM00044203",
      "elevationUnit": "METERS",
      "longitude": 99.667
    },
    {
      "elevation": 1668,
      "mindate": "1963-03-01",
      "maxdate": "2025-03-06",
      "latitude": 50.433,
      "name": "HATGAL, MG",
      "datacoverage": 0.8775,
      "id": "GHCND:MGM00044207",
      "elevationUnit": "METERS",
      "longitude": 100.15
    },
    {
      "elevation": 1232,
      "mindate": "1983-10-01",
      "maxdate": "2025-03-06",
      "latitude": 49.65,
      "name": "BARUUNTURUUN, MG",
      "datacoverage": 1,
      "id": "GHCND:MGM00044213",
      "elevationUnit": "METERS",
      "longitude": 94.4
    },
    {
      "elevation": 1715,
      "mindate": "1959-01-01",
      "maxdate": "2025-03-06",
      "latitude": 48.933,
      "name": "ULGI, MG",
      "datacoverage": 0.9993,
      "id": "GHCND:MGM00044214",
      "elevationUnit": "METERS",
      "longitude": 89.933
    },
    {
      "elevation": 1590,
      "mindate": "1973-04-30",
      "maxdate": "2025-03-06",
      "latitude": 49.017,
      "name": "OMNO GOBI, MG",
      "datacoverage": 0.8566,
      "id": "GHCND:MGM00044215",
      "elevationUnit": "METERS",
      "longitude": 91.717
    },
    {
      "elevation": 1723,
      "mindate": "1969-01-01",
      "maxdate": "2025-03-06",
      "latitude": 48.733,
      "name": "TOSONTSENGEL, MG",
      "datacoverage": 0.7455,
      "id": "GHCND:MGM00044225",
      "elevationUnit": "METERS",
      "longitude": 98.2
    },
    {
      "elevation": 1235,
      "mindate": "1983-10-01",
      "maxdate": "2025-03-06",
      "latitude": 49.567,
      "name": "TARIALAN, MG",
      "datacoverage": 1,
      "id": "GHCND:MGM00044230",
      "elevationUnit": "METERS",
      "longitude": 102
    },
    {
      "elevation": 938,
      "mindate": "1963-03-01",
      "maxdate": "2025-03-06",
      "latitude": 49.383,
      "name": "HUTAG, MG",
      "datacoverage": 0.881,
      "id": "GHCND:MGM00044232",
      "elevationUnit": "METERS",
      "longitude": 102.7
    },
    {
      "elevation": 1509,
      "mindate": "1983-10-01",
      "maxdate": "2025-03-06",
      "latitude": 48.533,
      "name": "ERDENEMANDAL, MG",
      "datacoverage": 1,
      "id": "GHCND:MGM00044237",
      "elevationUnit": "METERS",
      "longitude": 101.383
    },
    {
      "elevation": 807,
      "mindate": "1956-09-01",
      "maxdate": "2025-03-06",
      "latitude": 48.917,
      "name": "BARUUNHARAA, MG",
      "datacoverage": 0.8839,
      "id": "GHCND:MGM00044241",
      "elevationUnit": "METERS",
      "longitude": 106.067
    },
    {
      "elevation": 705,
      "mindate": "1983-12-01",
      "maxdate": "2025-03-06",
      "latitude": 49.55,
      "name": "DASHBALBAR, MG",
      "datacoverage": 1,
      "id": "GHCND:MGM00044256",
      "elevationUnit": "METERS",
      "longitude": 114.4
    },
    {
      "elevation": 1186,
      "mindate": "1963-03-01",
      "maxdate": "2025-03-06",
      "latitude": 46.117,
      "name": "BAITAG, MG",
      "datacoverage": 0.7313,
      "id": "GHCND:MGM00044265",
      "elevationUnit": "METERS",
      "longitude": 91.467
    },
    {
      "elevation": 2255,
      "mindate": "1983-10-01",
      "maxdate": "2025-03-06",
      "latitude": 46.833,
      "name": "BAYANBULAG, MG",
      "datacoverage": 1,
      "id": "GHCND:MGM00044275",
      "elevationUnit": "METERS",
      "longitude": 98.083
    },
    {
      "elevation": 2181,
      "mindate": "1956-09-01",
      "maxdate": "2025-03-06",
      "latitude": 46.4,
      "name": "ALTAI, MG",
      "datacoverage": 0.8587,
      "id": "GHCND:MGM00044277",
      "elevationUnit": "METERS",
      "longitude": 96.25
    },
    {
      "elevation": 1691,
      "mindate": "1956-09-01",
      "maxdate": "2025-03-06",
      "latitude": 47.45,
      "name": "TSETSERLEG, MG",
      "datacoverage": 0.8839,
      "id": "GHCND:MGM00044282",
      "elevationUnit": "METERS",
      "longitude": 101.467
    },
    {
      "elevation": 2126,
      "mindate": "1958-03-01",
      "maxdate": "2025-03-06",
      "latitude": 46.7,
      "name": "GALUUT, MG",
      "datacoverage": 0.8694,
      "id": "GHCND:MGM00044284",
      "elevationUnit": "METERS",
      "longitude": 100.133
    },
    {
      "elevation": 1662,
      "mindate": "1958-04-01",
      "maxdate": "2025-03-06",
      "latitude": 46.9,
      "name": "HUJIRT, MG",
      "datacoverage": 0.8822,
      "id": "GHCND:MGM00044285",
      "elevationUnit": "METERS",
      "longitude": 102.767
    },
    {
      "elevation": 1859,
      "mindate": "1963-03-01",
      "maxdate": "2025-03-06",
      "latitude": 46.133,
      "name": "BAYANHONGOR, MG",
      "datacoverage": 0.8744,
      "id": "GHCND:MGM00044287",
      "elevationUnit": "METERS",
      "longitude": 100.683
    },
    {
      "elevation": 1330.1,
      "mindate": "1956-08-01",
      "maxdate": "2025-03-06",
      "latitude": 47.843,
      "name": "CHINGGIS KHAAN INTERNATIONAL, MG",
      "datacoverage": 0.8603,
      "id": "GHCND:MGM00044292",
      "elevationUnit": "METERS",
      "longitude": 106.767
    },
    {
      "elevation": 1430,
      "mindate": "1956-09-01",
      "maxdate": "2025-03-06",
      "latitude": 47.3,
      "name": "MAANTI, MG",
      "datacoverage": 0.8895,
      "id": "GHCND:MGM00044294",
      "elevationUnit": "METERS",
      "longitude": 107.483
    },
    {
      "elevation": 1286,
      "mindate": "1956-08-01",
      "maxdate": "2025-03-06",
      "latitude": 46.45,
      "name": "CHOIR, MG",
      "datacoverage": 0.8911,
      "id": "GHCND:MGM00044298",
      "elevationUnit": "METERS",
      "longitude": 108.217
    },
    {
      "elevation": 926,
      "mindate": "1969-01-01",
      "maxdate": "2025-03-06",
      "latitude": 47.783,
      "name": "BAYAN OVOO, MG",
      "datacoverage": 0.7355,
      "id": "GHCND:MGM00044302",
      "elevationUnit": "METERS",
      "longitude": 112.117
    },
    {
      "elevation": 1033,
      "mindate": "1956-09-01",
      "maxdate": "2025-03-06",
      "latitude": 47.317,
      "name": "UNDERKHAAN, MG",
      "datacoverage": 0.8881,
      "id": "GHCND:MGM00044304",
      "elevationUnit": "METERS",
      "longitude": 110.633
    },
    {
      "elevation": 981,
      "mindate": "1960-01-01",
      "maxdate": "2025-03-06",
      "latitude": 46.683,
      "name": "BARUUN URT, MG",
      "datacoverage": 0.8785,
      "id": "GHCND:MGM00044305",
      "elevationUnit": "METERS",
      "longitude": 113.283
    },
    {
      "elevation": 688,
      "mindate": "1983-10-01",
      "maxdate": "2025-03-06",
      "latitude": 47.617,
      "name": "KHALKH GOL, MG",
      "datacoverage": 0.9846,
      "id": "GHCND:MGM00044313",
      "elevationUnit": "METERS",
      "longitude": 118.617
    },
    {
      "elevation": 907,
      "mindate": "1975-08-01",
      "maxdate": "2025-03-06",
      "latitude": 47.167,
      "name": "MATAD, MG",
      "datacoverage": 1,
      "id": "GHCND:MGM00044314",
      "elevationUnit": "METERS",
      "longitude": 115.633
    },
    {
      "elevation": 1316,
      "mindate": "1983-10-01",
      "maxdate": "2025-03-06",
      "latitude": 45.45,
      "name": "SAIKHAN OVOO, MG",
      "datacoverage": 0.9974,
      "id": "GHCND:MGM00044336",
      "elevationUnit": "METERS",
      "longitude": 103.9
    },
    {
      "elevation": 1298,
      "mindate": "1969-01-01",
      "maxdate": "2025-03-06",
      "latitude": 44.417,
      "name": "TSOGT OVOO, MG",
      "datacoverage": 0.9665,
      "id": "GHCND:MGM00044347",
      "elevationUnit": "METERS",
      "longitude": 105.317
    },
    {
      "elevation": 1101,
      "mindate": "1956-11-01",
      "maxdate": "2025-03-06",
      "latitude": 45.733,
      "name": "BAYANDELGER, MG",
      "datacoverage": 0.9225,
      "id": "GHCND:MGM00044352",
      "elevationUnit": "METERS",
      "longitude": 112.367
    },
    {
      "elevation": 938,
      "mindate": "1956-10-01",
      "maxdate": "2025-03-06",
      "latitude": 44.9,
      "name": "SAINSHAND, MG",
      "datacoverage": 0.881,
      "id": "GHCND:MGM00044354",
      "elevationUnit": "METERS",
      "longitude": 110.117
    },
    {
      "elevation": 964,
      "mindate": "1956-08-01",
      "maxdate": "2025-03-06",
      "latitude": 43.733,
      "name": "ZAMYN UUD, MG",
      "datacoverage": 0.8897,
      "id": "GHCND:MGM00044358",
      "elevationUnit": "METERS",
      "longitude": 111.9
    },
    {
      "elevation": 1278,
      "mindate": "1955-07-01",
      "maxdate": "1990-06-30",
      "latitude": -9.7,
      "name": "CHITIPA, MI",
      "datacoverage": 0.9993,
      "id": "GHCND:MI000067421",
      "elevationUnit": "METERS",
      "longitude": 33.267
    },
    {
      "elevation": 529,
      "mindate": "1950-08-01",
      "maxdate": "1990-06-30",
      "latitude": -9.95,
      "name": "KARONGA, MI",
      "datacoverage": 0.9993,
      "id": "GHCND:MI000067423",
      "elevationUnit": "METERS",
      "longitude": 33.883
    },
    {
      "elevation": 1100,
      "mindate": "1954-05-01",
      "maxdate": "1990-06-30",
      "latitude": -10.967,
      "name": "BOLERO, MI",
      "datacoverage": 0.8945,
      "id": "GHCND:MI000067424",
      "elevationUnit": "METERS",
      "longitude": 33.733
    },
    {
      "elevation": 1351,
      "mindate": "1921-01-01",
      "maxdate": "1990-06-30",
      "latitude": -11.883,
      "name": "MZIMBA, MI",
      "datacoverage": 0.9213,
      "id": "GHCND:MI000067485",
      "elevationUnit": "METERS",
      "longitude": 33.617
    },
    {
      "elevation": 1253,
      "mindate": "1961-01-01",
      "maxdate": "1990-06-30",
      "latitude": -11.45,
      "name": "MZUZU, MI",
      "datacoverage": 0.9993,
      "id": "GHCND:MI000067489",
      "elevationUnit": "METERS",
      "longitude": 34.017
    },
    {
      "elevation": 500,
      "mindate": "1898-10-01",
      "maxdate": "1990-06-30",
      "latitude": -11.6,
      "name": "NKHATA BAY, MI",
      "datacoverage": 0.4778,
      "id": "GHCND:MI000067493",
      "elevationUnit": "METERS",
      "longitude": 34.3
    },
    {
      "elevation": 1149,
      "mindate": "1949-10-01",
      "maxdate": "1990-06-30",
      "latitude": -13.983,
      "name": "CHITEDZE, MI",
      "datacoverage": 0.998,
      "id": "GHCND:MI000067585",
      "elevationUnit": "METERS",
      "longitude": 33.633
    },
    {
      "elevation": 1100,
      "mindate": "1940-01-01",
      "maxdate": "1990-06-30",
      "latitude": -14.167,
      "name": "N.R.C., MI",
      "datacoverage": 0.5828,
      "id": "GHCND:MI000067588",
      "elevationUnit": "METERS",
      "longitude": 33.667
    },
    {
      "elevation": 500,
      "mindate": "1921-01-01",
      "maxdate": "1990-06-30",
      "latitude": -12.917,
      "name": "NKHOTA KOTA, MI",
      "datacoverage": 0.9953,
      "id": "GHCND:MI000067591",
      "elevationUnit": "METERS",
      "longitude": 34.267
    },
    {
      "elevation": 513,
      "mindate": "1953-05-01",
      "maxdate": "1990-06-30",
      "latitude": -13.75,
      "name": "SALIMA, MI",
      "datacoverage": 0.9912,
      "id": "GHCND:MI000067597",
      "elevationUnit": "METERS",
      "longitude": 34.583
    },
    {
      "elevation": 1141,
      "mindate": "1965-10-01",
      "maxdate": "1990-06-30",
      "latitude": -15.783,
      "name": "CHICHIRI, MI",
      "datacoverage": 0.99,
      "id": "GHCND:MI000067687",
      "elevationUnit": "METERS",
      "longitude": 35.033
    },
    {
      "elevation": 1632,
      "mindate": "1957-08-01",
      "maxdate": "1990-06-30",
      "latitude": -14.317,
      "name": "DEDZA, MI",
      "datacoverage": 0.995,
      "id": "GHCND:MI000067689",
      "elevationUnit": "METERS",
      "longitude": 34.267
    },
    {
      "elevation": 1028,
      "mindate": "1964-11-01",
      "maxdate": "1990-06-30",
      "latitude": -15.517,
      "name": "MAKOKA, MI",
      "datacoverage": 0.9937,
      "id": "GHCND:MI000067692",
      "elevationUnit": "METERS",
      "longitude": 35.217
    },
    {
      "elevation": 767,
      "mindate": "1939-01-01",
      "maxdate": "2025-03-06",
      "latitude": -15.683,
      "name": "CHILEKA, MI",
      "datacoverage": 0.9789,
      "id": "GHCND:MI000067693",
      "elevationUnit": "METERS",
      "longitude": 34.967
    },
    {
      "elevation": 485,
      "mindate": "1902-07-01",
      "maxdate": "1990-06-30",
      "latitude": -14.433,
      "name": "MANGOCHI, MI",
      "datacoverage": 0.9136,
      "id": "GHCND:MI000067695",
      "elevationUnit": "METERS",
      "longitude": 35.25
    },
    {
      "elevation": 653,
      "mindate": "1957-07-01",
      "maxdate": "1990-05-31",
      "latitude": -16.082,
      "name": "MIMOSA, MI",
      "datacoverage": 0.9646,
      "id": "GHCND:MI000067699",
      "elevationUnit": "METERS",
      "longitude": 35.583
    },
    {
      "elevation": 1146,
      "mindate": "1941-05-01",
      "maxdate": "2023-12-06",
      "latitude": -15.917,
      "name": "BVUMBWE, MI",
      "datacoverage": 0.9771,
      "id": "GHCND:MI000067791",
      "elevationUnit": "METERS",
      "longitude": 35.067
    },
    {
      "elevation": 820,
      "mindate": "1961-07-01",
      "maxdate": "1990-06-30",
      "latitude": -16.149,
      "name": "THYOLO, MI",
      "datacoverage": 0.9916,
      "id": "GHCND:MI000067793",
      "elevationUnit": "METERS",
      "longitude": 35.217
    },
    {
      "elevation": 58,
      "mindate": "1937-06-01",
      "maxdate": "1990-06-30",
      "latitude": -16.517,
      "name": "MAKANGA, MI",
      "datacoverage": 0.9357,
      "id": "GHCND:MI000067797",
      "elevationUnit": "METERS",
      "longitude": 35.15
    },
    {
      "elevation": 1261,
      "mindate": "1982-05-01",
      "maxdate": "2015-06-14",
      "latitude": -13.789,
      "name": "LILONGWE INTERNATIONAL, MI",
      "datacoverage": 0.7086,
      "id": "GHCND:MIM00067586",
      "elevationUnit": "METERS",
      "longitude": 33.781
    },
    {
      "elevation": 784,
      "mindate": "2016-07-01",
      "maxdate": "2025-01-31",
      "latitude": 43.3542,
      "name": "PLJEVLJA, MJ",
      "datacoverage": 0.9758,
      "id": "GHCND:MJE00175528",
      "elevationUnit": "METERS",
      "longitude": 19.345
    },
    {
      "elevation": 945,
      "mindate": "2016-07-01",
      "maxdate": "2025-01-31",
      "latitude": 42.83,
      "name": "KOLASIN, MJ",
      "datacoverage": 0.9758,
      "id": "GHCND:MJE00175538",
      "elevationUnit": "METERS",
      "longitude": 19.53
    },
    {
      "elevation": 145,
      "mindate": "2016-07-01",
      "maxdate": "2025-01-31",
      "latitude": 43.15,
      "name": "ZABLJAK, MJ",
      "datacoverage": 0.9758,
      "id": "GHCND:MJE00175548",
      "elevationUnit": "METERS",
      "longitude": 19.13
    },
    {
      "elevation": 49,
      "mindate": "2016-07-01",
      "maxdate": "2025-01-31",
      "latitude": 42.4375,
      "name": "PODGORICA, MJ",
      "datacoverage": 0.9758,
      "id": "GHCND:MJE00175553",
      "elevationUnit": "METERS",
      "longitude": 19.2781
    },
    {
      "elevation": 788,
      "mindate": "1973-01-01",
      "maxdate": "2025-03-06",
      "latitude": 43.35,
      "name": "PLEVLJA, MJ",
      "datacoverage": 0.9731,
      "id": "GHCND:MJM00013363",
      "elevationUnit": "METERS",
      "longitude": 19.35
    },
    {
      "elevation": 647,
      "mindate": "1982-04-01",
      "maxdate": "2025-03-06",
      "latitude": 42.76,
      "name": "NIKSIC, MJ",
      "datacoverage": 0.9632,
      "id": "GHCND:MJM00013459",
      "elevationUnit": "METERS",
      "longitude": 18.95
    },
    {
      "elevation": 6,
      "mindate": "1982-01-01",
      "maxdate": "2025-03-06",
      "latitude": 42.1,
      "name": "BAR",
      "datacoverage": 0.6643,
      "id": "GHCND:MJM00013461",
      "elevationUnit": "METERS",
      "longitude": 19.08
    },
    {
      "elevation": 50,
      "mindate": "2001-09-01",
      "maxdate": "2025-03-06",
      "latitude": 42.433,
      "name": "PODGORICA GRAD, MJ",
      "datacoverage": 0.9887,
      "id": "GHCND:MJM00013463",
      "elevationUnit": "METERS",
      "longitude": 19.283
    },
    {
      "elevation": 1321,
      "mindate": "1973-06-01",
      "maxdate": "2025-03-06",
      "latitude": 41.53,
      "name": "LAZAROPOLE, MK",
      "datacoverage": 0.8307,
      "id": "GHCND:MK000013577",
      "elevationUnit": "METERS",
      "longitude": 20.7
    },
    {
      "elevation": 673,
      "mindate": "1948-12-01",
      "maxdate": "2025-03-06",
      "latitude": 41.3331,
      "name": "PRILEP, MK",
      "datacoverage": 0.9942,
      "id": "GHCND:MKE00100915",
      "elevationUnit": "METERS",
      "longitude": 21.5667
    },
    {
      "elevation": 301,
      "mindate": "2001-11-14",
      "maxdate": "2025-03-06",
      "latitude": 42.017,
      "name": "SKOPJE ZAJCEV RID, MK",
      "datacoverage": 1,
      "id": "GHCND:MKM00013588",
      "elevationUnit": "METERS",
      "longitude": 21.4
    },
    {
      "elevation": 327,
      "mindate": "1973-04-01",
      "maxdate": "2025-03-06",
      "latitude": 41.75,
      "name": "STIP, MK",
      "datacoverage": 0.874,
      "id": "GHCND:MKM00013591",
      "elevationUnit": "METERS",
      "longitude": 22.183
    },
    {
      "elevation": 491,
      "mindate": "1957-07-01",
      "maxdate": "2015-03-03",
      "latitude": 20.2,
      "name": "TESSALIT, ML",
      "datacoverage": 0.6396,
      "id": "GHCND:ML000061202",
      "elevationUnit": "METERS",
      "longitude": 0.983
    },
    {
      "elevation": 264,
      "mindate": "1957-07-01",
      "maxdate": "2025-03-06",
      "latitude": 16.717,
      "name": "TOMBOUCTOU, ML",
      "datacoverage": 0.7991,
      "id": "GHCND:ML000061223",
      "elevationUnit": "METERS",
      "longitude": -3
    },
    {
      "elevation": 278,
      "mindate": "1957-07-01",
      "maxdate": "2012-01-31",
      "latitude": 15.867,
      "name": "MENAKA, ML",
      "datacoverage": 0.4473,
      "id": "GHCND:ML000061250",
      "elevationUnit": "METERS",
      "longitude": 2.217
    },
    {
      "elevation": 334,
      "mindate": "1960-03-05",
      "maxdate": "2025-03-06",
      "latitude": 13.067,
      "name": "KITA, ML",
      "datacoverage": 0.9986,
      "id": "GHCND:ML000061270",
      "elevationUnit": "METERS",
      "longitude": -9.467
    },
    {
      "elevation": 375,
      "mindate": "1957-07-01",
      "maxdate": "2025-03-05",
      "latitude": 11.35,
      "name": "SIKASSO, ML",
      "datacoverage": 0.7901,
      "id": "GHCND:ML000061297",
      "elevationUnit": "METERS",
      "longitude": -5.683
    },
    {
      "elevation": 459,
      "mindate": "1960-07-15",
      "maxdate": "2011-06-11",
      "latitude": 18.433,
      "name": "KIDAL, ML",
      "datacoverage": 0.3411,
      "id": "GHCND:MLM00061214",
      "elevationUnit": "METERS",
      "longitude": 1.35
    },
    {
      "elevation": 265.2,
      "mindate": "1957-07-01",
      "maxdate": "2025-03-06",
      "latitude": 16.248,
      "name": "GAO, ML",
      "datacoverage": 0.8189,
      "id": "GHCND:MLM00061226",
      "elevationUnit": "METERS",
      "longitude": -0.005
    },
    {
      "elevation": 237,
      "mindate": "1960-03-05",
      "maxdate": "2025-03-06",
      "latitude": 15.233,
      "name": "NIORO DU SAHEL, ML",
      "datacoverage": 0.7808,
      "id": "GHCND:MLM00061230",
      "elevationUnit": "METERS",
      "longitude": -9.35
    },
    {
      "elevation": 265,
      "mindate": "1978-02-01",
      "maxdate": "2025-03-06",
      "latitude": 15.167,
      "name": "NARA KEIBANE, ML",
      "datacoverage": 0.9986,
      "id": "GHCND:MLM00061233",
      "elevationUnit": "METERS",
      "longitude": -7.283
    },
    {
      "elevation": 100,
      "mindate": "1991-06-24",
      "maxdate": "2025-03-05",
      "latitude": 15.117,
      "name": "YELIMANE, ML",
      "datacoverage": 0.6529,
      "id": "GHCND:MLM00061235",
      "elevationUnit": "METERS",
      "longitude": -10.567
    },
    {
      "elevation": 288,
      "mindate": "1957-07-01",
      "maxdate": "2012-02-18",
      "latitude": 15.333,
      "name": "HOMBORI, ML",
      "datacoverage": 0.625,
      "id": "GHCND:MLM00061240",
      "elevationUnit": "METERS",
      "longitude": -1.683
    },
    {
      "elevation": 51.5,
      "mindate": "1957-07-01",
      "maxdate": "2025-03-06",
      "latitude": 14.482,
      "name": "KAYES DAG DAG, ML",
      "datacoverage": 0.9986,
      "id": "GHCND:MLM00061257",
      "elevationUnit": "METERS",
      "longitude": -11.44
    },
    {
      "elevation": 276.1,
      "mindate": "1957-07-01",
      "maxdate": "2025-03-06",
      "latitude": 14.513,
      "name": "AMBODEDJO, ML",
      "datacoverage": 0.9986,
      "id": "GHCND:MLM00061265",
      "elevationUnit": "METERS",
      "longitude": -4.08
    },
    {
      "elevation": 289,
      "mindate": "1957-07-01",
      "maxdate": "2025-03-06",
      "latitude": 13.4,
      "name": "SEGOU, ML",
      "datacoverage": 0.7886,
      "id": "GHCND:MLM00061272",
      "elevationUnit": "METERS",
      "longitude": -6.15
    },
    {
      "elevation": 284,
      "mindate": "1960-03-05",
      "maxdate": "2025-03-05",
      "latitude": 13.333,
      "name": "SAN, ML",
      "datacoverage": 0.823,
      "id": "GHCND:MLM00061277",
      "elevationUnit": "METERS",
      "longitude": -4.833
    },
    {
      "elevation": 132,
      "mindate": "1960-03-05",
      "maxdate": "2025-03-05",
      "latitude": 12.85,
      "name": "KENIEBA, ML",
      "datacoverage": 0.9986,
      "id": "GHCND:MLM00061285",
      "elevationUnit": "METERS",
      "longitude": -11.233
    },
    {
      "elevation": 380.1,
      "mindate": "1975-01-01",
      "maxdate": "2025-03-06",
      "latitude": 12.534,
      "name": "SENOU, ML",
      "datacoverage": 0.9899,
      "id": "GHCND:MLM00061291",
      "elevationUnit": "METERS",
      "longitude": -7.95
    },
    {
      "elevation": 367,
      "mindate": "1960-03-01",
      "maxdate": "2025-03-06",
      "latitude": 12.383,
      "name": "KOUTIALA, ML",
      "datacoverage": 0.9986,
      "id": "GHCND:MLM00061293",
      "elevationUnit": "METERS",
      "longitude": -5.467
    },
    {
      "elevation": 351,
      "mindate": "1960-03-04",
      "maxdate": "2025-03-05",
      "latitude": 11.417,
      "name": "BOUGOUNI, ML",
      "datacoverage": 0.9986,
      "id": "GHCND:MLM00061296",
      "elevationUnit": "METERS",
      "longitude": -7.5
    },
    {
      "elevation": 206,
      "mindate": "1942-11-21",
      "maxdate": "2025-03-06",
      "latitude": 33.367,
      "name": "NOUASSEUR, MO",
      "datacoverage": 0.8284,
      "id": "GHCND:MO000060156",
      "elevationUnit": "METERS",
      "longitude": -7.583
    },
    {
      "elevation": 1508,
      "mindate": "1965-09-01",
      "maxdate": "2025-03-06",
      "latitude": 32.68,
      "name": "MIDELT, MO",
      "datacoverage": 0.8962,
      "id": "GHCND:MO000060195",
      "elevationUnit": "METERS",
      "longitude": -4.73
    },
    {
      "elevation": 1139,
      "mindate": "1965-09-01",
      "maxdate": "2025-03-06",
      "latitude": 30.93,
      "name": "OUARZAZATE, MO",
      "datacoverage": 0.9012,
      "id": "GHCND:MO000060265",
      "elevationUnit": "METERS",
      "longitude": -6.9
    },
    {
      "elevation": 86,
      "mindate": "1912-06-01",
      "maxdate": "2025-03-06",
      "latitude": 35.78,
      "name": "TANGIER CITY, MO",
      "datacoverage": 0.6092,
      "id": "GHCND:MOE00147752",
      "elevationUnit": "METERS",
      "longitude": -5.82
    },
    {
      "elevation": 19,
      "mindate": "1961-06-01",
      "maxdate": "1978-12-31",
      "latitude": 35.7297,
      "name": "TANGIER AIRPORT, MO",
      "datacoverage": 0.5997,
      "id": "GHCND:MOE00147753",
      "elevationUnit": "METERS",
      "longitude": -5.9
    },
    {
      "elevation": 27,
      "mindate": "1965-04-01",
      "maxdate": "1978-12-30",
      "latitude": 35.18,
      "name": "AL HOCEIMA, MO",
      "datacoverage": 0.3272,
      "id": "GHCND:MOE00147754",
      "elevationUnit": "METERS",
      "longitude": -3.85
    },
    {
      "elevation": 468,
      "mindate": "1910-01-01",
      "maxdate": "2025-03-06",
      "latitude": 34.78,
      "name": "OUJDA, MO",
      "datacoverage": 0.7428,
      "id": "GHCND:MOE00147755",
      "elevationUnit": "METERS",
      "longitude": -1.93
    },
    {
      "elevation": 10,
      "mindate": "1920-05-01",
      "maxdate": "1978-12-31",
      "latitude": 35.58,
      "name": "TETUAN, MO",
      "datacoverage": 0.5879,
      "id": "GHCND:MOE00147756",
      "elevationUnit": "METERS",
      "longitude": -5.33
    },
    {
      "elevation": 84.1,
      "mindate": "1943-01-13",
      "maxdate": "2025-03-06",
      "latitude": 34.051,
      "name": "SALE, MO",
      "datacoverage": 0.8457,
      "id": "GHCND:MOM00060135",
      "elevationUnit": "METERS",
      "longitude": -6.752
    },
    {
      "elevation": 576.1,
      "mindate": "1957-01-01",
      "maxdate": "2025-03-06",
      "latitude": 33.879,
      "name": "BASSATINE, MO",
      "datacoverage": 0.8327,
      "id": "GHCND:MOM00060150",
      "elevationUnit": "METERS",
      "longitude": -5.515
    },
    {
      "elevation": 61.9,
      "mindate": "1957-01-01",
      "maxdate": "2025-03-06",
      "latitude": 33.557,
      "name": "ANFA, MO",
      "datacoverage": 0.8819,
      "id": "GHCND:MOM00060155",
      "elevationUnit": "METERS",
      "longitude": -7.66
    }
  ]
}
