{
  "metadata": {
    "resultset": {
      "offset": 96000,
      "count": 154115,
      "limit": 100
    }
  },
  "results": [
    {
      "elevation": 203.3,
      "mindate": "2009-03-01",
      "maxdate": "2025-03-05",
      "latitude": 42.957642,
      "name": "SARANAC 2.6 NE, MI US",
      "datacoverage": 0.9997,
      "id": "GHCND:US1MIIN0001",
      "elevationUnit": "METERS",
      "longitude": -85.173759
    },
    {
      "elevation": 199.6,
      "mindate": "2009-06-01",
      "maxdate": "2010-10-25",
      "latitude": 42.982832,
      "name": "IONIA 0.3 SW, MI US",
      "datacoverage": 0.499,
      "id": "GHCND:US1MIIN0002",
      "elevationUnit": "METERS",
      "longitude": -85.062305
    },
    {
      "elevation": 259.1,
      "mindate": "2010-03-01",
      "maxdate": "2016-12-02",
      "latitude": 43.0513,
      "name": "ORLEANS 1.3 SSE, MI US",
      "datacoverage": 0.6435,
      "id": "GHCND:US1MIIN0003",
      "elevationUnit": "METERS",
      "longitude": -85.1245
    },
    {
      "elevation": 250.2,
      "mindate": "2011-06-01",
      "maxdate": "2013-07-07",
      "latitude": 42.8421781,
      "name": "CLARKSVILLE 0.3 W, MI US",
      "datacoverage": 0.998,
      "id": "GHCND:US1MIIN0004",
      "elevationUnit": "METERS",
      "longitude": -85.2474344
    },
    {
      "elevation": 259.1,
      "mindate": "2015-03-01",
      "maxdate": "2016-08-21",
      "latitude": 43.068,
      "name": "BELDING 2.6 SE, MI US",
      "datacoverage": 0.9956,
      "id": "GHCND:US1MIIN0007",
      "elevationUnit": "METERS",
      "longitude": -85.198
    },
    {
      "elevation": 501.7,
      "mindate": "2018-06-13",
      "maxdate": "2024-10-27",
      "latitude": 46.3596383,
      "name": "TROUT CREEK 9.6 SSE, MI US",
      "datacoverage": 0.4131,
      "id": "GHCND:US1MIIR0001",
      "elevationUnit": "METERS",
      "longitude": -88.9121902
    },
    {
      "elevation": 465.4,
      "mindate": "2020-06-22",
      "maxdate": "2025-01-17",
      "latitude": 46.394,
      "name": "CRYSTAL FALLS 20.5 N, MI US",
      "datacoverage": 0.9819,
      "id": "GHCND:US1MIIR0002",
      "elevationUnit": "METERS",
      "longitude": -88.313
    },
    {
      "elevation": 227.4,
      "mindate": "2008-07-01",
      "maxdate": "2012-03-13",
      "latitude": 43.650088,
      "name": "MOUNT PLEASANT 5.1 NE, MI US",
      "datacoverage": 0.9998,
      "id": "GHCND:US1MIIS0001",
      "elevationUnit": "METERS",
      "longitude": -84.708107
    },
    {
      "elevation": 242,
      "mindate": "2014-02-01",
      "maxdate": "2016-07-26",
      "latitude": 43.588193,
      "name": "MOUNT PLEASANT 0.6 SSE, MI US",
      "datacoverage": 1,
      "id": "GHCND:US1MIIS0004",
      "elevationUnit": "METERS",
      "longitude": -84.774781
    },
    {
      "elevation": 238.4,
      "mindate": "2014-12-01",
      "maxdate": "2025-03-07",
      "latitude": 43.47427,
      "name": "SHEPHERD 3.7 SSE, MI US",
      "datacoverage": 1,
      "id": "GHCND:US1MIIS0005",
      "elevationUnit": "METERS",
      "longitude": -84.66728
    },
    {
      "elevation": 232.6,
      "mindate": "2017-08-30",
      "maxdate": "2024-11-29",
      "latitude": 43.5786,
      "name": "MOUNT PLEASANT 3.8 ESE, MI US",
      "datacoverage": 0.7097,
      "id": "GHCND:US1MIIS0007",
      "elevationUnit": "METERS",
      "longitude": -84.7072
    },
    {
      "elevation": 233.2,
      "mindate": "2021-08-15",
      "maxdate": "2025-03-06",
      "latitude": 43.609318,
      "name": "MOUNT PLEASANT 1.4 NE, MI US",
      "datacoverage": 0.8308,
      "id": "GHCND:US1MIIS0008",
      "elevationUnit": "METERS",
      "longitude": -84.755331
    },
    {
      "elevation": 241.1,
      "mindate": "2021-10-21",
      "maxdate": "2022-12-10",
      "latitude": 43.583,
      "name": "MOUNT PLEASANT 1.0 SSW, MI US",
      "datacoverage": 0.5577,
      "id": "GHCND:US1MIIS0009",
      "elevationUnit": "METERS",
      "longitude": -84.784
    },
    {
      "elevation": 244.8,
      "mindate": "2022-12-14",
      "maxdate": "2023-06-19",
      "latitude": 43.576,
      "name": "MOUNT PLEASANT 1.4 S, MI US",
      "datacoverage": 1,
      "id": "GHCND:US1MIIS0010",
      "elevationUnit": "METERS",
      "longitude": -84.773
    },
    {
      "elevation": 221.3,
      "mindate": "2024-03-09",
      "maxdate": "2025-03-07",
      "latitude": 43.63176,
      "name": "MOUNT PLEASANT 7.0 ENE, MI US",
      "datacoverage": 1,
      "id": "GHCND:US1MIIS0011",
      "elevationUnit": "METERS",
      "longitude": -84.64773
    },
    {
      "elevation": 335,
      "mindate": "2008-05-01",
      "maxdate": "2011-05-24",
      "latitude": 42.106624,
      "name": "HANOVER 2.8 E, MI US",
      "datacoverage": 0.538,
      "id": "GHCND:US1MIJC0001",
      "elevationUnit": "METERS",
      "longitude": -84.497752
    },
    {
      "elevation": 289.3,
      "mindate": "2008-08-01",
      "maxdate": "2009-07-29",
      "latitude": 42.261711,
      "name": "JACKSON 1.3 NNE, MI US",
      "datacoverage": 0.7505,
      "id": "GHCND:US1MIJC0004",
      "elevationUnit": "METERS",
      "longitude": -84.398401
    },
    {
      "elevation": 302.4,
      "mindate": "2008-07-01",
      "maxdate": "2024-11-28",
      "latitude": 42.228812,
      "name": "JACKSON 2.8 WSW, MI US",
      "datacoverage": 0.4944,
      "id": "GHCND:US1MIJC0005",
      "elevationUnit": "METERS",
      "longitude": -84.456537
    },
    {
      "elevation": 292.3,
      "mindate": "2008-07-01",
      "maxdate": "2025-03-05",
      "latitude": 42.248449,
      "name": "JACKSON 1.2 ENE, MI US",
      "datacoverage": 0.9031,
      "id": "GHCND:US1MIJC0007",
      "elevationUnit": "METERS",
      "longitude": -84.383023
    },
    {
      "elevation": 304.2,
      "mindate": "2008-09-07",
      "maxdate": "2018-09-26",
      "latitude": 42.242048,
      "name": "GRASS LAKE 0.8 SW, MI US",
      "datacoverage": 0.034,
      "id": "GHCND:US1MIJC0009",
      "elevationUnit": "METERS",
      "longitude": -84.214675
    },
    {
      "elevation": 317.9,
      "mindate": "2008-07-01",
      "maxdate": "2024-12-30",
      "latitude": 42.092634,
      "name": "HANOVER 4.1 E, MI US",
      "datacoverage": 0.9891,
      "id": "GHCND:US1MIJC0010",
      "elevationUnit": "METERS",
      "longitude": -84.472924
    },
    {
      "elevation": 304.2,
      "mindate": "2002-04-04",
      "maxdate": "2025-03-07",
      "latitude": 42.240611,
      "name": "JACKSON 3.2 W, MI US",
      "datacoverage": 0.9999,
      "id": "GHCND:US1MIJC0011",
      "elevationUnit": "METERS",
      "longitude": -84.466918
    },
    {
      "elevation": 328,
      "mindate": "2008-08-01",
      "maxdate": "2024-10-29",
      "latitude": 42.107,
      "name": "HANOVER 3.8 W, MI US",
      "datacoverage": 1,
      "id": "GHCND:US1MIJC0013",
      "elevationUnit": "METERS",
      "longitude": -84.626
    },
    {
      "elevation": 286.2,
      "mindate": "2009-02-01",
      "maxdate": "2019-01-28",
      "latitude": 42.41127,
      "name": "RIVES JUNCTION 4.0 NW, MI US",
      "datacoverage": 1,
      "id": "GHCND:US1MIJC0014",
      "elevationUnit": "METERS",
      "longitude": -84.5276
    },
    {
      "elevation": 309.1,
      "mindate": "2014-04-01",
      "maxdate": "2021-06-29",
      "latitude": 42.267004,
      "name": "GRASS LAKE 2.0 NE, MI US",
      "datacoverage": 0.9819,
      "id": "GHCND:US1MIJC0019",
      "elevationUnit": "METERS",
      "longitude": -84.174095
    },
    {
      "elevation": 294.1,
      "mindate": "2017-04-01",
      "maxdate": "2020-08-05",
      "latitude": 42.205166,
      "name": "JACKSON 2.7 SSW, MI US",
      "datacoverage": 0.6205,
      "id": "GHCND:US1MIJC0022",
      "elevationUnit": "METERS",
      "longitude": -84.416752
    },
    {
      "elevation": 313.6,
      "mindate": "2017-06-21",
      "maxdate": "2020-11-01",
      "latitude": 42.273602,
      "name": "GRASS LAKE 1.7 NNE, MI US",
      "datacoverage": 0.4057,
      "id": "GHCND:US1MIJC0024",
      "elevationUnit": "METERS",
      "longitude": -84.201192
    },
    {
      "elevation": 180.4,
      "mindate": "2010-01-01",
      "maxdate": "2010-08-20",
      "latitude": 44.8513,
      "name": "RAPID CITY 2.2 NW, MI US",
      "datacoverage": 1,
      "id": "GHCND:US1MIKK0002",
      "elevationUnit": "METERS",
      "longitude": -85.321
    },
    {
      "elevation": 180.4,
      "mindate": "2024-05-01",
      "maxdate": "2024-11-11",
      "latitude": 44.84873,
      "name": "RAPID CITY 2.2 WNW, MI US",
      "datacoverage": 0.8549,
      "id": "GHCND:US1MIKK0004",
      "elevationUnit": "METERS",
      "longitude": -85.32284
    },
    {
      "elevation": 212.1,
      "mindate": "2008-06-01",
      "maxdate": "2011-11-28",
      "latitude": 42.856934,
      "name": "KENTWOOD 3.1 SW, MI US",
      "datacoverage": 1,
      "id": "GHCND:US1MIKN0001",
      "elevationUnit": "METERS",
      "longitude": -85.642552
    },
    {
      "elevation": 210,
      "mindate": "2008-07-01",
      "maxdate": "2009-05-16",
      "latitude": 42.810786,
      "name": "BYRON CENTER 1.9 ESE, MI US",
      "datacoverage": 0.636,
      "id": "GHCND:US1MIKN0003",
      "elevationUnit": "METERS",
      "longitude": -85.68516
    },
    {
      "elevation": 249.3,
      "mindate": "2008-07-01",
      "maxdate": "2011-09-24",
      "latitude": 43.08949,
      "name": "ROCKFORD 2.6 S, MI US",
      "datacoverage": 0.718,
      "id": "GHCND:US1MIKN0004",
      "elevationUnit": "METERS",
      "longitude": -85.5662
    },
    {
      "elevation": 243.5,
      "mindate": "2008-06-01",
      "maxdate": "2010-12-02",
      "latitude": 42.86181,
      "name": "ALTO 5.6 WNW, MI US",
      "datacoverage": 0.3869,
      "id": "GHCND:US1MIKN0005",
      "elevationUnit": "METERS",
      "longitude": -85.47993
    },
    {
      "elevation": 190.2,
      "mindate": "2008-06-01",
      "maxdate": "2024-07-16",
      "latitude": 42.9492,
      "name": "ADA 0.7 SE, MI US",
      "datacoverage": 0.8241,
      "id": "GHCND:US1MIKN0006",
      "elevationUnit": "METERS",
      "longitude": -85.4775
    },
    {
      "elevation": 212.4,
      "mindate": "2008-01-01",
      "maxdate": "2025-03-07",
      "latitude": 43.0053,
      "name": "GRAND RAPIDS 3.1 NNE, MI US",
      "datacoverage": 0.9399,
      "id": "GHCND:US1MIKN0008",
      "elevationUnit": "METERS",
      "longitude": -85.641146
    },
    {
      "elevation": 228.3,
      "mindate": "2008-06-01",
      "maxdate": "2008-12-06",
      "latitude": 42.8067,
      "name": "BYRON CENTER 0.4 SW, MI US",
      "datacoverage": 0.9956,
      "id": "GHCND:US1MIKN0009",
      "elevationUnit": "METERS",
      "longitude": -85.7267
    },
    {
      "elevation": 257.9,
      "mindate": "2008-06-01",
      "maxdate": "2009-07-27",
      "latitude": 43.144184,
      "name": "SPARTA 1.1 SSW, MI US",
      "datacoverage": 1,
      "id": "GHCND:US1MIKN0010",
      "elevationUnit": "METERS",
      "longitude": -85.718983
    },
    {
      "elevation": 215.8,
      "mindate": "2008-09-01",
      "maxdate": "2025-03-07",
      "latitude": 42.923687,
      "name": "LOWELL 1.4 ESE, MI US",
      "datacoverage": 1,
      "id": "GHCND:US1MIKN0011",
      "elevationUnit": "METERS",
      "longitude": -85.322221
    },
    {
      "elevation": 211.2,
      "mindate": "2008-07-01",
      "maxdate": "2015-02-02",
      "latitude": 42.8334,
      "name": "CUTLERVILLE 0.7 SE, MI US",
      "datacoverage": 0.2876,
      "id": "GHCND:US1MIKN0013",
      "elevationUnit": "METERS",
      "longitude": -85.652
    },
    {
      "elevation": 233.8,
      "mindate": "2008-06-30",
      "maxdate": "2024-04-29",
      "latitude": 42.9697,
      "name": "GRAND RAPIDS 2.5 ENE, MI US",
      "datacoverage": 0.9993,
      "id": "GHCND:US1MIKN0016",
      "elevationUnit": "METERS",
      "longitude": -85.6075
    },
    {
      "elevation": 227.4,
      "mindate": "2008-07-01",
      "maxdate": "2024-11-05",
      "latitude": 42.817793,
      "name": "ALTO 4.5 SW, MI US",
      "datacoverage": 0.5955,
      "id": "GHCND:US1MIKN0017",
      "elevationUnit": "METERS",
      "longitude": -85.452579
    },
    {
      "elevation": 212.1,
      "mindate": "2008-07-01",
      "maxdate": "2017-10-11",
      "latitude": 42.86892,
      "name": "WYOMING 2.2 SW, MI US",
      "datacoverage": 0.6617,
      "id": "GHCND:US1MIKN0018",
      "elevationUnit": "METERS",
      "longitude": -85.732091
    },
    {
      "elevation": 221.9,
      "mindate": "2008-07-01",
      "maxdate": "2015-11-07",
      "latitude": 42.840301,
      "name": "CUTLERVILLE 1.0 E, MI US",
      "datacoverage": 0.8718,
      "id": "GHCND:US1MIKN0019",
      "elevationUnit": "METERS",
      "longitude": -85.641208
    },
    {
      "elevation": 200.3,
      "mindate": "2008-07-01",
      "maxdate": "2016-08-17",
      "latitude": 42.914681,
      "name": "GRAND RAPIDS 3.2 S, MI US",
      "datacoverage": 0.8816,
      "id": "GHCND:US1MIKN0027",
      "elevationUnit": "METERS",
      "longitude": -85.649234
    },
    {
      "elevation": 217.6,
      "mindate": "2008-09-01",
      "maxdate": "2015-04-29",
      "latitude": 42.841573,
      "name": "BYRON CENTER 2.9 NE, MI US",
      "datacoverage": 1,
      "id": "GHCND:US1MIKN0031",
      "elevationUnit": "METERS",
      "longitude": -85.683517
    },
    {
      "elevation": 194.2,
      "mindate": "2013-07-01",
      "maxdate": "2025-03-07",
      "latitude": 42.991906,
      "name": "GRAND RAPIDS 2.9 NW, MI US",
      "datacoverage": 0.9994,
      "id": "GHCND:US1MIKN0032",
      "elevationUnit": "METERS",
      "longitude": -85.694373
    },
    {
      "elevation": 189.3,
      "mindate": "2008-07-01",
      "maxdate": "2025-03-06",
      "latitude": 42.995024,
      "name": "GRAND RAPIDS 3.0 NW, MI US",
      "datacoverage": 0.9257,
      "id": "GHCND:US1MIKN0033",
      "elevationUnit": "METERS",
      "longitude": -85.692186
    },
    {
      "elevation": 185.9,
      "mindate": "2008-07-01",
      "maxdate": "2010-08-30",
      "latitude": 42.927321,
      "name": "WYOMING 2.6 NNW, MI US",
      "datacoverage": 0.9992,
      "id": "GHCND:US1MIKN0035",
      "elevationUnit": "METERS",
      "longitude": -85.720931
    },
    {
      "elevation": 209.1,
      "mindate": "2008-07-01",
      "maxdate": "2017-01-05",
      "latitude": 42.898951,
      "name": "WYOMING 0.5 NNE, MI US",
      "datacoverage": 0.9999,
      "id": "GHCND:US1MIKN0039",
      "elevationUnit": "METERS",
      "longitude": -85.697975
    },
    {
      "elevation": 249.3,
      "mindate": "2008-07-01",
      "maxdate": "2018-05-10",
      "latitude": 43.16158,
      "name": "SPARTA 2.8 W, MI US",
      "datacoverage": 0.7956,
      "id": "GHCND:US1MIKN0042",
      "elevationUnit": "METERS",
      "longitude": -85.76498
    },
    {
      "elevation": 232.3,
      "mindate": "2008-07-01",
      "maxdate": "2025-03-03",
      "latitude": 42.825262288,
      "name": "CALEDONIA 4.4 WNW, MI US",
      "datacoverage": 0.9999,
      "id": "GHCND:US1MIKN0043",
      "elevationUnit": "METERS",
      "longitude": -85.589418411
    },
    {
      "elevation": 219.8,
      "mindate": "2008-07-01",
      "maxdate": "2010-12-10",
      "latitude": 43.154751,
      "name": "ROCKFORD 2.0 N, MI US",
      "datacoverage": 0.7659,
      "id": "GHCND:US1MIKN0044",
      "elevationUnit": "METERS",
      "longitude": -85.55992
    },
    {
      "elevation": 261.2,
      "mindate": "2008-07-01",
      "maxdate": "2008-11-20",
      "latitude": 43.010509,
      "name": "LOWELL 5.3 N, MI US",
      "datacoverage": 0.9947,
      "id": "GHCND:US1MIKN0045",
      "elevationUnit": "METERS",
      "longitude": -85.351775
    },
    {
      "elevation": 223.1,
      "mindate": "2008-08-01",
      "maxdate": "2009-10-10",
      "latitude": 43.158095,
      "name": "ROCKFORD 2.2 N, MI US",
      "datacoverage": 0.666,
      "id": "GHCND:US1MIKN0046",
      "elevationUnit": "METERS",
      "longitude": -85.560339
    },
    {
      "elevation": 227.1,
      "mindate": "2008-09-01",
      "maxdate": "2025-03-07",
      "latitude": 42.874211,
      "name": "KENTWOOD 1.6 WSW, MI US",
      "datacoverage": 1,
      "id": "GHCND:US1MIKN0048",
      "elevationUnit": "METERS",
      "longitude": -85.622056
    },
    {
      "elevation": 246.3,
      "mindate": "2008-11-01",
      "maxdate": "2010-11-12",
      "latitude": 42.826924,
      "name": "CALEDONIA 2.6 NNW, MI US",
      "datacoverage": 0.9612,
      "id": "GHCND:US1MIKN0049",
      "elevationUnit": "METERS",
      "longitude": -85.538196
    },
    {
      "elevation": 219.2,
      "mindate": "2009-05-01",
      "maxdate": "2011-11-30",
      "latitude": 42.8187,
      "name": "BYRON CENTER 0.5 NE, MI US",
      "datacoverage": 0.6617,
      "id": "GHCND:US1MIKN0051",
      "elevationUnit": "METERS",
      "longitude": -85.7171
    },
    {
      "elevation": 241.1,
      "mindate": "2009-07-01",
      "maxdate": "2024-02-09",
      "latitude": 42.949178,
      "name": "ADA 1.8 W, MI US",
      "datacoverage": 0.9998,
      "id": "GHCND:US1MIKN0053",
      "elevationUnit": "METERS",
      "longitude": -85.526282
    },
    {
      "elevation": 220.1,
      "mindate": "2010-08-01",
      "maxdate": "2015-04-19",
      "latitude": 43.0309985,
      "name": "GRAND RAPIDS 5.5 NNE, MI US",
      "datacoverage": 1,
      "id": "GHCND:US1MIKN0056",
      "elevationUnit": "METERS",
      "longitude": -85.6126616
    },
    {
      "elevation": 286.8,
      "mindate": "2011-03-01",
      "maxdate": "2023-11-14",
      "latitude": 43.129389,
      "name": "ROCKFORD 4.3 E, MI US",
      "datacoverage": 0.4068,
      "id": "GHCND:US1MIKN0058",
      "elevationUnit": "METERS",
      "longitude": -85.471106
    },
    {
      "elevation": 239,
      "mindate": "2012-01-01",
      "maxdate": "2020-09-07",
      "latitude": 43.09387,
      "name": "COMSTOCK PARK 3.7 NNE, MI US",
      "datacoverage": 1,
      "id": "GHCND:US1MIKN0060",
      "elevationUnit": "METERS",
      "longitude": -85.642839
    },
    {
      "elevation": 238.4,
      "mindate": "2012-04-01",
      "maxdate": "2022-01-06",
      "latitude": 42.924707,
      "name": "GRAND RAPIDS 3.8 SE, MI US",
      "datacoverage": 0.6341,
      "id": "GHCND:US1MIKN0064",
      "elevationUnit": "METERS",
      "longitude": -85.59942
    },
    {
      "elevation": 239.3,
      "mindate": "2012-05-01",
      "maxdate": "2025-03-07",
      "latitude": 43.07895,
      "name": "BELMONT 1.0 WNW, MI US",
      "datacoverage": 1,
      "id": "GHCND:US1MIKN0065",
      "elevationUnit": "METERS",
      "longitude": -85.6282
    },
    {
      "elevation": 231.3,
      "mindate": "2013-05-01",
      "maxdate": "2020-12-13",
      "latitude": 42.8612,
      "name": "KENTWOOD 1.8 SSE, MI US",
      "datacoverage": 0.6771,
      "id": "GHCND:US1MIKN0068",
      "elevationUnit": "METERS",
      "longitude": -85.5731
    },
    {
      "elevation": 202.1,
      "mindate": "2014-07-01",
      "maxdate": "2015-09-18",
      "latitude": 42.9651718139648,
      "name": "LOWELL 2.2 N, MI US",
      "datacoverage": 0.998,
      "id": "GHCND:US1MIKN0073",
      "elevationUnit": "METERS",
      "longitude": -85.3499145507813
    },
    {
      "elevation": 227.4,
      "mindate": "2015-01-09",
      "maxdate": "2017-06-26",
      "latitude": 42.9043388366699,
      "name": "GRAND RAPIDS 9.6 ESE, MI US",
      "datacoverage": 0.9041,
      "id": "GHCND:US1MIKN0075",
      "elevationUnit": "METERS",
      "longitude": -85.4827575683594
    },
    {
      "elevation": 227.7,
      "mindate": "2015-04-01",
      "maxdate": "2024-12-30",
      "latitude": 43.057961,
      "name": "COMSTOCK PARK 1.0 NNW, MI US",
      "datacoverage": 0.7485,
      "id": "GHCND:US1MIKN0077",
      "elevationUnit": "METERS",
      "longitude": -85.680295
    },
    {
      "elevation": 253.9,
      "mindate": "2015-04-01",
      "maxdate": "2024-11-21",
      "latitude": 43.182941,
      "name": "CEDAR SPRINGS 2.8 SSW, MI US",
      "datacoverage": 0.8316,
      "id": "GHCND:US1MIKN0078",
      "elevationUnit": "METERS",
      "longitude": -85.56863
    },
    {
      "elevation": 265.5,
      "mindate": "2015-08-01",
      "maxdate": "2016-10-30",
      "latitude": 43.274465,
      "name": "SAND LAKE 8.4 E, MI US",
      "datacoverage": 0.9947,
      "id": "GHCND:US1MIKN0080",
      "elevationUnit": "METERS",
      "longitude": -85.352429
    },
    {
      "elevation": 230.1,
      "mindate": "2015-08-01",
      "maxdate": "2019-03-14",
      "latitude": 43.139375,
      "name": "ROCKFORD 0.9 NNE, MI US",
      "datacoverage": 0.998,
      "id": "GHCND:US1MIKN0081",
      "elevationUnit": "METERS",
      "longitude": -85.551269
    },
    {
      "elevation": 265.5,
      "mindate": "2016-03-17",
      "maxdate": "2025-03-06",
      "latitude": 43.09455,
      "name": "ROCKFORD 5.0 ESE, MI US",
      "datacoverage": 0.368,
      "id": "GHCND:US1MIKN0083",
      "elevationUnit": "METERS",
      "longitude": -85.467366
    },
    {
      "elevation": 239.6,
      "mindate": "2016-07-28",
      "maxdate": "2025-01-04",
      "latitude": 42.9281463623047,
      "name": "GRAND RAPIDS 4.6 ESE, MI US",
      "datacoverage": 0.52,
      "id": "GHCND:US1MIKN0084",
      "elevationUnit": "METERS",
      "longitude": -85.5768508911133
    },
    {
      "elevation": 234.4,
      "mindate": "2016-08-18",
      "maxdate": "2025-03-06",
      "latitude": 42.891167,
      "name": "GRAND RAPIDS 5.5 SSE, MI US",
      "datacoverage": 0.7281,
      "id": "GHCND:US1MIKN0086",
      "elevationUnit": "METERS",
      "longitude": -85.60239
    },
    {
      "elevation": 206.7,
      "mindate": "2017-03-18",
      "maxdate": "2017-12-25",
      "latitude": 42.8536435322658,
      "name": "CUTLERVILLE 1.0 NNE, MI US",
      "datacoverage": 0.9956,
      "id": "GHCND:US1MIKN0089",
      "elevationUnit": "METERS",
      "longitude": -85.6528186626176
    },
    {
      "elevation": 224,
      "mindate": "2017-05-23",
      "maxdate": "2023-09-12",
      "latitude": 42.85995,
      "name": "KENTWOOD 1.7 SSE, MI US",
      "datacoverage": 0.4996,
      "id": "GHCND:US1MIKN0092",
      "elevationUnit": "METERS",
      "longitude": -85.57959
    },
    {
      "elevation": 192,
      "mindate": "2017-06-23",
      "maxdate": "2025-03-07",
      "latitude": 42.89531,
      "name": "GRANDVILLE 0.6 SSW, MI US",
      "datacoverage": 0.9991,
      "id": "GHCND:US1MIKN0093",
      "elevationUnit": "METERS",
      "longitude": -85.76006
    },
    {
      "elevation": 250.9,
      "mindate": "2017-06-27",
      "maxdate": "2025-03-07",
      "latitude": 42.82742,
      "name": "CALEDONIA 2.6 NNW, MI US",
      "datacoverage": 0.9783,
      "id": "GHCND:US1MIKN0094",
      "elevationUnit": "METERS",
      "longitude": -85.534945
    },
    {
      "elevation": 279.2,
      "mindate": "2017-08-03",
      "maxdate": "2024-11-26",
      "latitude": 43.293778,
      "name": "TRUFANT 1.8 SE, MI US",
      "datacoverage": 0.3214,
      "id": "GHCND:US1MIKN0095",
      "elevationUnit": "METERS",
      "longitude": -85.330454
    },
    {
      "elevation": 255.7,
      "mindate": "2018-01-01",
      "maxdate": "2023-06-12",
      "latitude": 42.8855,
      "name": "LOWELL 3.5 SSW, MI US",
      "datacoverage": 0.4767,
      "id": "GHCND:US1MIKN0096",
      "elevationUnit": "METERS",
      "longitude": -85.36715
    },
    {
      "elevation": 208.2,
      "mindate": "2018-01-01",
      "maxdate": "2019-01-23",
      "latitude": 42.86135,
      "name": "WYOMING 2.8 SW, MI US",
      "datacoverage": 0.9278,
      "id": "GHCND:US1MIKN0097",
      "elevationUnit": "METERS",
      "longitude": -85.736878
    },
    {
      "elevation": 193.5,
      "mindate": "2018-03-13",
      "maxdate": "2019-10-13",
      "latitude": 42.90735,
      "name": "WYOMING 1.7 NW, MI US",
      "datacoverage": 0.6689,
      "id": "GHCND:US1MIKN0098",
      "elevationUnit": "METERS",
      "longitude": -85.72862
    },
    {
      "elevation": 253.3,
      "mindate": "2019-08-14",
      "maxdate": "2024-12-31",
      "latitude": 42.987608,
      "name": "LOWELL 5.5 NW, MI US",
      "datacoverage": 0.6187,
      "id": "GHCND:US1MIKN0102",
      "elevationUnit": "METERS",
      "longitude": -85.424039
    },
    {
      "elevation": 255.4,
      "mindate": "2019-03-18",
      "maxdate": "2020-08-28",
      "latitude": 43.102378,
      "name": "SPARTA 4.9 SW, MI US",
      "datacoverage": 0.9956,
      "id": "GHCND:US1MIKN0103",
      "elevationUnit": "METERS",
      "longitude": -85.769234
    },
    {
      "elevation": 245.4,
      "mindate": "2020-03-01",
      "maxdate": "2025-03-07",
      "latitude": 43.0124,
      "name": "LOWELL 5.5 N, MI US",
      "datacoverage": 0.8956,
      "id": "GHCND:US1MIKN0106",
      "elevationUnit": "METERS",
      "longitude": -85.3512
    },
    {
      "elevation": 197.2,
      "mindate": "2020-04-20",
      "maxdate": "2020-10-31",
      "latitude": 42.93447,
      "name": "LOWELL 0.6 W, MI US",
      "datacoverage": 0.9925,
      "id": "GHCND:US1MIKN0108",
      "elevationUnit": "METERS",
      "longitude": -85.35712
    },
    {
      "elevation": 228,
      "mindate": "2020-04-21",
      "maxdate": "2022-05-28",
      "latitude": 42.955757,
      "name": "EAST GRAND RAPIDS 1.2 WNW, MI US",
      "datacoverage": 0.362,
      "id": "GHCND:US1MIKN0109",
      "elevationUnit": "METERS",
      "longitude": -85.626862
    },
    {
      "elevation": 217.9,
      "mindate": "2020-06-23",
      "maxdate": "2025-02-15",
      "latitude": 43.031451,
      "name": "NORTHVIEW 1.9 WSW, MI US",
      "datacoverage": 0.9925,
      "id": "GHCND:US1MIKN0111",
      "elevationUnit": "METERS",
      "longitude": -85.633783
    },
    {
      "elevation": 232,
      "mindate": "2021-04-06",
      "maxdate": "2022-09-30",
      "latitude": 43.11483,
      "name": "COMSTOCK PARK 5.5 NNE, MI US",
      "datacoverage": 0.998,
      "id": "GHCND:US1MIKN0114",
      "elevationUnit": "METERS",
      "longitude": -85.621398
    },
    {
      "elevation": 241.4,
      "mindate": "2022-03-31",
      "maxdate": "2024-11-20",
      "latitude": 42.931836,
      "name": "EAST GRAND RAPIDS 1.1 SSW, MI US",
      "datacoverage": 0.6822,
      "id": "GHCND:US1MIKN0116",
      "elevationUnit": "METERS",
      "longitude": -85.616801
    },
    {
      "elevation": 213.7,
      "mindate": "2022-04-13",
      "maxdate": "2023-09-27",
      "latitude": 42.8449,
      "name": "GRAND RAPIDS 8.1 S, MI US",
      "datacoverage": 0.4878,
      "id": "GHCND:US1MIKN0119",
      "elevationUnit": "METERS",
      "longitude": -85.64498
    },
    {
      "elevation": 232,
      "mindate": "2022-07-30",
      "maxdate": "2025-03-07",
      "latitude": 43.16015,
      "name": "SPARTA 0.3 NE, MI US",
      "datacoverage": 1,
      "id": "GHCND:US1MIKN0121",
      "elevationUnit": "METERS",
      "longitude": -85.7052
    },
    {
      "elevation": 275.2,
      "mindate": "2022-08-01",
      "maxdate": "2022-12-20",
      "latitude": 43.289581,
      "name": "SAND LAKE 3.9 W, MI US",
      "datacoverage": 0.998,
      "id": "GHCND:US1MIKN0122",
      "elevationUnit": "METERS",
      "longitude": -85.59551241
    },
    {
      "elevation": 260.9,
      "mindate": "2023-10-21",
      "maxdate": "2025-01-11",
      "latitude": 43.2824618,
      "name": "CEDAR SPRINGS 6.6 NW, MI US",
      "datacoverage": 0.2807,
      "id": "GHCND:US1MIKN0124",
      "elevationUnit": "METERS",
      "longitude": -85.6527963
    },
    {
      "elevation": 265.8,
      "mindate": "2023-12-30",
      "maxdate": "2025-03-06",
      "latitude": 43.09683,
      "name": "ROCKFORD 3.3 SE, MI US",
      "datacoverage": 0.4573,
      "id": "GHCND:US1MIKN0125",
      "elevationUnit": "METERS",
      "longitude": -85.50628
    },
    {
      "elevation": 245.1,
      "mindate": "2024-03-12",
      "maxdate": "2025-03-07",
      "latitude": 43.1793,
      "name": "SPARTA 5.7 ENE, MI US",
      "datacoverage": 0.7867,
      "id": "GHCND:US1MIKN0126",
      "elevationUnit": "METERS",
      "longitude": -85.5998
    },
    {
      "elevation": 246.6,
      "mindate": "2024-03-22",
      "maxdate": "2025-03-01",
      "latitude": 42.812957,
      "name": "ALTO 2.9 S, MI US",
      "datacoverage": 1,
      "id": "GHCND:US1MIKN0127",
      "elevationUnit": "METERS",
      "longitude": -85.381099
    },
    {
      "elevation": 228,
      "mindate": "2024-04-08",
      "maxdate": "2024-12-10",
      "latitude": 42.976142,
      "name": "GRAND RAPIDS 6.6 W, MI US",
      "datacoverage": 0.9956,
      "id": "GHCND:US1MIKN0128",
      "elevationUnit": "METERS",
      "longitude": -85.784333
    },
    {
      "elevation": 221.3,
      "mindate": "2024-07-10",
      "maxdate": "2025-03-07",
      "latitude": 42.9568,
      "name": "GRAND RAPIDS 0.3 S, MI US",
      "datacoverage": 1,
      "id": "GHCND:US1MIKN0130",
      "elevationUnit": "METERS",
      "longitude": -85.6549
    },
    {
      "elevation": 186.8,
      "mindate": "2019-06-08",
      "maxdate": "2024-10-15",
      "latitude": 47.472311,
      "name": "EAGLE HARBOR 6.0 E, MI US",
      "datacoverage": 0.2729,
      "id": "GHCND:US1MIKW0001",
      "elevationUnit": "METERS",
      "longitude": -88.036706
    },
    {
      "elevation": 404.8,
      "mindate": "2019-10-12",
      "maxdate": "2021-11-03",
      "latitude": 47.36928,
      "name": "DELAWARE 5.2 SW, MI US",
      "datacoverage": 0.2281,
      "id": "GHCND:US1MIKW0002",
      "elevationUnit": "METERS",
      "longitude": -88.17919
    }
  ]
}
