{
  "metadata": {
    "resultset": {
      "offset": 77000,
      "count": 154115,
      "limit": 100
    }
  },
  "results": [
    {
      "elevation": 91.7,
      "mindate": "2021-02-13",
      "maxdate": "2023-11-21",
      "latitude": 34.071132,
      "name": "CARTHAGE 0.1 ESE, AR US",
      "datacoverage": 0.1611,
      "id": "GHCND:US1ARDL0004",
      "elevationUnit": "METERS",
      "longitude": -92.553363
    },
    {
      "elevation": 57,
      "mindate": "2012-06-01",
      "maxdate": "2018-10-27",
      "latitude": 33.6978752911091,
      "name": "TILLAR 6.4 W, AR US",
      "datacoverage": 0.5218,
      "id": "GHCND:US1ARDR0004",
      "elevationUnit": "METERS",
      "longitude": -91.5615606307983
    },
    {
      "elevation": 46.3,
      "mindate": "2012-06-01",
      "maxdate": "2018-05-11",
      "latitude": 33.772094,
      "name": "WINCHESTER 0.2 SSW, AR US",
      "datacoverage": 1,
      "id": "GHCND:US1ARDR0007",
      "elevationUnit": "METERS",
      "longitude": -91.475919
    },
    {
      "elevation": 65.8,
      "mindate": "2012-07-01",
      "maxdate": "2025-03-05",
      "latitude": 33.6309,
      "name": "MONTICELLO 1.6 WNW, AR US",
      "datacoverage": 1,
      "id": "GHCND:US1ARDR0009",
      "elevationUnit": "METERS",
      "longitude": -91.82
    },
    {
      "elevation": 55.5,
      "mindate": "2012-08-01",
      "maxdate": "2014-02-05",
      "latitude": 33.3915807,
      "name": "MONTROSE 9.4 NW, AR US",
      "datacoverage": 1,
      "id": "GHCND:US1ARDR0011",
      "elevationUnit": "METERS",
      "longitude": -91.6157473
    },
    {
      "elevation": 48.8,
      "mindate": "2013-10-01",
      "maxdate": "2014-07-18",
      "latitude": 33.56421,
      "name": "WILMAR 4.7 SSE, AR US",
      "datacoverage": 0.9925,
      "id": "GHCND:US1ARDR0012",
      "elevationUnit": "METERS",
      "longitude": -91.8954
    },
    {
      "elevation": 84.4,
      "mindate": "2015-10-24",
      "maxdate": "2025-03-05",
      "latitude": 33.667178,
      "name": "MONTICELLO 3.0 NNW, AR US",
      "datacoverage": 0.9421,
      "id": "GHCND:US1ARDR0014",
      "elevationUnit": "METERS",
      "longitude": -91.806314
    },
    {
      "elevation": 83.8,
      "mindate": "2022-12-11",
      "maxdate": "2025-03-06",
      "latitude": 33.6773416,
      "name": "MONTICELLO 3.7 N, AR US",
      "datacoverage": 1,
      "id": "GHCND:US1ARDR0016",
      "elevationUnit": "METERS",
      "longitude": -91.802413
    },
    {
      "elevation": 42.7,
      "mindate": "2012-06-01",
      "maxdate": "2018-05-11",
      "latitude": 33.63444444,
      "name": "MCGEHEE 0.6 N, AR US",
      "datacoverage": 1,
      "id": "GHCND:US1ARDS0001",
      "elevationUnit": "METERS",
      "longitude": -91.39083333
    },
    {
      "elevation": 103,
      "mindate": "2009-02-01",
      "maxdate": "2017-02-25",
      "latitude": 35.078081,
      "name": "CONWAY 0.8 S, AR US",
      "datacoverage": 0.5369,
      "id": "GHCND:US1ARFK0001",
      "elevationUnit": "METERS",
      "longitude": -92.450679
    },
    {
      "elevation": 102.1,
      "mindate": "2009-05-01",
      "maxdate": "2019-03-10",
      "latitude": 35.099861,
      "name": "CONWAY 1.0 NW, AR US",
      "datacoverage": 0.9877,
      "id": "GHCND:US1ARFK0002",
      "elevationUnit": "METERS",
      "longitude": -92.463981
    },
    {
      "elevation": 107.3,
      "mindate": "2009-04-01",
      "maxdate": "2010-12-11",
      "latitude": 35.069337,
      "name": "CONWAY 10.9 E, AR US",
      "datacoverage": 0.9512,
      "id": "GHCND:US1ARFK0003",
      "elevationUnit": "METERS",
      "longitude": -92.261324
    },
    {
      "elevation": 92.4,
      "mindate": "2009-11-01",
      "maxdate": "2015-09-09",
      "latitude": 34.959582,
      "name": "MAYFLOWER 2.4 ESE, AR US",
      "datacoverage": 1,
      "id": "GHCND:US1ARFK0005",
      "elevationUnit": "METERS",
      "longitude": -92.37858
    },
    {
      "elevation": 93.9,
      "mindate": "2009-03-01",
      "maxdate": "2010-01-14",
      "latitude": 34.9729,
      "name": "MAYFLOWER 0.3 WNW, AR US",
      "datacoverage": 0.9935,
      "id": "GHCND:US1ARFK0008",
      "elevationUnit": "METERS",
      "longitude": -92.424
    },
    {
      "elevation": 97.5,
      "mindate": "2011-02-01",
      "maxdate": "2013-01-17",
      "latitude": 35.0817311,
      "name": "VILONIA 0.7 ESE, AR US",
      "datacoverage": 0.7078,
      "id": "GHCND:US1ARFK0009",
      "elevationUnit": "METERS",
      "longitude": -92.1989146
    },
    {
      "elevation": 96.9,
      "mindate": "2012-04-01",
      "maxdate": "2017-08-31",
      "latitude": 35.165873,
      "name": "VILONIA 5.7 NNE, AR US",
      "datacoverage": 0.8706,
      "id": "GHCND:US1ARFK0010",
      "elevationUnit": "METERS",
      "longitude": -92.190795
    },
    {
      "elevation": 120.4,
      "mindate": "2012-06-01",
      "maxdate": "2020-04-29",
      "latitude": 35.048858,
      "name": "CONWAY 2.8 SSE, AR US",
      "datacoverage": 1,
      "id": "GHCND:US1ARFK0011",
      "elevationUnit": "METERS",
      "longitude": -92.441488
    },
    {
      "elevation": 121.9,
      "mindate": "2012-07-01",
      "maxdate": "2025-03-07",
      "latitude": 35.227748,
      "name": "GREENBRIER 2.8 W, AR US",
      "datacoverage": 0.9998,
      "id": "GHCND:US1ARFK0016",
      "elevationUnit": "METERS",
      "longitude": -92.43243
    },
    {
      "elevation": 131.4,
      "mindate": "1998-06-17",
      "maxdate": "2025-03-07",
      "latitude": 35.259597,
      "name": "GREENBRIER 2.4 NNW, AR US",
      "datacoverage": 1,
      "id": "GHCND:US1ARFK0017",
      "elevationUnit": "METERS",
      "longitude": -92.40545
    },
    {
      "elevation": 96,
      "mindate": "2012-09-01",
      "maxdate": "2017-01-06",
      "latitude": 35.129833,
      "name": "CONWAY 4.4 NE, AR US",
      "datacoverage": 1,
      "id": "GHCND:US1ARFK0018",
      "elevationUnit": "METERS",
      "longitude": -92.394181
    },
    {
      "elevation": 200.9,
      "mindate": "2012-10-21",
      "maxdate": "2018-08-31",
      "latitude": 35.36001667,
      "name": "DAMASCUS 0.5 SW, AR US",
      "datacoverage": 1,
      "id": "GHCND:US1ARFK0019",
      "elevationUnit": "METERS",
      "longitude": -92.41341667
    },
    {
      "elevation": 107.3,
      "mindate": "2013-03-01",
      "maxdate": "2018-08-09",
      "latitude": 35.0685119628906,
      "name": "CONWAY 10.9 E, AR US",
      "datacoverage": 0.9993,
      "id": "GHCND:US1ARFK0020",
      "elevationUnit": "METERS",
      "longitude": -92.2615814208984
    },
    {
      "elevation": 81.1,
      "mindate": "2013-03-01",
      "maxdate": "2019-05-23",
      "latitude": 34.9698,
      "name": "MAYFLOWER 0.7 E, AR US",
      "datacoverage": 0.9993,
      "id": "GHCND:US1ARFK0023",
      "elevationUnit": "METERS",
      "longitude": -92.40613333
    },
    {
      "elevation": 100.3,
      "mindate": "2015-05-01",
      "maxdate": "2017-10-26",
      "latitude": 35.0989761352539,
      "name": "CONWAY 1.6 WNW, AR US",
      "datacoverage": 0.9965,
      "id": "GHCND:US1ARFK0027",
      "elevationUnit": "METERS",
      "longitude": -92.4777297973633
    },
    {
      "elevation": 123.7,
      "mindate": "2018-08-09",
      "maxdate": "2020-12-15",
      "latitude": 35.13601,
      "name": "CONWAY 4.8 NE, AR US",
      "datacoverage": 0.307,
      "id": "GHCND:US1ARFK0036",
      "elevationUnit": "METERS",
      "longitude": -92.39064
    },
    {
      "elevation": 93.3,
      "mindate": "2019-01-31",
      "maxdate": "2025-03-07",
      "latitude": 35.068331,
      "name": "CONWAY 5.3 ESE, AR US",
      "datacoverage": 0.7249,
      "id": "GHCND:US1ARFK0039",
      "elevationUnit": "METERS",
      "longitude": -92.362387
    },
    {
      "elevation": 94.2,
      "mindate": "2020-10-14",
      "maxdate": "2025-03-07",
      "latitude": 35.073248,
      "name": "VILONIA 0.8 SSE, AR US",
      "datacoverage": 0.9991,
      "id": "GHCND:US1ARFK0041",
      "elevationUnit": "METERS",
      "longitude": -92.2067037
    },
    {
      "elevation": 93,
      "mindate": "2021-04-28",
      "maxdate": "2025-03-06",
      "latitude": 35.0629,
      "name": "CONWAY 1.9 SSW, AR US",
      "datacoverage": 0.8424,
      "id": "GHCND:US1ARFK0042",
      "elevationUnit": "METERS",
      "longitude": -92.466
    },
    {
      "elevation": 108.2,
      "mindate": "2023-08-26",
      "maxdate": "2025-03-05",
      "latitude": 35.109162,
      "name": "CONWAY 2.6 WNW, AR US",
      "datacoverage": 0.946,
      "id": "GHCND:US1ARFK0044",
      "elevationUnit": "METERS",
      "longitude": -92.491314
    },
    {
      "elevation": 160.6,
      "mindate": "2012-03-01",
      "maxdate": "2022-01-04",
      "latitude": 35.2965,
      "name": "CHARLESTON 1.7 E, AR US",
      "datacoverage": 0.9996,
      "id": "GHCND:US1ARFR0002",
      "elevationUnit": "METERS",
      "longitude": -94.0174
    },
    {
      "elevation": 149.4,
      "mindate": "2012-05-01",
      "maxdate": "2025-03-05",
      "latitude": 35.43,
      "name": "OZARK 4.6 S, AR US",
      "datacoverage": 0.9997,
      "id": "GHCND:US1ARFR0003",
      "elevationUnit": "METERS",
      "longitude": -93.84
    },
    {
      "elevation": 266.7,
      "mindate": "2012-07-01",
      "maxdate": "2015-10-19",
      "latitude": 35.470881,
      "name": "ALTUS 2.3 NNE, AR US",
      "datacoverage": 0.9996,
      "id": "GHCND:US1ARFR0004",
      "elevationUnit": "METERS",
      "longitude": -93.740058
    },
    {
      "elevation": 162.8,
      "mindate": "2013-05-01",
      "maxdate": "2025-03-07",
      "latitude": 35.4265,
      "name": "RIVERDALE 4.2 E, AR US",
      "datacoverage": 0.9994,
      "id": "GHCND:US1ARFR0005",
      "elevationUnit": "METERS",
      "longitude": -94.0432
    },
    {
      "elevation": 182.3,
      "mindate": "2013-04-01",
      "maxdate": "2014-04-23",
      "latitude": 35.4905343800783,
      "name": "OZARK 2.6 E, AR US",
      "datacoverage": 0.9819,
      "id": "GHCND:US1ARFR0006",
      "elevationUnit": "METERS",
      "longitude": -93.795589953661
    },
    {
      "elevation": 141.7,
      "mindate": "2009-06-01",
      "maxdate": "2014-01-31",
      "latitude": 34.511888,
      "name": "HOT SPRINGS 8.4 WNW, AR US",
      "datacoverage": 0.9813,
      "id": "GHCND:US1ARGL0001",
      "elevationUnit": "METERS",
      "longitude": -93.201108
    },
    {
      "elevation": 134.1,
      "mindate": "2009-04-01",
      "maxdate": "2021-05-17",
      "latitude": 34.4637,
      "name": "HOT SPRINGS 3.1 SW, AR US",
      "datacoverage": 0.9999,
      "id": "GHCND:US1ARGL0003",
      "elevationUnit": "METERS",
      "longitude": -93.0914
    },
    {
      "elevation": 281.3,
      "mindate": "2009-04-01",
      "maxdate": "2020-12-03",
      "latitude": 34.664741,
      "name": "HOT SPRINGS VILLAGE 1.2 E, AR US",
      "datacoverage": 0.9999,
      "id": "GHCND:US1ARGL0004",
      "elevationUnit": "METERS",
      "longitude": -92.979241
    },
    {
      "elevation": 291.7,
      "mindate": "2009-06-01",
      "maxdate": "2025-03-07",
      "latitude": 34.66419,
      "name": "HOT SPRINGS VILLAGE 1.9 W, AR US",
      "datacoverage": 0.9634,
      "id": "GHCND:US1ARGL0005",
      "elevationUnit": "METERS",
      "longitude": -93.033819
    },
    {
      "elevation": 190.2,
      "mindate": "2009-09-01",
      "maxdate": "2010-07-24",
      "latitude": 34.495071,
      "name": "HOT SPRINGS 1.8 W, AR US",
      "datacoverage": 0.5575,
      "id": "GHCND:US1ARGL0008",
      "elevationUnit": "METERS",
      "longitude": -93.08275
    },
    {
      "elevation": 185.3,
      "mindate": "2012-05-01",
      "maxdate": "2015-07-05",
      "latitude": 34.4402289390564,
      "name": "PEARCY 3.3 ENE, AR US",
      "datacoverage": 1,
      "id": "GHCND:US1ARGL0009",
      "elevationUnit": "METERS",
      "longitude": -93.2332313060761
    },
    {
      "elevation": 116.7,
      "mindate": "2013-03-01",
      "maxdate": "2018-05-01",
      "latitude": 34.4441597163677,
      "name": "HOT SPRINGS 5.3 SE, AR US",
      "datacoverage": 0.9972,
      "id": "GHCND:US1ARGL0011",
      "elevationUnit": "METERS",
      "longitude": -92.9811157286167
    },
    {
      "elevation": 158.8,
      "mindate": "2015-06-01",
      "maxdate": "2025-03-06",
      "latitude": 34.46006393,
      "name": "HOT SPRINGS 2.3 S, AR US",
      "datacoverage": 0.998,
      "id": "GHCND:US1ARGL0016",
      "elevationUnit": "METERS",
      "longitude": -93.04961395
    },
    {
      "elevation": 134.4,
      "mindate": "2016-01-16",
      "maxdate": "2025-03-07",
      "latitude": 34.4649200439453,
      "name": "HOT SPRINGS 3.4 SW, AR US",
      "datacoverage": 0.794,
      "id": "GHCND:US1ARGL0017",
      "elevationUnit": "METERS",
      "longitude": -93.1005477905273
    },
    {
      "elevation": 272.8,
      "mindate": "2016-01-19",
      "maxdate": "2016-07-30",
      "latitude": 34.56464,
      "name": "HOT SPRINGS 5.2 NNE, AR US",
      "datacoverage": 1,
      "id": "GHCND:US1ARGL0018",
      "elevationUnit": "METERS",
      "longitude": -93.01907
    },
    {
      "elevation": 122.8,
      "mindate": "2017-06-01",
      "maxdate": "2019-10-26",
      "latitude": 34.4463888,
      "name": "HOT SPRINGS 3.5 SSW, AR US",
      "datacoverage": 0.2372,
      "id": "GHCND:US1ARGL0021",
      "elevationUnit": "METERS",
      "longitude": -93.075
    },
    {
      "elevation": 251.2,
      "mindate": "2018-05-24",
      "maxdate": "2024-01-04",
      "latitude": 34.65371,
      "name": "HOT SPRINGS VILLAGE 0.9 SSW, AR US",
      "datacoverage": 0.8996,
      "id": "GHCND:US1ARGL0023",
      "elevationUnit": "METERS",
      "longitude": -93.00649
    },
    {
      "elevation": 178,
      "mindate": "2019-05-01",
      "maxdate": "2021-06-04",
      "latitude": 34.50149,
      "name": "HOT SPRINGS 1.2 ENE, AR US",
      "datacoverage": 0.9648,
      "id": "GHCND:US1ARGL0026",
      "elevationUnit": "METERS",
      "longitude": -93.03331
    },
    {
      "elevation": 129.5,
      "mindate": "2021-03-01",
      "maxdate": "2022-11-05",
      "latitude": 34.4625,
      "name": "HOT SPRINGS 5.9 ESE, AR US",
      "datacoverage": 0.9925,
      "id": "GHCND:US1ARGL0029",
      "elevationUnit": "METERS",
      "longitude": -92.955
    },
    {
      "elevation": 169.5,
      "mindate": "2021-06-05",
      "maxdate": "2021-12-30",
      "latitude": 34.548947,
      "name": "MOUNTAIN PINE 1.7 SSE, AR US",
      "datacoverage": 0.9925,
      "id": "GHCND:US1ARGL0031",
      "elevationUnit": "METERS",
      "longitude": -93.161974
    },
    {
      "elevation": 289.9,
      "mindate": "2021-06-12",
      "maxdate": "2023-06-17",
      "latitude": 34.661275,
      "name": "HOT SPRINGS VILLAGE 0.8 ESE, AR US",
      "datacoverage": 0.9554,
      "id": "GHCND:US1ARGL0032",
      "elevationUnit": "METERS",
      "longitude": -92.986609
    },
    {
      "elevation": 124.1,
      "mindate": "2022-10-23",
      "maxdate": "2024-09-19",
      "latitude": 34.496819,
      "name": "HOT SPRINGS 4.4 W, AR US",
      "datacoverage": 0.5702,
      "id": "GHCND:US1ARGL0034",
      "elevationUnit": "METERS",
      "longitude": -93.128292
    },
    {
      "elevation": 245.4,
      "mindate": "2022-10-25",
      "maxdate": "2025-03-05",
      "latitude": 34.62683,
      "name": "HOT SPRINGS VILLAGE 2.7 SSE, AR US",
      "datacoverage": 0.2851,
      "id": "GHCND:US1ARGL0036",
      "elevationUnit": "METERS",
      "longitude": -92.9903
    },
    {
      "elevation": 240.2,
      "mindate": "2024-03-25",
      "maxdate": "2025-03-07",
      "latitude": 34.6852298,
      "name": "HOT SPRINGS VILLAGE 1.8 NE, AR US",
      "datacoverage": 0.9368,
      "id": "GHCND:US1ARGL0039",
      "elevationUnit": "METERS",
      "longitude": -92.9787087
    },
    {
      "elevation": 85.6,
      "mindate": "2012-09-01",
      "maxdate": "2015-01-28",
      "latitude": 35.9950572252274,
      "name": "PARAGOULD 4.3 S, AR US",
      "datacoverage": 0.9996,
      "id": "GHCND:US1ARGN0005",
      "elevationUnit": "METERS",
      "longitude": -90.5255258828402
    },
    {
      "elevation": 102.7,
      "mindate": "2012-08-31",
      "maxdate": "2025-03-07",
      "latitude": 36.20861667,
      "name": "LAFE 1.8 W, AR US",
      "datacoverage": 1,
      "id": "GHCND:US1ARGN0006",
      "elevationUnit": "METERS",
      "longitude": -90.53465
    },
    {
      "elevation": 123.4,
      "mindate": "2013-01-01",
      "maxdate": "2018-12-09",
      "latitude": 36.191837,
      "name": "MARMADUKE 4.4 W, AR US",
      "datacoverage": 1,
      "id": "GHCND:US1ARGN0011",
      "elevationUnit": "METERS",
      "longitude": -90.466232
    },
    {
      "elevation": 108.5,
      "mindate": "2015-01-01",
      "maxdate": "2020-04-22",
      "latitude": 36.084191724658,
      "name": "PARAGOULD 2.2 NNW, AR US",
      "datacoverage": 1,
      "id": "GHCND:US1ARGN0015",
      "elevationUnit": "METERS",
      "longitude": -90.5330568552017
    },
    {
      "elevation": 79.6,
      "mindate": "2021-02-17",
      "maxdate": "2025-03-04",
      "latitude": 36.0770134627819,
      "name": "PARAGOULD 2.6 NE, AR US",
      "datacoverage": 0.6963,
      "id": "GHCND:US1ARGN0016",
      "elevationUnit": "METERS",
      "longitude": -90.4754269123077
    },
    {
      "elevation": 97.5,
      "mindate": "2017-03-13",
      "maxdate": "2025-03-05",
      "latitude": 36.095187,
      "name": "PARAGOULD 2.9 NNE, AR US",
      "datacoverage": 0.673,
      "id": "GHCND:US1ARGN0019",
      "elevationUnit": "METERS",
      "longitude": -90.492581
    },
    {
      "elevation": 105.8,
      "mindate": "2019-03-01",
      "maxdate": "2025-03-05",
      "latitude": 36.04444,
      "name": "PARAGOULD 0.8 SSE, AR US",
      "datacoverage": 0.9947,
      "id": "GHCND:US1ARGN0021",
      "elevationUnit": "METERS",
      "longitude": -90.50889
    },
    {
      "elevation": 88.1,
      "mindate": "2023-08-08",
      "maxdate": "2025-03-04",
      "latitude": 36.0841,
      "name": "PARAGOULD 2.9 NE, AR US",
      "datacoverage": 0.7113,
      "id": "GHCND:US1ARGN0022",
      "elevationUnit": "METERS",
      "longitude": -90.47551
    },
    {
      "elevation": 99.7,
      "mindate": "2019-12-06",
      "maxdate": "2023-09-12",
      "latitude": 36.048051,
      "name": "PARAGOULD 0.6 S, AR US",
      "datacoverage": 1,
      "id": "GHCND:US1ARGN0023",
      "elevationUnit": "METERS",
      "longitude": -90.511896
    },
    {
      "elevation": 93.3,
      "mindate": "2012-05-01",
      "maxdate": "2014-06-29",
      "latitude": 34.3165221065283,
      "name": "SHERIDAN 0.6 NW, AR US",
      "datacoverage": 0.9235,
      "id": "GHCND:US1ARGT0002",
      "elevationUnit": "METERS",
      "longitude": -92.4113561958075
    },
    {
      "elevation": 88.7,
      "mindate": "2012-06-01",
      "maxdate": "2014-09-01",
      "latitude": 34.2383544892073,
      "name": "SHERIDAN 4.9 S, AR US",
      "datacoverage": 0.9646,
      "id": "GHCND:US1ARGT0003",
      "elevationUnit": "METERS",
      "longitude": -92.4042993038893
    },
    {
      "elevation": 92.4,
      "mindate": "2012-06-01",
      "maxdate": "2012-12-08",
      "latitude": 34.3210734,
      "name": "PRATTSVILLE 0.3 NW, AR US",
      "datacoverage": 0.9956,
      "id": "GHCND:US1ARGT0004",
      "elevationUnit": "METERS",
      "longitude": -92.5471508
    },
    {
      "elevation": 63.4,
      "mindate": "2012-06-01",
      "maxdate": "2016-05-02",
      "latitude": 34.2282720655203,
      "name": "SHERIDAN 5.8 SSE, AR US",
      "datacoverage": 0.9819,
      "id": "GHCND:US1ARGT0006",
      "elevationUnit": "METERS",
      "longitude": -92.3807816952467
    },
    {
      "elevation": 89.9,
      "mindate": "2012-12-01",
      "maxdate": "2024-07-17",
      "latitude": 34.2921683192253,
      "name": "SHERIDAN 1.2 S, AR US",
      "datacoverage": 1,
      "id": "GHCND:US1ARGT0009",
      "elevationUnit": "METERS",
      "longitude": -92.4081107228994
    },
    {
      "elevation": 106.1,
      "mindate": "2009-08-01",
      "maxdate": "2016-03-09",
      "latitude": 33.8076991,
      "name": "COLUMBUS 2.1 NNE, AR US",
      "datacoverage": 0.975,
      "id": "GHCND:US1ARHM0002",
      "elevationUnit": "METERS",
      "longitude": -93.8122345
    },
    {
      "elevation": 96.9,
      "mindate": "2010-04-01",
      "maxdate": "2012-09-17",
      "latitude": 33.701073,
      "name": "PERRYTOWN 0.4 NE, AR US",
      "datacoverage": 0.9297,
      "id": "GHCND:US1ARHM0003",
      "elevationUnit": "METERS",
      "longitude": -93.5273299
    },
    {
      "elevation": 101.5,
      "mindate": "2012-05-01",
      "maxdate": "2025-03-06",
      "latitude": 33.6563372612,
      "name": "HOPE 0.9 SSW, AR US",
      "datacoverage": 0.9997,
      "id": "GHCND:US1ARHM0005",
      "elevationUnit": "METERS",
      "longitude": -93.5982504487038
    },
    {
      "elevation": 88.7,
      "mindate": "2012-06-01",
      "maxdate": "2022-11-15",
      "latitude": 33.493437319994,
      "name": "HOPE 12.2 S, AR US",
      "datacoverage": 1,
      "id": "GHCND:US1ARHM0006",
      "elevationUnit": "METERS",
      "longitude": -93.6222495138645
    },
    {
      "elevation": 106.4,
      "mindate": "2012-06-01",
      "maxdate": "2014-06-10",
      "latitude": 33.7264773,
      "name": "HOPE 4.2 NNW, AR US",
      "datacoverage": 0.9819,
      "id": "GHCND:US1ARHM0007",
      "elevationUnit": "METERS",
      "longitude": -93.6128551
    },
    {
      "elevation": 104.9,
      "mindate": "2022-11-24",
      "maxdate": "2024-09-16",
      "latitude": 33.501727,
      "name": "HOPE 11.6 S, AR US",
      "datacoverage": 0.2293,
      "id": "GHCND:US1ARHM0013",
      "elevationUnit": "METERS",
      "longitude": -93.619287
    },
    {
      "elevation": 108.2,
      "mindate": "2009-04-01",
      "maxdate": "2019-05-12",
      "latitude": 34.446813,
      "name": "HOT SPRINGS 7.2 ESE, AR US",
      "datacoverage": 0.9835,
      "id": "GHCND:US1ARHS0001",
      "elevationUnit": "METERS",
      "longitude": -92.938993
    },
    {
      "elevation": 91.7,
      "mindate": "2012-07-01",
      "maxdate": "2013-10-31",
      "latitude": 34.3623123168945,
      "name": "MALVERN 0.6 S, AR US",
      "datacoverage": 0.998,
      "id": "GHCND:US1ARHS0006",
      "elevationUnit": "METERS",
      "longitude": -92.8157272338867
    },
    {
      "elevation": 146.3,
      "mindate": "2012-07-01",
      "maxdate": "2014-11-21",
      "latitude": 34.459533,
      "name": "MALVERN 6.5 NNW, AR US",
      "datacoverage": 0.9996,
      "id": "GHCND:US1ARHS0008",
      "elevationUnit": "METERS",
      "longitude": -92.85208
    },
    {
      "elevation": 113.1,
      "mindate": "2014-11-01",
      "maxdate": "2020-03-10",
      "latitude": 34.4339,
      "name": "HOT SPRINGS 7.9 ESE, AR US",
      "datacoverage": 1,
      "id": "GHCND:US1ARHS0013",
      "elevationUnit": "METERS",
      "longitude": -92.93435
    },
    {
      "elevation": 134.7,
      "mindate": "2017-04-11",
      "maxdate": "2025-01-10",
      "latitude": 34.264503,
      "name": "BISMARCK 4.2 SSE, AR US",
      "datacoverage": 1,
      "id": "GHCND:US1ARHS0015",
      "elevationUnit": "METERS",
      "longitude": -93.130579
    },
    {
      "elevation": 124.7,
      "mindate": "2009-04-01",
      "maxdate": "2018-03-06",
      "latitude": 33.951801,
      "name": "NASHVILLE 1.0 NE, AR US",
      "datacoverage": 0.9991,
      "id": "GHCND:US1ARHW0001",
      "elevationUnit": "METERS",
      "longitude": -93.839588
    },
    {
      "elevation": 130.1,
      "mindate": "2009-05-01",
      "maxdate": "2015-08-02",
      "latitude": 34.1163,
      "name": "DIERKS 0.7 WSW, AR US",
      "datacoverage": 0.9865,
      "id": "GHCND:US1ARHW0002",
      "elevationUnit": "METERS",
      "longitude": -94.0298
    },
    {
      "elevation": 149.4,
      "mindate": "2009-09-01",
      "maxdate": "2011-01-10",
      "latitude": 34.082,
      "name": "DIERKS 2.7 S, AR US",
      "datacoverage": 0.9925,
      "id": "GHCND:US1ARHW0003",
      "elevationUnit": "METERS",
      "longitude": -94.025
    },
    {
      "elevation": 139.3,
      "mindate": "2012-08-01",
      "maxdate": "2014-08-04",
      "latitude": 33.97411,
      "name": "NASHVILLE 3.0 NW, AR US",
      "datacoverage": 1,
      "id": "GHCND:US1ARHW0005",
      "elevationUnit": "METERS",
      "longitude": -93.884604
    },
    {
      "elevation": 182.3,
      "mindate": "2012-09-01",
      "maxdate": "2015-11-29",
      "latitude": 33.998763486743,
      "name": "NASHVILLE 5.2 NW, AR US",
      "datacoverage": 0.9819,
      "id": "GHCND:US1ARHW0009",
      "elevationUnit": "METERS",
      "longitude": -93.9110047370195
    },
    {
      "elevation": 229.8,
      "mindate": "2012-12-01",
      "maxdate": "2015-01-03",
      "latitude": 34.243003,
      "name": "UMPIRE 2.3 SSW, AR US",
      "datacoverage": 0.9999,
      "id": "GHCND:US1ARHW0011",
      "elevationUnit": "METERS",
      "longitude": -94.0793489
    },
    {
      "elevation": 138.1,
      "mindate": "2013-02-01",
      "maxdate": "2013-11-02",
      "latitude": 33.9467876404524,
      "name": "NASHVILLE 0.4 NNW, AR US",
      "datacoverage": 1,
      "id": "GHCND:US1ARHW0012",
      "elevationUnit": "METERS",
      "longitude": -93.8533808290958
    },
    {
      "elevation": 194.5,
      "mindate": "1998-06-01",
      "maxdate": "2016-06-16",
      "latitude": 35.7913152873516,
      "name": "BATESVILLE 9.0 W, AR US",
      "datacoverage": 0.8206,
      "id": "GHCND:US1ARIN0002",
      "elevationUnit": "METERS",
      "longitude": -91.7805891484022
    },
    {
      "elevation": 124.7,
      "mindate": "2012-06-01",
      "maxdate": "2016-06-13",
      "latitude": 35.8148845285177,
      "name": "CHARLOTTE 2.1 W, AR US",
      "datacoverage": 0.998,
      "id": "GHCND:US1ARIN0003",
      "elevationUnit": "METERS",
      "longitude": -91.4752927422524
    },
    {
      "elevation": 247.5,
      "mindate": "2004-08-01",
      "maxdate": "2016-06-13",
      "latitude": 35.5527415126562,
      "name": "PLEASANT PLAINS 3.9 W, AR US",
      "datacoverage": 0.2593,
      "id": "GHCND:US1ARIN0005",
      "elevationUnit": "METERS",
      "longitude": -91.6972287744284
    },
    {
      "elevation": 91.7,
      "mindate": "2012-06-01",
      "maxdate": "2016-06-16",
      "latitude": 35.78814,
      "name": "BATESVILLE 2.3 NE, AR US",
      "datacoverage": 0.8292,
      "id": "GHCND:US1ARIN0006",
      "elevationUnit": "METERS",
      "longitude": -91.588443
    },
    {
      "elevation": 108.8,
      "mindate": "2004-08-01",
      "maxdate": "2016-06-16",
      "latitude": 35.8605866879225,
      "name": "BATESVILLE 8.0 NW, AR US",
      "datacoverage": 0.2741,
      "id": "GHCND:US1ARIN0007",
      "elevationUnit": "METERS",
      "longitude": -91.7074077576399
    },
    {
      "elevation": 87.8,
      "mindate": "2012-06-01",
      "maxdate": "2016-06-16",
      "latitude": 35.76214,
      "name": "BATESVILLE 0.7 SW, AR US",
      "datacoverage": 0.878,
      "id": "GHCND:US1ARIN0008",
      "elevationUnit": "METERS",
      "longitude": -91.633
    },
    {
      "elevation": 213.1,
      "mindate": "2012-06-01",
      "maxdate": "2016-06-13",
      "latitude": 35.5449255555868,
      "name": "BRADFORD 9.7 NNW, AR US",
      "datacoverage": 0.9756,
      "id": "GHCND:US1ARIN0009",
      "elevationUnit": "METERS",
      "longitude": -91.5415567159653
    },
    {
      "elevation": 99.4,
      "mindate": "2012-06-01",
      "maxdate": "2016-06-13",
      "latitude": 35.7290672510862,
      "name": "NEWARK 1.8 NNE, AR US",
      "datacoverage": 0.9819,
      "id": "GHCND:US1ARIN0010",
      "elevationUnit": "METERS",
      "longitude": -91.4310812205076
    },
    {
      "elevation": 102.7,
      "mindate": "2012-06-01",
      "maxdate": "2016-06-13",
      "latitude": 35.7357352226973,
      "name": "BATESVILLE 3.8 SW, AR US",
      "datacoverage": 0.8292,
      "id": "GHCND:US1ARIN0011",
      "elevationUnit": "METERS",
      "longitude": -91.6760466992855
    },
    {
      "elevation": 71.6,
      "mindate": "2012-08-01",
      "maxdate": "2014-09-11",
      "latitude": 35.62944444,
      "name": "OIL TROUGH 0.0 WSW, AR US",
      "datacoverage": 1,
      "id": "GHCND:US1ARIN0013",
      "elevationUnit": "METERS",
      "longitude": -91.46138889
    },
    {
      "elevation": 96.6,
      "mindate": "2012-11-01",
      "maxdate": "2016-06-13",
      "latitude": 35.858528137207,
      "name": "CORD 3.7 NE, AR US",
      "datacoverage": 1,
      "id": "GHCND:US1ARIN0014",
      "elevationUnit": "METERS",
      "longitude": -91.3098220825195
    },
    {
      "elevation": 103.9,
      "mindate": "2013-03-01",
      "maxdate": "2025-03-07",
      "latitude": 35.794253,
      "name": "SULPHUR ROCK 7.1 ENE, AR US",
      "datacoverage": 1,
      "id": "GHCND:US1ARIN0018",
      "elevationUnit": "METERS",
      "longitude": -91.384892
    },
    {
      "mindate": "2013-06-01",
      "maxdate": "2016-06-13",
      "latitude": 35.8364181518555,
      "name": "BATESVILLE 8.2 NE, AR US",
      "datacoverage": 0.7239,
      "id": "GHCND:US1ARIN0019",
      "longitude": -91.5034332275391
    },
    {
      "elevation": 122.8,
      "mindate": "2022-03-31",
      "maxdate": "2025-03-05",
      "latitude": 35.798561,
      "name": "BATESVILLE 2.7 NE, AR US",
      "datacoverage": 1,
      "id": "GHCND:US1ARIN0022",
      "elevationUnit": "METERS",
      "longitude": -91.5911829
    },
    {
      "elevation": 199,
      "mindate": "2009-04-01",
      "maxdate": "2016-04-07",
      "latitude": 36.196111,
      "name": "HORSESHOE BEND 2.1 SSW, AR US",
      "datacoverage": 0.9999,
      "id": "GHCND:US1ARIZ0001",
      "elevationUnit": "METERS",
      "longitude": -91.75938
    }
  ]
}
