{
  "metadata": {
    "resultset": {
      "offset": 93600,
      "count": 154115,
      "limit": 100
    }
  },
  "results": [
    {
      "elevation": 308.8,
      "mindate": "2024-02-15",
      "maxdate": "2025-03-06",
      "latitude": 38.0055,
      "name": "LEXINGTON 5.1 ESE, KY US",
      "datacoverage": 0.8202,
      "id": "GHCND:US1KYFY0046",
      "elevationUnit": "METERS",
      "longitude": -84.4206
    },
    {
      "elevation": 275.8,
      "mindate": "2016-02-22",
      "maxdate": "2018-02-27",
      "latitude": 37.71736,
      "name": "BRYANTSVILLE 1.2 W, KY US",
      "datacoverage": 0.7958,
      "id": "GHCND:US1KYGD0001",
      "elevationUnit": "METERS",
      "longitude": -84.67114
    },
    {
      "elevation": 285.6,
      "mindate": "2016-05-01",
      "maxdate": "2016-10-14",
      "latitude": 37.58,
      "name": "PAINT LICK 2.4 SSE, KY US",
      "datacoverage": 0.9925,
      "id": "GHCND:US1KYGD0002",
      "elevationUnit": "METERS",
      "longitude": -84.39
    },
    {
      "elevation": 252.1,
      "mindate": "2020-04-18",
      "maxdate": "2025-03-06",
      "latitude": 37.6466,
      "name": "LANCASTER 6.2 WNW, KY US",
      "datacoverage": 0.24,
      "id": "GHCND:US1KYGD0005",
      "elevationUnit": "METERS",
      "longitude": -84.6876
    },
    {
      "elevation": 281.3,
      "mindate": "2022-08-08",
      "maxdate": "2024-03-15",
      "latitude": 37.68841,
      "name": "LANCASTER 7.5 NW, KY US",
      "datacoverage": 0.2526,
      "id": "GHCND:US1KYGD0006",
      "elevationUnit": "METERS",
      "longitude": -84.6835
    },
    {
      "elevation": 226.5,
      "mindate": "2009-04-01",
      "maxdate": "2014-08-18",
      "latitude": 37.26201,
      "name": "GREENSBURG 3.5 W, KY US",
      "datacoverage": 0.5709,
      "id": "GHCND:US1KYGN0001",
      "elevationUnit": "METERS",
      "longitude": -85.557633
    },
    {
      "elevation": 171,
      "mindate": "2008-02-01",
      "maxdate": "2009-10-02",
      "latitude": 38.601674,
      "name": "GREENUP 7.0 WNW, KY US",
      "datacoverage": 0.905,
      "id": "GHCND:US1KYGP0002",
      "elevationUnit": "METERS",
      "longitude": -82.954206
    },
    {
      "elevation": 193.9,
      "mindate": "2010-11-01",
      "maxdate": "2012-11-04",
      "latitude": 38.522497,
      "name": "FLATWOODS 0.5 WNW, KY US",
      "datacoverage": 0.7827,
      "id": "GHCND:US1KYGP0005",
      "elevationUnit": "METERS",
      "longitude": -82.728389
    },
    {
      "elevation": 177.4,
      "mindate": "2021-07-01",
      "maxdate": "2025-02-10",
      "latitude": 38.584672,
      "name": "GREENUP 5.8 W, KY US",
      "datacoverage": 0.7637,
      "id": "GHCND:US1KYGP0006",
      "elevationUnit": "METERS",
      "longitude": -82.936117
    },
    {
      "elevation": 292.9,
      "mindate": "2011-03-01",
      "maxdate": "2016-12-29",
      "latitude": 38.64225,
      "name": "WILLIAMSTOWN 0.3 N, KY US",
      "datacoverage": 0.9993,
      "id": "GHCND:US1KYGT0002",
      "elevationUnit": "METERS",
      "longitude": -84.5606
    },
    {
      "elevation": 277.1,
      "mindate": "2021-03-16",
      "maxdate": "2024-06-06",
      "latitude": 38.76664,
      "name": "DRY RIDGE 6.0 NNW, KY US",
      "datacoverage": 0.1001,
      "id": "GHCND:US1KYGT0003",
      "elevationUnit": "METERS",
      "longitude": -84.61958
    },
    {
      "elevation": 159.4,
      "mindate": "2010-04-01",
      "maxdate": "2016-02-08",
      "latitude": 36.617198,
      "name": "WINGO 2.2 SE, KY US",
      "datacoverage": 1,
      "id": "GHCND:US1KYGV0001",
      "elevationUnit": "METERS",
      "longitude": -88.714278
    },
    {
      "elevation": 159.4,
      "mindate": "2016-09-23",
      "maxdate": "2019-07-17",
      "latitude": 36.58849,
      "name": "SEDALIA 5.1 SE, KY US",
      "datacoverage": 0.7311,
      "id": "GHCND:US1KYGV0002",
      "elevationUnit": "METERS",
      "longitude": -88.541813
    },
    {
      "elevation": 167.9,
      "mindate": "2019-10-16",
      "maxdate": "2025-03-07",
      "latitude": 36.589075,
      "name": "FARMINGTON 5.6 S, KY US",
      "datacoverage": 0.9083,
      "id": "GHCND:US1KYGV0004",
      "elevationUnit": "METERS",
      "longitude": -88.508162
    },
    {
      "elevation": 159.7,
      "mindate": "2023-07-26",
      "maxdate": "2025-03-07",
      "latitude": 36.5888118,
      "name": "SEDALIA 5.0 SE, KY US",
      "datacoverage": 0.8968,
      "id": "GHCND:US1KYGV0007",
      "elevationUnit": "METERS",
      "longitude": -88.5415984
    },
    {
      "elevation": 133.2,
      "mindate": "2021-02-22",
      "maxdate": "2025-02-27",
      "latitude": 36.5390933,
      "name": "FULTON 3.3 NE, KY US",
      "datacoverage": 1,
      "id": "GHCND:US1KYHC0001",
      "elevationUnit": "METERS",
      "longitude": -88.8318807
    },
    {
      "elevation": 226.2,
      "mindate": "2007-12-01",
      "maxdate": "2011-03-04",
      "latitude": 37.735,
      "name": "RINEYVILLE 1 S, KY US",
      "datacoverage": 0.9925,
      "id": "GHCND:US1KYHD0002",
      "elevationUnit": "METERS",
      "longitude": -85.9696
    },
    {
      "elevation": 217.9,
      "mindate": "2007-12-01",
      "maxdate": "2025-03-07",
      "latitude": 37.687,
      "name": "ELIZABETHTOWN 1.8 SE, KY US",
      "datacoverage": 0.9999,
      "id": "GHCND:US1KYHD0005",
      "elevationUnit": "METERS",
      "longitude": -85.845
    },
    {
      "elevation": 239,
      "mindate": "2010-11-01",
      "maxdate": "2012-04-05",
      "latitude": 37.71,
      "name": "ELIZABETHTOWN 0.7 NW, KY US",
      "datacoverage": 1,
      "id": "GHCND:US1KYHD0006",
      "elevationUnit": "METERS",
      "longitude": -85.88
    },
    {
      "elevation": 250.5,
      "mindate": "2009-05-01",
      "maxdate": "2009-12-03",
      "latitude": 37.724199,
      "name": "RINEYVILLE 2.0 SE, KY US",
      "datacoverage": 0.9947,
      "id": "GHCND:US1KYHD0007",
      "elevationUnit": "METERS",
      "longitude": -85.953557
    },
    {
      "elevation": 229.5,
      "mindate": "2011-02-01",
      "maxdate": "2013-09-01",
      "latitude": 37.806795,
      "name": "RADCLIFF 1.4 S, KY US",
      "datacoverage": 0.9925,
      "id": "GHCND:US1KYHD0009",
      "elevationUnit": "METERS",
      "longitude": -85.9524231
    },
    {
      "elevation": 229.8,
      "mindate": "2015-03-15",
      "maxdate": "2021-06-09",
      "latitude": 37.7731,
      "name": "RINEVYILLE 2.0 NW, KY US",
      "datacoverage": 0.9986,
      "id": "GHCND:US1KYHD0014",
      "elevationUnit": "METERS",
      "longitude": -85.992
    },
    {
      "elevation": 236.5,
      "mindate": "2018-08-17",
      "maxdate": "2025-01-04",
      "latitude": 37.80886,
      "name": "RADCLIFF 1.2 SSE, KY US",
      "datacoverage": 0.9581,
      "id": "GHCND:US1KYHD0015",
      "elevationUnit": "METERS",
      "longitude": -85.93203
    },
    {
      "elevation": 240.5,
      "mindate": "2020-03-07",
      "maxdate": "2025-03-07",
      "latitude": 37.75183,
      "name": "ELIZABETHTOWN 7.9 ENE, KY US",
      "datacoverage": 0.8659,
      "id": "GHCND:US1KYHD0020",
      "elevationUnit": "METERS",
      "longitude": -85.74133667
    },
    {
      "elevation": 237.7,
      "mindate": "2020-03-19",
      "maxdate": "2022-04-28",
      "latitude": 37.837205,
      "name": "RADCLIFF 0.7 W, KY US",
      "datacoverage": 0.8811,
      "id": "GHCND:US1KYHD0021",
      "elevationUnit": "METERS",
      "longitude": -85.95758
    },
    {
      "elevation": 221.3,
      "mindate": "2020-03-10",
      "maxdate": "2025-03-06",
      "latitude": 37.7961,
      "name": "ELIZABETHTOWN 6.5 N, KY US",
      "datacoverage": 0.8442,
      "id": "GHCND:US1KYHD0023",
      "elevationUnit": "METERS",
      "longitude": -85.8876
    },
    {
      "elevation": 253,
      "mindate": "2023-01-19",
      "maxdate": "2025-03-05",
      "latitude": 37.73551,
      "name": "ELIZABETHTOWN 2.3 N, KY US",
      "datacoverage": 1,
      "id": "GHCND:US1KYHD0028",
      "elevationUnit": "METERS",
      "longitude": -85.87858
    },
    {
      "elevation": 134.1,
      "mindate": "2023-07-12",
      "maxdate": "2024-10-03",
      "latitude": 37.765285,
      "name": "LEBANON JUNCTION 4.8 S, KY US",
      "datacoverage": 0.9267,
      "id": "GHCND:US1KYHD0030",
      "elevationUnit": "METERS",
      "longitude": -85.710367
    },
    {
      "elevation": 252.1,
      "mindate": "2023-11-23",
      "maxdate": "2025-02-02",
      "latitude": 37.697056,
      "name": "ELIZABETHTOWN 4.6 E, KY US",
      "datacoverage": 0.998,
      "id": "GHCND:US1KYHD0031",
      "elevationUnit": "METERS",
      "longitude": -85.788389
    },
    {
      "elevation": 610.2,
      "mindate": "2012-09-01",
      "maxdate": "2018-09-16",
      "latitude": 36.881957,
      "name": "HARLAN 2.9 NNE, KY US",
      "datacoverage": 1,
      "id": "GHCND:US1KYHL0003",
      "elevationUnit": "METERS",
      "longitude": -83.308667
    },
    {
      "elevation": 382.2,
      "mindate": "2022-03-20",
      "maxdate": "2024-12-10",
      "latitude": 36.901463,
      "name": "BAXTER 5.3 NE, KY US",
      "datacoverage": 0.999,
      "id": "GHCND:US1KYHL0006",
      "elevationUnit": "METERS",
      "longitude": -83.245355
    },
    {
      "elevation": 149,
      "mindate": "2008-01-01",
      "maxdate": "2024-10-16",
      "latitude": 37.93337,
      "name": "LEWISPORT 2.8 E, KY US",
      "datacoverage": 0.9799,
      "id": "GHCND:US1KYHN0001",
      "elevationUnit": "METERS",
      "longitude": -86.8517
    },
    {
      "elevation": 189.9,
      "mindate": "2009-04-01",
      "maxdate": "2018-03-09",
      "latitude": 37.825,
      "name": "HAWESVILLE 6.8 SE, KY US",
      "datacoverage": 0.669,
      "id": "GHCND:US1KYHN0003",
      "elevationUnit": "METERS",
      "longitude": -86.6725
    },
    {
      "elevation": 137.2,
      "mindate": "2007-11-01",
      "maxdate": "2025-03-05",
      "latitude": 37.4378,
      "name": "HANSON 2.2 NE, KY US",
      "datacoverage": 0.9902,
      "id": "GHCND:US1KYHP0001",
      "elevationUnit": "METERS",
      "longitude": -87.4418
    },
    {
      "elevation": 154.8,
      "mindate": "2008-01-01",
      "maxdate": "2009-09-07",
      "latitude": 37.3363,
      "name": "MADISONVILLE 0.5 E, KY US",
      "datacoverage": 1,
      "id": "GHCND:US1KYHP0002",
      "elevationUnit": "METERS",
      "longitude": -87.49683
    },
    {
      "elevation": 125,
      "mindate": "2007-11-01",
      "maxdate": "2008-10-26",
      "latitude": 37.192606,
      "name": "NORTONVILLE 0.5 NNE, KY US",
      "datacoverage": 0.998,
      "id": "GHCND:US1KYHP0003",
      "elevationUnit": "METERS",
      "longitude": -87.452239
    },
    {
      "elevation": 133.2,
      "mindate": "2017-11-22",
      "maxdate": "2020-04-25",
      "latitude": 37.1826291,
      "name": "NORTONVILLE 0.3 SE, KY US",
      "datacoverage": 0.8768,
      "id": "GHCND:US1KYHP0012",
      "elevationUnit": "METERS",
      "longitude": -87.4541852
    },
    {
      "elevation": 138.4,
      "mindate": "2018-02-13",
      "maxdate": "2021-08-10",
      "latitude": 37.330575,
      "name": "MADISONVILLE 0.7 SE, KY US",
      "datacoverage": 1,
      "id": "GHCND:US1KYHP0013",
      "elevationUnit": "METERS",
      "longitude": -87.495941
    },
    {
      "elevation": 142,
      "mindate": "2020-09-22",
      "maxdate": "2025-03-05",
      "latitude": 37.355588,
      "name": "MADISONVILLE 1.6 NE, KY US",
      "datacoverage": 0.893,
      "id": "GHCND:US1KYHP0015",
      "elevationUnit": "METERS",
      "longitude": -87.48887
    },
    {
      "elevation": 225.2,
      "mindate": "2008-03-01",
      "maxdate": "2020-09-29",
      "latitude": 38.445552,
      "name": "CYNTHIANA 8.3 ENE, KY US",
      "datacoverage": 0.9998,
      "id": "GHCND:US1KYHR0001",
      "elevationUnit": "METERS",
      "longitude": -84.16146
    },
    {
      "elevation": 181.7,
      "mindate": "2010-07-01",
      "maxdate": "2015-04-16",
      "latitude": 38.53577,
      "name": "CYNTHIANA 11.8 NNE, KY US",
      "datacoverage": 0.2456,
      "id": "GHCND:US1KYHR0003",
      "elevationUnit": "METERS",
      "longitude": -84.19021
    },
    {
      "elevation": 270.1,
      "mindate": "2019-04-16",
      "maxdate": "2024-08-01",
      "latitude": 38.337,
      "name": "CYNTHIANA 7.7 WSW, KY US",
      "datacoverage": 0.6532,
      "id": "GHCND:US1KYHR0005",
      "elevationUnit": "METERS",
      "longitude": -84.4233
    },
    {
      "elevation": 258.5,
      "mindate": "2020-02-21",
      "maxdate": "2025-03-07",
      "latitude": 38.39056,
      "name": "CYNTHIANA 6.2 W, KY US",
      "datacoverage": 1,
      "id": "GHCND:US1KYHR0006",
      "elevationUnit": "METERS",
      "longitude": -84.40944
    },
    {
      "elevation": 260,
      "mindate": "2023-08-14",
      "maxdate": "2025-03-04",
      "latitude": 38.4545018,
      "name": "CYNTHIANA 5.6 NNE, KY US",
      "datacoverage": 0.9016,
      "id": "GHCND:US1KYHR0008",
      "elevationUnit": "METERS",
      "longitude": -84.2379545
    },
    {
      "elevation": 118.9,
      "mindate": "2007-11-01",
      "maxdate": "2025-03-07",
      "latitude": 37.8339,
      "name": "HENDERSON 0.4 SSW, KY US",
      "datacoverage": 1,
      "id": "GHCND:US1KYHS0001",
      "elevationUnit": "METERS",
      "longitude": -87.584
    },
    {
      "elevation": 128,
      "mindate": "2013-12-01",
      "maxdate": "2018-06-26",
      "latitude": 37.786667,
      "name": "CORYDON 4.3 NE, KY US",
      "datacoverage": 1,
      "id": "GHCND:US1KYHS0004",
      "elevationUnit": "METERS",
      "longitude": -87.655833
    },
    {
      "elevation": 126.5,
      "mindate": "2017-04-01",
      "maxdate": "2018-01-08",
      "latitude": 37.83324,
      "name": "HENDERSON 1.6 ESE, KY US",
      "datacoverage": 1,
      "id": "GHCND:US1KYHS0005",
      "elevationUnit": "METERS",
      "longitude": -87.55379
    },
    {
      "elevation": 128.3,
      "mindate": "2020-08-13",
      "maxdate": "2025-03-05",
      "latitude": 37.770871,
      "name": "HENDERSON 5.1 SSW, KY US",
      "datacoverage": 0.3709,
      "id": "GHCND:US1KYHS0008",
      "elevationUnit": "METERS",
      "longitude": -87.615746
    },
    {
      "elevation": 115.8,
      "mindate": "2023-10-01",
      "maxdate": "2025-03-07",
      "latitude": 37.776083,
      "name": "HENDERSON 4.5 S, KY US",
      "datacoverage": 1,
      "id": "GHCND:US1KYHS0010",
      "elevationUnit": "METERS",
      "longitude": -87.593815
    },
    {
      "elevation": 130.1,
      "mindate": "2024-06-18",
      "maxdate": "2025-03-04",
      "latitude": 37.739223,
      "name": "ROBARDS 4.9 NNW, KY US",
      "datacoverage": 1,
      "id": "GHCND:US1KYHS0011",
      "elevationUnit": "METERS",
      "longitude": -87.578394
    },
    {
      "elevation": 203.9,
      "mindate": "2008-02-01",
      "maxdate": "2010-01-24",
      "latitude": 37.16089,
      "name": "HORSE CAVE 3.9 ESE, KY US",
      "datacoverage": 0.9993,
      "id": "GHCND:US1KYHT0001",
      "elevationUnit": "METERS",
      "longitude": -85.84114
    },
    {
      "elevation": 176.8,
      "mindate": "2020-09-27",
      "maxdate": "2025-02-10",
      "latitude": 37.312507,
      "name": "CANMER 2.2 NE, KY US",
      "datacoverage": 0.4681,
      "id": "GHCND:US1KYHT0005",
      "elevationUnit": "METERS",
      "longitude": -85.739343
    },
    {
      "elevation": 274,
      "mindate": "2008-03-01",
      "maxdate": "2023-08-07",
      "latitude": 38.516898,
      "name": "CAMPBELLSBURG 0.7 SSE, KY US",
      "datacoverage": 0.9689,
      "id": "GHCND:US1KYHY0001",
      "elevationUnit": "METERS",
      "longitude": -85.203724
    },
    {
      "elevation": 256.6,
      "mindate": "2009-07-01",
      "maxdate": "2015-03-23",
      "latitude": 38.4595894,
      "name": "NEW CASTLE 1.8 N, KY US",
      "datacoverage": 0.9693,
      "id": "GHCND:US1KYHY0003",
      "elevationUnit": "METERS",
      "longitude": -85.1649924
    },
    {
      "elevation": 288.3,
      "mindate": "2010-06-01",
      "maxdate": "2012-01-10",
      "latitude": 38.362903,
      "name": "EMINENCE, KY US",
      "datacoverage": 1,
      "id": "GHCND:US1KYHY0005",
      "elevationUnit": "METERS",
      "longitude": -85.181378
    },
    {
      "elevation": 263,
      "mindate": "2010-09-01",
      "maxdate": "2025-03-06",
      "latitude": 38.37578989,
      "name": "PLEASUREVILLE 2.3 NE, KY US",
      "datacoverage": 0.9852,
      "id": "GHCND:US1KYHY0006",
      "elevationUnit": "METERS",
      "longitude": -85.08195444
    },
    {
      "elevation": 263.7,
      "mindate": "2008-02-18",
      "maxdate": "2020-03-02",
      "latitude": 38.3515,
      "name": "EMINENCE 1.4 SE, KY US",
      "datacoverage": 0.9999,
      "id": "GHCND:US1KYHY0007",
      "elevationUnit": "METERS",
      "longitude": -85.1555
    },
    {
      "elevation": 272.5,
      "mindate": "2010-10-01",
      "maxdate": "2015-01-18",
      "latitude": 38.5315408,
      "name": "TURNERS STATION 2.0 SE, KY US",
      "datacoverage": 0.9992,
      "id": "GHCND:US1KYHY0008",
      "elevationUnit": "METERS",
      "longitude": -85.1459551
    },
    {
      "elevation": 273.4,
      "mindate": "2012-08-01",
      "maxdate": "2025-03-06",
      "latitude": 38.4104,
      "name": "EMINENCE 4.0 NW, KY US",
      "datacoverage": 1,
      "id": "GHCND:US1KYHY0010",
      "elevationUnit": "METERS",
      "longitude": -85.2203
    },
    {
      "elevation": 254.8,
      "mindate": "2012-08-01",
      "maxdate": "2024-07-05",
      "latitude": 38.472075,
      "name": "LOCKPORT 3.3 NW, KY US",
      "datacoverage": 0.6583,
      "id": "GHCND:US1KYHY0011",
      "elevationUnit": "METERS",
      "longitude": -85.00635278
    },
    {
      "elevation": 238.7,
      "mindate": "2013-02-01",
      "maxdate": "2018-06-19",
      "latitude": 38.396067,
      "name": "SMITHFIELD 2.7 WNW, KY US",
      "datacoverage": 1,
      "id": "GHCND:US1KYHY0012",
      "elevationUnit": "METERS",
      "longitude": -85.30678
    },
    {
      "elevation": 253,
      "mindate": "2020-12-24",
      "maxdate": "2024-07-30",
      "latitude": 38.5246,
      "name": "TURNERS STATION 4.4 ESE, KY US",
      "datacoverage": 0.6662,
      "id": "GHCND:US1KYHY0014",
      "elevationUnit": "METERS",
      "longitude": -85.0959
    },
    {
      "elevation": 287.7,
      "mindate": "2024-05-24",
      "maxdate": "2025-03-07",
      "latitude": 38.372441,
      "name": "EMINENCE 1.1 WNW, KY US",
      "datacoverage": 0.8854,
      "id": "GHCND:US1KYHY0019",
      "elevationUnit": "METERS",
      "longitude": -85.193462
    },
    {
      "elevation": 450.5,
      "mindate": "2008-02-01",
      "maxdate": "2018-10-11",
      "latitude": 37.521743,
      "name": "MCKEE 9.4 NW, KY US",
      "datacoverage": 1,
      "id": "GHCND:US1KYJC0001",
      "elevationUnit": "METERS",
      "longitude": -84.113951
    },
    {
      "elevation": 308.5,
      "mindate": "2020-10-10",
      "maxdate": "2024-12-03",
      "latitude": 37.427993,
      "name": "MCKEE 8.3 W, KY US",
      "datacoverage": 1,
      "id": "GHCND:US1KYJC0006",
      "elevationUnit": "METERS",
      "longitude": -84.138534
    },
    {
      "elevation": 231,
      "mindate": "2007-10-01",
      "maxdate": "2024-09-09",
      "latitude": 38.295967,
      "name": "ANCHORAGE 2.8 NE, KY US",
      "datacoverage": 0.9509,
      "id": "GHCND:US1KYJF0001",
      "elevationUnit": "METERS",
      "longitude": -85.505339
    },
    {
      "elevation": 187.5,
      "mindate": "2007-11-01",
      "maxdate": "2025-03-06",
      "latitude": 38.28586,
      "name": "OLD BROWNSBORO PLACE 0.3 SW, KY US",
      "datacoverage": 1,
      "id": "GHCND:US1KYJF0002",
      "elevationUnit": "METERS",
      "longitude": -85.61408
    },
    {
      "elevation": 199.9,
      "mindate": "2007-11-01",
      "maxdate": "2011-06-08",
      "latitude": 38.287055,
      "name": "LANGDON PLACE 0.1 W, KY US",
      "datacoverage": 1,
      "id": "GHCND:US1KYJF0004",
      "elevationUnit": "METERS",
      "longitude": -85.58656
    },
    {
      "elevation": 149,
      "mindate": "2007-11-01",
      "maxdate": "2014-08-04",
      "latitude": 38.33296,
      "name": "PROSPECT 1 S, KY US",
      "datacoverage": 0.9999,
      "id": "GHCND:US1KYJF0005",
      "elevationUnit": "METERS",
      "longitude": -85.6192
    },
    {
      "elevation": 139.9,
      "mindate": "2008-02-01",
      "maxdate": "2025-03-06",
      "latitude": 38.161724,
      "name": "PLEASURE RIDGE PARK 0.6 NNW, KY US",
      "datacoverage": 1,
      "id": "GHCND:US1KYJF0010",
      "elevationUnit": "METERS",
      "longitude": -85.856597
    },
    {
      "elevation": 153.3,
      "mindate": "2008-12-01",
      "maxdate": "2014-09-08",
      "latitude": 38.095126,
      "name": "FAIRDALE 1.6 SE, KY US",
      "datacoverage": 0.7169,
      "id": "GHCND:US1KYJF0013",
      "elevationUnit": "METERS",
      "longitude": -85.73582
    },
    {
      "elevation": 185.3,
      "mindate": "2010-03-01",
      "maxdate": "2011-07-20",
      "latitude": 38.09354961,
      "name": "OKOLONA 3.5 SSE, KY US",
      "datacoverage": 0.7639,
      "id": "GHCND:US1KYJF0018",
      "elevationUnit": "METERS",
      "longitude": -85.65395997
    },
    {
      "elevation": 164.6,
      "mindate": "2010-03-01",
      "maxdate": "2012-09-03",
      "latitude": 38.257314,
      "name": "BEECHWOOD VILLAGE, KY US",
      "datacoverage": 0.6442,
      "id": "GHCND:US1KYJF0019",
      "elevationUnit": "METERS",
      "longitude": -85.633472
    },
    {
      "elevation": 158.5,
      "mindate": "2010-03-01",
      "maxdate": "2020-02-06",
      "latitude": 38.1249,
      "name": "VALLEY STATION 1.6 NNE, KY US",
      "datacoverage": 0.9721,
      "id": "GHCND:US1KYJF0021",
      "elevationUnit": "METERS",
      "longitude": -85.84878
    },
    {
      "elevation": 143.3,
      "mindate": "2010-03-01",
      "maxdate": "2015-05-12",
      "latitude": 38.151659,
      "name": "NEWBURG 1 S, KY US",
      "datacoverage": 1,
      "id": "GHCND:US1KYJF0022",
      "elevationUnit": "METERS",
      "longitude": -85.667006
    },
    {
      "elevation": 170.1,
      "mindate": "2010-07-01",
      "maxdate": "2016-11-04",
      "latitude": 38.268578,
      "name": "WINDY HILLS 0.4 SSE, KY US",
      "datacoverage": 0.8837,
      "id": "GHCND:US1KYJF0027",
      "elevationUnit": "METERS",
      "longitude": -85.632936
    },
    {
      "elevation": 191.1,
      "mindate": "2010-08-01",
      "maxdate": "2020-07-22",
      "latitude": 38.2635928,
      "name": "LYNDON 1.1 E, KY US",
      "datacoverage": 0.9999,
      "id": "GHCND:US1KYJF0029",
      "elevationUnit": "METERS",
      "longitude": -85.583961
    },
    {
      "elevation": 213.1,
      "mindate": "2011-06-01",
      "maxdate": "2012-05-13",
      "latitude": 38.2435,
      "name": "BLUE RIDGE MANOR, KY US",
      "datacoverage": 0.998,
      "id": "GHCND:US1KYJF0030",
      "elevationUnit": "METERS",
      "longitude": -85.5581
    },
    {
      "elevation": 222.5,
      "mindate": "2012-04-01",
      "maxdate": "2025-03-07",
      "latitude": 38.27051,
      "name": "MIDDLETOWN 4.9 ENE, KY US",
      "datacoverage": 1,
      "id": "GHCND:US1KYJF0032",
      "elevationUnit": "METERS",
      "longitude": -85.43726
    },
    {
      "elevation": 162.5,
      "mindate": "2012-06-01",
      "maxdate": "2015-08-05",
      "latitude": 38.256198,
      "name": "LOUISVILLE 3.6 E CRESCENT HILL, KY US",
      "datacoverage": 0.9652,
      "id": "GHCND:US1KYJF0033",
      "elevationUnit": "METERS",
      "longitude": -85.693504
    },
    {
      "elevation": 208.5,
      "mindate": "2012-09-01",
      "maxdate": "2014-07-20",
      "latitude": 38.236038,
      "name": "LOUISVILLE 10.6 E PLAINVIEW, KY US",
      "datacoverage": 0.958,
      "id": "GHCND:US1KYJF0034",
      "elevationUnit": "METERS",
      "longitude": -85.564828
    },
    {
      "elevation": 140.2,
      "mindate": "2013-01-01",
      "maxdate": "2018-10-02",
      "latitude": 38.1985130310059,
      "name": "CHURCHILL DOWNS 0.4 SE WILDER PARK, KY US",
      "datacoverage": 0.4825,
      "id": "GHCND:US1KYJF0035",
      "elevationUnit": "METERS",
      "longitude": -85.7655181884766
    },
    {
      "elevation": 205.4,
      "mindate": "2014-09-01",
      "maxdate": "2025-03-07",
      "latitude": 38.301658,
      "name": "LOUISVILLE 11.0 ENE SPRINGHURST, KY US",
      "datacoverage": 1,
      "id": "GHCND:US1KYJF0040",
      "elevationUnit": "METERS",
      "longitude": -85.567406
    },
    {
      "elevation": 224.6,
      "mindate": "2014-10-01",
      "maxdate": "2020-01-20",
      "latitude": 38.184196,
      "name": "LOUISVILLE 13.2 ESE, KY US",
      "datacoverage": 1,
      "id": "GHCND:US1KYJF0041",
      "elevationUnit": "METERS",
      "longitude": -85.531368
    },
    {
      "elevation": 214.9,
      "mindate": "2017-05-24",
      "maxdate": "2025-03-06",
      "latitude": 38.2400894165039,
      "name": "MIDDLETOWN 1.1 WSW, KY US",
      "datacoverage": 0.49,
      "id": "GHCND:US1KYJF0047",
      "elevationUnit": "METERS",
      "longitude": -85.5586853027344
    },
    {
      "elevation": 171.3,
      "mindate": "2017-05-13",
      "maxdate": "2021-08-28",
      "latitude": 38.271026,
      "name": "BRIARWOOD 0.9 WSW, KY US",
      "datacoverage": 0.5703,
      "id": "GHCND:US1KYJF0051",
      "elevationUnit": "METERS",
      "longitude": -85.603959
    },
    {
      "elevation": 165.2,
      "mindate": "2017-05-28",
      "maxdate": "2019-03-01",
      "latitude": 38.242543,
      "name": "BROAD FIELDS 0.5 WNW, KY US",
      "datacoverage": 0.5599,
      "id": "GHCND:US1KYJF0052",
      "elevationUnit": "METERS",
      "longitude": -85.660191
    },
    {
      "elevation": 229.5,
      "mindate": "2018-09-25",
      "maxdate": "2022-05-28",
      "latitude": 38.2914368,
      "name": "ANCHORAGE 2.7 NE FOREST SPRINGS, KY US",
      "datacoverage": 0.9819,
      "id": "GHCND:US1KYJF0066",
      "elevationUnit": "METERS",
      "longitude": -85.5010142
    },
    {
      "elevation": 167,
      "mindate": "2019-08-01",
      "maxdate": "2025-03-07",
      "latitude": 38.2072,
      "name": "LOUISVILLE 8.3 ESE, KY US",
      "datacoverage": 0.9466,
      "id": "GHCND:US1KYJF0069",
      "elevationUnit": "METERS",
      "longitude": -85.6205
    },
    {
      "elevation": 163.4,
      "mindate": "2020-08-25",
      "maxdate": "2025-03-06",
      "latitude": 38.247126,
      "name": "BELLEWOOD 1.0 SSW, KY US",
      "datacoverage": 0.6356,
      "id": "GHCND:US1KYJF0072",
      "elevationUnit": "METERS",
      "longitude": -85.663752
    },
    {
      "elevation": 204.8,
      "mindate": "2021-03-29",
      "maxdate": "2023-08-06",
      "latitude": 38.1978163,
      "name": "JEFFERSONTOWN 1.6 W, KY US",
      "datacoverage": 0.971,
      "id": "GHCND:US1KYJF0076",
      "elevationUnit": "METERS",
      "longitude": -85.5945829
    },
    {
      "elevation": 137.8,
      "mindate": "2021-06-08",
      "maxdate": "2021-11-14",
      "latitude": 38.184702,
      "name": "SHIVELY 1.4 ESE, KY US",
      "datacoverage": 0.9925,
      "id": "GHCND:US1KYJF0077",
      "elevationUnit": "METERS",
      "longitude": -85.785
    },
    {
      "elevation": 165.8,
      "mindate": "2022-06-25",
      "maxdate": "2025-03-07",
      "latitude": 38.25752,
      "name": "ST. MATTHEWS 0.4 N, KY US",
      "datacoverage": 1,
      "id": "GHCND:US1KYJF0082",
      "elevationUnit": "METERS",
      "longitude": -85.65252
    },
    {
      "elevation": 187.5,
      "mindate": "2022-07-01",
      "maxdate": "2025-03-06",
      "latitude": 38.26087,
      "name": "LYNDON 0.8 E, KY US",
      "datacoverage": 1,
      "id": "GHCND:US1KYJF0083",
      "elevationUnit": "METERS",
      "longitude": -85.5886
    },
    {
      "elevation": 190.5,
      "mindate": "2022-09-20",
      "maxdate": "2024-07-01",
      "latitude": 38.08368,
      "name": "PIONEER VILLAGE 3.1 ENE, KY US",
      "datacoverage": 0.8249,
      "id": "GHCND:US1KYJF0084",
      "elevationUnit": "METERS",
      "longitude": -85.6308
    },
    {
      "elevation": 150.6,
      "mindate": "2022-09-12",
      "maxdate": "2025-03-06",
      "latitude": 38.212451,
      "name": "AUDUBON PARK 0.8 NE, KY US",
      "datacoverage": 1,
      "id": "GHCND:US1KYJF0085",
      "elevationUnit": "METERS",
      "longitude": -85.716192
    },
    {
      "elevation": 166.1,
      "mindate": "2023-04-22",
      "maxdate": "2025-03-07",
      "latitude": 38.2622,
      "name": "LOUISVILLE 6.0 E, KY US",
      "datacoverage": 0.9994,
      "id": "GHCND:US1KYJF0087",
      "elevationUnit": "METERS",
      "longitude": -85.6484
    },
    {
      "elevation": 192.9,
      "mindate": "2023-05-05",
      "maxdate": "2024-05-12",
      "latitude": 38.1335,
      "name": "HIGHVIEW 0.8 SW, KY US",
      "datacoverage": 1,
      "id": "GHCND:US1KYJF0088",
      "elevationUnit": "METERS",
      "longitude": -85.6473
    },
    {
      "elevation": 136.6,
      "mindate": "2023-08-28",
      "maxdate": "2025-02-16",
      "latitude": 38.172576,
      "name": "PLEASURE RIDGE PARK 2.1 NW, KY US",
      "datacoverage": 0.2356,
      "id": "GHCND:US1KYJF0089",
      "elevationUnit": "METERS",
      "longitude": -85.882756
    },
    {
      "elevation": 185,
      "mindate": "2024-03-01",
      "maxdate": "2025-02-16",
      "latitude": 38.2488288,
      "name": "MIDDLETOWN 3.0 E, KY US",
      "datacoverage": 0.7454,
      "id": "GHCND:US1KYJF0090",
      "elevationUnit": "METERS",
      "longitude": -85.4655031
    }
  ]
}
